     2.11           OBSERVATION DATA    M                   RINEX VERSION / TYPE
ssrcrin-13.7.0x                         11-APR-25 04:00     PGM / RUN BY / DATE 
(000000000000583293750002) Septentrio proprietary           COMMENT             
SEPT                                                        MARKER NAME         
Unknown                                                     MARKER NUMBER       
Unknown             Unknown                                 OBSERVER / AGENCY   
3083514             SEPT POLARX5E       5.4.0               REC # / TYPE / VERS 
Unknown             Unknown                                 ANT # / TYPE        
 -1908063.3522 -5042727.7202  3400841.9029                  APPROX POSITION XYZ 
        0.0000        0.0000        0.0000                  ANTENNA: DELTA H/E/N
     1     1                                                WAVELENGTH FACT L1/2
    14    C1    L1    L2    P2    P1    C2    C5    L5    C6# / TYPES OF OBSERV 
          L6    C7    L7    C8    L8                        # / TYPES OF OBSERV 
For GPS, L2 corresponds to the L2P carrier phase.           COMMENT             
For GLONASS, L2 corresponds to the L2CA carrier phase.      COMMENT             
  2025     4    11     4     0    0.0000000     GPS         TIME OF FIRST OBS   
                                                            END OF HEADER       
 25  4 11  4  0  0.0000000  0 29G18E19E29G23R22G10R08R10E33R23G24R01
                                R07E13E26G28G08S33S31E07S35R09E12G32
                                G01R24G27G31G02
  24193527.473 6 127138126.90606  99068813.64003  24193531.935 3  24193527.165 3
  24193532.287 6  24193535.393 7  94941003.63907

  24719441.311 6 129901729.90106
                  24719444.363 6  97004682.66006  24719444.311 6 105439585.56406
  24719442.378 6  99535182.73006  24719443.159 7  98269950.26707
  23160465.256 8 121709567.27108
                  23160466.912 8  90887308.15908  23160468.518 8  98790446.01608
  23160465.371 8  93258243.43408  23160465.976 8  92072670.86908
  22618770.168 7 118862897.57207  92620715.79305  22618771.793 5  22618769.896 5
  22618772.453 7  22618775.105 7  88761539.66107

  20960291.327 7 111887581.56507  87023756.15807
  20960296.561 7

  21061604.721 8 110679841.02808  86244242.43007  21061606.886 7  21061604.373 7
  21061606.875 7  21061603.980 8  82650750.16008

  19985406.563 8 107021378.83908  83239049.14108
  19985411.173 8

  23215794.421 6 123753288.31806


  23580691.272 8 123917588.40508
                  23580692.454 8  92535990.23308  23580693.643 8 100582560.17808
  23580690.589 8  94949952.34208  23580691.485 8  93742974.36108
  19237785.506 8 102909300.26908


  24273946.934 6 127560659.20006  99398028.66905  24273951.882 5  24273946.630 5
  24273952.090 6  24273951.444 7  95256468.51507

  21613414.781 7 115536258.81107


  22285439.867 8 119296196.54808  92786183.94207
  22285445.928 7

  27755783.186 6 145857665.81606
                  27755792.578 6 108919743.28206  27755788.329 6 118390942.62506
  27755789.845 6 111761113.77106  27755791.173 7 110340428.60207
  23740770.457 7 124758938.96107
                  23740771.871 8  93164356.91108  23740773.429 8 101265532.11208
  23740770.166 8  95594701.48108  23740770.917 8  94379534.77008
  22548090.955 7 118491303.23607  92331023.36605  22548092.617 5  22548090.759 5
  22548092.881 7  22548096.409 7  88483960.35207

  23313435.529 7 122513003.87807  95464730.41204  23313439.708 4  23313434.971 4
  23313441.158 6  23313438.164 7  91487033.45107

  37105980.551 7 194993282.75807
                  37105980.262 6 145611861.54806

  36826864.590 7 193526523.48507
                  36826872.229 7 144516561.48907

  25316544.080 7 133039848.06507
                  25316548.107 7  99348256.16007  25316546.321 7 107986666.66207
  25316546.231 7 101939909.23207  25316547.097 8 100644083.76908
  36982775.468 7 194345829.17807
                  36982776.924 6 145128370.08706

  23100703.636 7 123356514.76407  95944024.83007
  23100708.868 7

  27985378.821 6 147064185.22106
                  27985381.506 6 109820680.81206  27985380.438 6 119370282.23806
  27985380.022 6 112685562.57906  27985380.765 6 111253121.76706
  20523269.802 8 107850976.98808  84039917.73707  20523271.833 7  20523269.664 7
  20523272.226 8  20523268.968 8  80538340.31708

  25462173.629 6 133804628.85106 104263364.83803  25462176.665 3  25462173.464 3
  25462177.249 6  25462180.598 6  99919069.49406

  22096690.228 8 118160968.46808  91903047.05607
  22096696.469 7

  23275805.332 6 122315255.15506  95310643.52204  23275808.378 4  23275804.774 4
  23275808.750 7  23275807.494 7  91339371.93207

  24430632.181 6 128384056.87106 100039647.98003  24430636.191 3  24430631.824 3
  24430637.562 6

  23262512.713 7 122245399.06307  95256178.33005  23262511.454 5  23262511.667 5


 25  4 11  4  0 15.0000000  0 29G18E19E29G23R22G10R08R10E33R23G24R01
                                R07E13E26G28G08S33S31E07S35R09E12G32
                                G01R24G27G31G02
  24203806.733 6 127192144.72906  99110905.40203  24203811.073 3  24203806.420 3
  24203811.045 6  24203814.365 7  94981341.55007

  24713875.201 6 129872478.86406
                  24713878.111 6  96982839.40906  24713877.990 6 105415842.87306
  24713875.900 6  99512769.64006  24713876.839 7  98247822.09807
  23160506.881 8 121709784.39208
                  23160508.234 8  90887470.31608  23160509.842 8  98790622.26408
  23160506.697 8  93258409.82008  23160507.272 8  92072835.14108
  22624088.305 7 118890843.09407  92642491.51005  22624089.800 5  22624088.028 5
  22624090.103 7  22624092.944 7  88782408.06107

  20970652.280 7 111942888.50107  87066772.62607
  20970657.071 7

  21061919.538 8 110681495.49408  86245531.63507  21061921.720 7  21061919.199 7
  21061921.771 7  21061918.792 8  82651985.64908

  19988274.376 8 107036733.48208  83250991.65708
  19988278.799 8

  23207683.711 6 123710046.09506


  23577177.868 8 123899125.95708
                  23577179.103 8  92522203.36408  23577180.341 8 100567574.44208
  23577177.271 8  94935805.81108  23577178.184 8  93729007.66108
  19239411.098 8 102917996.18608


  24282727.856 6 127606803.70506  99433985.45505  24282732.794 5  24282727.557 5
  24282733.418 6  24282732.257 7  95290927.08707

  21608310.552 7 115508977.11307


  22293295.462 7 119338245.96707  92818889.04107
  22293300.845 7

  27763701.543 6 145899276.06406
                  27763710.691 6 108950815.81906  27763707.256 6 118424717.12206
  27763708.202 6 111792996.88906  27763709.370 7 110371906.42807
  23744627.026 7 124779205.59607
                  23744628.526 8  93179491.08308  23744630.220 8 101281982.29208
  23744626.823 8  95610230.45808  23744627.535 8  94394866.34408
  22538956.233 7 118443299.71007  92293618.07705  22538957.758 5  22538956.046 5
  22538957.960 7  22538961.557 7  88448113.62807

  23316132.548 7 122527173.82007  95475771.93804  23316136.128 4  23316131.985 4
  23316137.509 6  23316134.749 7  91497614.91807

  37105981.745 7 194993282.93507
                  37105980.334 6 145611861.78406

  36826864.764 7 193526513.20707
                  36826870.253 7 144516553.68107

  25322857.397 7 133073024.24707
                  25322861.381 7  99373030.57607  25322859.697 7 108013595.39207
  25322859.451 7 101965329.94407  25322860.317 8 100669181.33508
  36982785.659 7 194345869.74007
                  36982784.695 6 145128400.47406

  23098510.134 7 123344807.35307  95934919.13607
  23098516.651 7

  27977470.010 6 147022624.40206
                  27977472.780 6 109789645.21006  27977471.677 5 119336547.87205
  27977471.178 6 112653717.33706  27977471.940 6 111221681.34906
  20523918.514 8 107854387.28008  84042575.12107  20523920.764 7  20523918.376 7
  20523921.261 8  20523917.868 8  80540886.98408

  25452164.804 6 133752030.47706 104222379.14803  25452168.011 3  25452164.621 3
  25452167.995 6  25452171.402 6  99879791.54006

  22086759.313 8 118107859.67508  91861740.25307
  22086764.428 7

  23282957.244 6 122352843.20506  95339932.90804  23282961.239 4  23282956.690 4
  23282961.438 7  23282960.186 7  91367440.93007

  24419711.098 6 128326662.49106  99994925.22103  24419714.638 3  24419710.741 3
  24419714.870 6

  23254745.720 7 122204581.25607  95224372.29505  23254743.946 5  23254744.679 5


 25  4 11  4  0 30.0000000  0 29G18E19E29G23R22G10R08R10E33R23G24R01
                                R07E13E26G28G08S33S31E07S35R09E12G32
                                G01R24G27G31G02
  24214094.139 6 127246203.07506  99153028.73403  24214097.938 3  24214093.818 3
  24214098.608 6  24214101.290 7  95021709.74507

  24708320.001 6 129843285.97106
                  24708322.680 6  96961039.58406  24708322.795 6 105392147.39106
  24708320.684 6  99490401.10106  24708321.559 7  98225737.91607
  23160561.780 8 121710073.92708
                  23160563.285 8  90887686.54108  23160564.956 8  98790857.28208
  23160561.730 8  93258631.68408  23160562.353 8  92073054.18508
  22629413.025 7 118918824.98707  92664295.57105  22629414.751 5  22629412.739 5
  22629414.884 7  22629417.863 7  88803303.61307

  20981033.065 7 111998302.37107  87109872.28407
  20981038.452 7

  21062242.092 8 110683188.33208  86246850.73907  21062243.842 7  21062241.757 7
  21062243.714 7  21062240.920 8  82653249.79908

  19991152.273 8 107052146.01208  83262979.18507
  19991156.698 7

  23199582.711 6 123666868.46006


  23573678.389 8 123880736.09808
                  23573679.679 8  92508470.69508  23573680.891 8 100552647.61408
  23573677.765 8  94921714.89608  23573678.693 8  93715095.87008
  19241074.935 8 102926898.08608


  24291525.905 6 127653036.83606  99470011.29605  24291530.640 5  24291525.606 5
  24291531.183 6  24291529.897 7  95325451.84107

  21603219.418 7 115481764.73007


  22301148.402 7 119380284.50707  92851585.67007
  22301154.684 7

  27771625.230 6 145940915.54406
                  27771634.722 6 108981910.18806  27771630.421 6 118458515.36306
  27771631.643 6 111824902.41906  27771633.005 7 110403406.37507
  23748499.316 7 124799554.85807
                  23748500.783 8  93194686.95708  23748502.616 8 101298499.55208
  23748499.121 8  95625822.75108  23748499.862 8  94410260.42808
  22529832.175 7 118395352.40407  92256256.59205  22529833.614 5  22529831.997 5
  22529833.739 7  22529837.471 7  88412308.88107

  23318849.622 7 122541451.46907  95486897.39104  23318853.148 4  23318849.072 4
  23318854.367 6  23318851.644 7  91508276.80007

  37105981.486 7 194993283.10507
                  37105980.258 6 145611862.11006

  36826859.827 7 193526501.87907
                  36826868.030 7 144516545.20807

  25329174.947 7 133106223.11507
                  25329179.015 7  99397821.93507  25329177.093 7 108040542.50807
  25329177.178 7 101990768.04007  25329177.884 8 100694296.06308
  36982792.027 7 194345909.74607
                  36982792.230 6 145128430.39706

  23096347.118 7 123333254.10707  95925933.29507
  23096352.842 7

  27969561.800 6 146981066.02506
                  27969564.380 6 109758611.42406  27969563.761 5 119302815.46805
  27969562.522 6 112621873.96806  27969563.594 6 111190242.77206
  20524584.838 8 107857888.48408  84045303.34907  20524587.040 7  20524584.695 7
  20524587.537 8  20524584.183 8  80543501.53908

  25442154.469 6 133699428.54106 104181390.66703  25442158.011 3  25442154.313 3
  25442157.502 5  25442161.866 6  99840510.91606

  22076846.653 8 118054853.50008  91820513.31807
  22076851.878 7

  23290119.297 6 122390482.33606  95369262.10204  23290123.688 4  23290118.743 4
  23290124.232 6  23290122.651 7  91395548.07607

  24408786.835 6 128269254.92506  99950192.18903  24408790.200 3  24408786.460 3
  24408790.323 6

  23246988.452 7 122163817.97607  95192608.75105  23246986.768 5  23246987.433 5


 25  4 11  4  0 45.0000000  0 29G18E19E29G23R22G10R08R10E33R23G24R01
                                R07E13E26G28G08S33S31E07S35R09E12G32
                                G01R24G27G31G02
  24224388.227 6 127300301.26406  99195183.11103  24224392.709 3  24224387.910 3
  24224393.234 6  24224395.904 7  95062107.67407

  24702775.767 6 129814150.75906
                  24702778.473 6  96939282.80806  24702778.548 6 105368498.71006
  24702776.573 6  99468076.76006  24702777.261 7  98203697.35607
  23160630.868 8 121710435.30708
                  23160632.021 8  90887956.42508  23160633.783 8  98791150.63508
  23160630.484 8  93258908.60508  23160631.100 8  92073327.58708
  22634744.858 7 118946842.85807  92686127.66105  22634746.378 5  22634744.572 5
  22634746.686 7  22634749.445 7  88824226.03507

  20991433.570 7 112053822.29907  87153054.41007
  20991439.358 7

  21062571.035 8 110684919.19608  86248199.46907  21062573.204 7  21062570.696 7
  21062573.325 7  21062570.263 8  82654542.33008

  19994041.534 8 107067615.91008  83275011.33708
  19994045.847 8

  23191495.401 6 123623755.14906


  23570192.645 8 123862418.57708
                  23570193.944 8  92494792.04508  23570195.105 8 100537779.51408
  23570192.076 8  94907679.41108  23570192.973 8  93701238.80208
  19242777.786 8 102936005.49808


  24300340.578 6 127699357.75206  99506105.51705  24300345.093 5  24300340.279 5
  24300345.291 6  24300344.639 7  95360042.14407

  21598142.485 7 115454621.19507


  22308999.889 8 119422311.65708  92884273.43607
  22309004.696 7

  27779554.378 6 145982583.68206
                  27779563.735 6 109013025.96606  27779560.289 6 118492336.89506
  27779560.562 6 111856829.91906  27779562.193 7 110434928.01407
  23752387.402 7 124819986.23707
                  23752388.778 8  93209944.16608  23752390.564 8 101315083.47308
  23752387.127 8  95641477.96908  23752387.830 8  94425716.64208
  22520718.270 7 118347461.27007  92218938.87705  22520720.174 5  22520718.087 5
  22520720.549 7  22520724.044 7  88376546.07307

  23321586.761 6 122555836.08106  95498106.18604  23321590.501 4  23321586.198 4
  23321591.613 6  23321588.828 7  91519018.57607

  37105980.023 7 194993281.88607
                  37105980.025 6 145611860.99906

  36826856.666 7 193526489.21407
                  36826865.647 7 144516535.75807

  25335496.401 7 133139444.03207
                  25335500.756 7  99422629.77307  25335499.218 7 108067507.54707
  25335498.743 7 102016223.02207  25335499.631 8 100719427.47408
  36982800.018 7 194345948.47407
                  36982799.693 6 145128459.12706

  23094212.129 7 123321854.63107  95917067.08407
  23094218.016 7

  27961653.934 6 146939509.78306
                  27961656.279 6 109727579.23206  27961655.353 6 119269084.79906
  27961654.870 6 112590032.23406  27961655.650 6 111158805.80806
  20525268.203 8 107861479.95608  84048101.91307  20525270.465 7  20525268.056 7
  20525270.845 8  20525267.608 8  80546183.50008

  25432144.499 6 133646822.81206 104140399.24503  25432147.063 3  25432144.330 3
  25432147.912 5  25432151.457 6  99801227.49706

  22066952.608 8 118001950.00108  91779366.17807
  22066958.687 7

  23297291.357 6 122428171.70306  95398630.42804  23297295.813 4  23297290.781 4
  23297296.321 6  23297294.677 7  91423692.73007

  24397859.530 6 128211833.94606  99905448.69003  24397863.151 3  24397859.133 3
  24397863.484 6

  23239241.710 7 122123109.16407  95160887.64205  23239240.156 5  23239240.700 5


 25  4 11  4  1  0.0000000  0 29G18E19E29G23R22G10R08R10E33R23G24R01
                                R07E13E26G28G08S33S31E07S35R09E12G32
                                G01R24G27G31G02
  24234690.824 6 127354439.80406  99237368.92803  24234695.126 3  24234690.503 3
  24234695.372 6  24234698.273 7  95102535.75007

  24697242.481 6 129785074.00706
                  24697245.329 6  96917569.69706  24697245.248 6 105344897.47506
  24697243.174 6  99445797.20806  24697244.089 7  98181701.02407
  23160713.192 8 121710869.23508
                  23160714.610 8  90888280.47608  23160716.412 8  98791502.85308
  23160713.019 8  93259241.10608  23160713.651 8  92073655.86408
  22640083.565 7 118974897.52907  92707988.43405  22640084.999 5  22640083.288 5
  22640085.437 7  22640088.072 7  88845175.93207

  21001854.822 8 112109448.57808  87196319.27307
  21001859.883 7

  21062907.905 8 110686688.95908  86249578.51107  21062909.971 7  21062907.566 7
  21062909.938 7  21062907.016 8  82655863.91508

  19996941.149 8 107083143.57408  83287088.41708
  19996945.610 8

  23183419.446 6 123580707.55706


  23566720.907 8 123844174.41508
                  23566722.192 8  92481168.16908  23566723.409 8 100522970.94508
  23566720.314 8  94893700.12908  23566721.210 8  93687437.22308
  19244519.049 8 102945318.99708


  24309172.357 6 127745766.92206  99542268.52905  24309176.356 5  24309172.062 5
  24309177.073 6  24309175.898 7  95394698.36807

  21593077.617 7 115427547.24307


  22316848.745 8 119464327.83108  92916952.66407
  22316854.529 7

  27787489.355 6 146024281.19106
                  27787498.681 6 109044163.66206  27787495.121 6 118526182.22406
  27787495.737 6 111888779.91106  27787496.980 7 110466471.85907
  23756291.073 7 124840500.56207
                  23756292.525 8  93225263.29808  23756294.298 8 101331734.70808
  23756290.814 8  95657196.73608  23756291.570 8  94441235.59108
  22511615.930 7 118299627.44307  92181665.81505  22511617.650 5  22511615.743 5
  22511618.099 7  22511621.557 7  88340826.07807

  23324344.583 7 122570328.25507  95509398.80004  23324348.410 4  23324344.033 4
  23324348.815 6  23324346.682 7  91529840.66607

  37105981.790 7 194993280.06007
                  37105979.672 6 145611859.69306

  36826854.895 7 193526477.05707
                  36826863.250 7 144516526.81707

  25341822.505 7 133172687.63007
                  25341826.611 7  99447454.53807  25341824.925 7 108094490.99007
  25341824.825 7 102041695.40307  25341825.662 8 100744576.04508
  36982807.597 7 194345987.42107
                  36982807.156 6 145128488.30106

  23092106.173 7 123310609.71507  95908321.07207
  23092112.450 7

  27953746.125 6 146897956.60106
                  27953749.131 6 109696549.33106  27953748.236 6 119235356.61706
  27953747.397 6 112558192.85506  27953748.261 6 111127371.16706
  20525969.195 8 107865162.38208  84050971.35107  20525971.226 7  20525969.048 7
  20525971.840 8  20525968.303 8  80548933.37708

  25422133.091 6 133594214.35606 104099405.67403  25422136.187 3  25422132.913 3
  25422136.730 6  25422140.159 6  99761942.00706

  22057079.436 8 117949150.39408  91738299.88307
  22057084.993 7

  23304473.391 6 122465911.71606  95428038.23404  23304477.511 4  23304472.806 4
  23304478.076 6  23304476.345 7  91451875.19607

  24386930.426 6 128154400.75706  99860695.67003  24386933.683 3  24386930.042 3
  24386934.553 6

  23231505.303 7 122082455.88007  95129209.81005  23231504.208 5  23231504.284 5


 25  4 11  4  1 15.0000000  0 29G18E19E29G23R22G10R08R10E33R23G24R01
                                R07E13E26G28G08S33S31E07S35R09E12G32
                                G01R24G27G31G02
  24245000.620 6 127408618.63406  99279586.15003  24245005.190 3  24245000.303 3
  24245005.301 6  24245008.231 7  95142993.90307

  24691720.797 6 129756056.22206
                  24691723.562 6  96895900.61906  24691723.470 6 105321344.11006
  24691721.295 6  99423562.85506  24691722.145 7  98159749.31007
  23160809.481 8 121711375.76308
                  23160810.964 8  90888658.74008  23160812.770 8  98791914.00608
  23160809.411 8  93259629.24508  23160810.027 8  92074039.06608
  22645429.054 7 119002989.24907  92729878.07305  22645430.753 5  22645428.768 5
  22645430.639 7  22645433.719 7  88866153.50407

  21012295.079 7 112165180.94907  87239666.63807
  21012300.757 7

  21063252.060 8 110688497.90708  86250988.08707  21063254.174 7  21063251.721 7
  21063254.282 7  21063251.220 8  82657214.76108

  19999851.892 8 107098728.93908  83299210.37908
  19999855.553 8

  23175356.106 6 123537726.48306


  23563263.263 8 123826003.92608
                  23563264.455 8  92467599.30908  23563265.624 8 100508222.18008
  23563262.541 8  94879777.29408  23563263.461 8  93673691.37608
  19246298.522 8 102954839.07208


  24318020.059 6 127792264.14806  99578500.16205  24318024.516 5  24318019.773 5
  24318024.923 6  24318023.882 7  95429420.36907

  21588026.222 7 115400543.02007


  22324695.303 8 119506333.33608  92949623.59807
  22324701.354 7

  27795429.977 6 146066008.05506
                  27795438.931 6 109075323.29606  27795434.890 6 118560051.40006
  27795435.648 6 111920752.40506  27795437.509 7 110498037.92207
  23760210.534 7 124861097.94007
                  23760212.078 8  93240644.46308  23760213.857 8 101348453.35708
  23760210.385 8  95672979.14308  23760211.131 8  94456817.37708
  22502523.776 7 118251851.51207  92144437.86905  22502526.246 5  22502523.566 5
  22502526.395 7  22502529.933 7  88305149.30707

  23327122.360 7 122584927.89607  95520775.15104  23327126.674 4  23327121.819 4
  23327127.610 6  23327124.837 7  91540743.00007

  37105982.371 7 194993278.46607
                  37105979.368 6 145611833.53416

  36826852.065 7 193526464.20607
                  36826860.898 7 144516517.16107

  25348153.014 7 133205953.92007
                  25348157.084 7  99472296.23707  25348155.251 7 108121492.84107
  25348155.086 7 102067185.14907  25348156.031 8 100769741.76808
  36982814.613 7 194346026.29207
                  36982814.445 6 145128517.32106

  23090029.735 7 123299520.22607  95899695.97107
  23090035.885 7

  27945839.716 6 146856406.85106
                  27945842.440 6 109665522.00906  27945841.219 6 119201631.22606
  27945840.854 6 112526356.09906  27945841.596 6 111095939.13106
  20526686.983 8 107868935.71408  84053911.62407  20526689.230 7  20526686.831 7
  20526689.813 8  20526686.364 8  80551751.14808

  25412121.362 6 133541603.50106 104058410.29203  25412125.239 3  25412121.188 3
  25412124.749 5  25412128.465 6  99722654.75006

  22047224.760 8 117896455.29608  91697314.87407
  22047231.079 7

  23311664.345 6 122503702.14006  95457485.30504  23311668.891 4  23311663.751 4
  23311669.707 7  23311667.660 7  91480095.31207

  24375998.670 6 128096955.71506  99815933.42303  24376002.390 3  24375998.299 3
  24376002.800 6

  23223779.563 7 122041858.55207  95097575.57205  23223778.832 5  23223778.539 5


 25  4 11  4  1 30.0000000  0 29G18E19E29G23R22G10R08R10E33R23G24R01
                                R07E13E26G28G08S33S31E07S35R09E12G32
                                G01R24G27G31G02
  24255318.318 6 127462835.85306  99321833.27703  24255322.037 3  24255317.992 3
  24255322.905 6  24255325.556 7  95183480.70407

  24686209.770 6 129727095.49406
                  24686212.306 6  96874274.14006  24686212.349 6 105297837.06106
  24686210.149 6  99401372.19506  24686211.062 7  98137840.74107
  23160919.561 8 121711953.12008
                  23160920.862 8  90889089.90808  23160922.627 8  98792382.65408
  23160919.249 8  93260071.65008  23160919.891 8  92074475.85208
  22650781.714 7 119031116.42707  92751795.33605  22650783.119 5  22650781.428 5
  22650783.330 7  22650786.157 7  88887157.54307

  21022755.287 7 112221017.27307  87283094.86507
  21022760.642 7

  21063603.551 8 110690344.46608  86252426.97407  21063605.558 7  21063603.212 7
  21063605.690 7  21063602.558 8  82658593.69808

  20002772.701 8 107114370.37708  83311375.96308
  20002776.710 8

  23167305.275 6 123494810.63706


  23559819.288 8 123807905.66708
                  23559820.456 8  92454084.39508  23559821.704 8 100493532.04708
  23559818.501 8  94865909.81208  23559819.458 8  93660000.17708
  19248116.265 8 102964563.70008


  24326884.388 6 127838847.48106  99614798.88305  24326888.927 5  24326884.107 5
  24326889.621 6  24326888.575 7  95464206.63307

  21582987.304 7 115373606.81107


  22332540.354 8 119548325.97808  92982284.53607
  22332546.349 7

  27803375.490 6 146107762.52406
                  27803384.619 6 109106503.53206  27803381.118 6 118593942.98506
  27803381.736 6 111952746.04706  27803383.054 7 110529624.86607
  23764145.713 7 124881776.71607
                  23764147.127 8  93256086.39808  23764148.949 8 101365238.07708
  23764145.391 8  95688823.91708  23764146.172 8  94472460.73108
  22493443.580 7 118204132.19807  92107254.04205  22493445.499 5  22493443.366 5
  22493445.511 7  22493449.132 7  88269514.80307

  23329920.940 7 122599633.15507  95532233.79904  23329925.024 4  23329920.395 4
  23329926.000 6  23329923.120 7  91551724.20207

  37105979.295 7 194993275.48807
                  37105978.751 6 145611831.24606

  36826851.765 7 193526450.08907
                  36826858.103 7 144516506.70107

  25354487.468 7 133239241.05007
                  25354491.412 7  99497153.51607  25354489.830 7 108148511.62307
  25354489.549 7 102092690.87307  25354490.375 8 100794923.27008
  36982821.352 7 194346062.82107
                  36982821.340 6 145128544.49906

  23087981.242 7 123288584.34707  95891190.32607
  23087987.964 7

  27937933.341 6 146814859.08706
                  27937936.125 6 109634496.15806  27937935.026 6 119167907.44706
  27937934.551 6 112494520.89606  27937935.293 6 111064508.59806
  20527421.971 8 107872798.16908  84056921.34507  20527424.213 7  20527421.819 7
  20527424.491 8  20527421.360 8  80554635.46408

  25402109.067 6 133488988.90406 104017411.92403  25402112.619 3  25402108.884 3
  25402112.145 6  25402115.963 6  99683364.67306

  22037390.607 8 117843863.92008  91656410.51607
  22037395.436 7

  23318864.752 6 122541540.98106  95486970.10604  23318869.491 4  23318864.162 4
  23318869.476 7  23318868.088 7  91508351.57107

  24365063.795 6 128039497.69806  99771161.06103  24365068.173 3  24365063.384 3
  24365068.978 6

  23216065.079 7 122001315.77007  95065983.83905  23216063.454 5  23216064.060 5


 25  4 11  4  1 45.0000000  0 29G18E19E29G23R22G10R08R10E33R23G24R01
                                R07E13E26G28G08S33S31E07S35R09E12G32
                                G01R24G27G31G02
  24265643.686 6 127517095.50606  99364113.46703  24265647.595 3  24265643.373 3
  24265647.711 6  24265650.970 7  95223999.21407

  24680709.876 6 129698196.29506
                  24680712.896 6  96852693.60706  24680712.976 6 105274379.94506
  24680710.733 6  99379228.69006  24680711.668 7  98115978.72007
  23161043.515 8 121712605.56608
                  23161044.942 8  90889577.13808  23161046.701 8  98792912.24908
  23161043.406 8  93260571.58408  23161044.032 8  92074969.43408
  22656141.275 7 119059283.44807  92773743.64805  22656143.083 5  22656140.967 5
  22656143.238 7  22656146.147 7  88908191.34007

  21033235.284 7 112276961.50807  87326607.01807
  21033240.571 7

  21063962.911 8 110692233.11808  86253898.65607  21063964.956 7  21063962.572 7
  21063965.075 7  21063962.006 8  82660004.06208

  20005704.131 8 107130071.61508  83323588.05008
  20005708.848 8

  23159267.124 6 123451965.25706


  23556390.069 8 123789884.18508
                  23556391.052 8  92440626.81008  23556392.396 8 100478904.23408
  23556389.171 8  94852101.16508  23556390.072 8  93646367.06108
  19249973.887 8 102974497.45308


  24335766.143 6 127885520.91906  99651167.81305  24335770.665 5  24335765.866 5
  24335771.978 6  24335770.167 7  95499060.19507

  21577960.903 7 115346742.57107


  22340382.734 8 119590310.07208  93014938.82007
  22340389.206 7

  27811326.888 6 146149548.78306
                  27811336.579 6 109137707.49206  27811332.444 6 118627860.37406
  27811333.728 6 111984764.03706  27811334.932 7 110561235.83807
  23768097.141 7 124902541.23207
                  23768098.494 8  93271592.36508  23768100.204 8 101382092.38508
  23768096.797 8  95704734.38408  23768097.526 8  94488168.94908
  22484374.819 7 118156474.20107  92070117.99505  22484376.346 5  22484374.605 5
  22484376.671 7  22484380.193 7  88233926.11507

  23332740.117 7 122614448.07707  95543777.90704  23332744.123 4  23332739.576 4
  23332745.055 6  23332742.321 7  91562787.31107

  37105979.764 7 194993274.77107
                  37105978.639 6 145611830.70206

  36826845.791 7 193526438.60407
                  36826855.984 7 144516498.21007

  25360826.607 7 133272553.23807
                  25360830.513 7  99522029.50007  25360828.916 7 108175550.73007
  25360828.667 7 102118215.79507  25360829.472 8 100820123.72208
  36982828.739 7 194346102.51607
                  36982828.790 6 145128574.28006

  23085962.934 7 123277807.24507  95882808.17207
  23085969.020 7

  27930028.541 6 146773317.86906
                  27930030.840 6 109603475.16906  27930029.787 6 119134188.97706
  27930029.210 6 112462690.66106  27930030.225 6 111033082.98706
  20528174.824 8 107876753.94008  84060003.77607  20528176.962 7  20528174.668 7
  20528177.523 8  20528174.133 8  80557589.46508

  25392097.259 6 133436375.13306 103976414.23903  25392100.325 3  25392097.085 3
  25392101.158 5  25392103.741 6  99644075.23406

  22027574.773 8 117791380.85908  91615590.41907
  22027580.855 7

  23326075.653 6 122579432.21106  95516495.72304  23326079.848 4  23326075.063 4
  23326079.996 7  23326078.629 7  91536646.96007

  24354129.035 6 127982031.25006  99726382.11603  24354132.471 3  24354128.602 3
  24354133.568 6

  23208361.283 7 121960832.15307  95034438.21205  23208359.627 5  23208360.251 5


 25  4 11  4  2  0.0000000  0 29G18E19E29G23R22G10R08R10E33R23G24R01
                                R07E13E26G28G08S33S31E07S35R09E12G32
                                G01R24G27G31G02
  24275976.120 6 127571396.26206  99406425.68103  24275980.830 3  24275975.803 3
  24275981.190 6  24275984.099 7  95264548.42307

  24675222.493 6 129669357.52206
                  24675225.080 6  96831158.19406  24675225.007 6 105250971.88106
  24675223.041 6  99357131.48606  24675223.789 7  98094162.41207
  23161181.911 8 121713331.89608
                  23161183.188 8  90890119.54408  23161184.903 8  98793501.81408
  23161181.561 8  93261128.14108  23161182.228 8  92075518.91608
  22661508.866 7 119087489.24607  92795722.17405  22661510.511 5  22661508.558 5
  22661510.623 7  22661513.539 7  88929254.10307

  21043735.587 7 112333012.05707  87370201.85807
  21043741.209 7

  21064330.109 8 110694162.83808  86255402.34007  21064332.143 7  21064329.770 7
  21064332.243 7  21064329.180 8  82661445.09308

  20008647.200 8 107145831.58208  83335845.81908
  20008652.131 8

  23151242.622 6 123409189.70806


  23552974.910 8 123771938.57108
                  23552976.127 8  92427225.88608  23552977.381 8 100464338.00008
  23552974.248 8  94838350.64108  23552975.107 8  93632791.33808
  19251869.476 8 102984639.11108


  24344664.739 6 127932282.94006  99687605.77305  24344669.346 5  24344664.462 5
  24344669.940 6  24344668.535 7  95533979.92407

  21572949.106 7 115319949.61707


  22348224.276 8 119632284.64608  93047585.70507
  22348229.872 7

  27819284.194 6 146191365.61306
                  27819293.768 6 109168934.30706  27819290.155 6 118661802.57106
  27819290.869 6 112016805.46406  27819292.269 7 110592869.95507
  23772064.610 7 124923390.34207
                  23772065.891 8  93287161.50608  23772067.704 8 101399015.37108
  23772064.232 8  95720709.68208  23772064.982 8  94503941.16808
  22475317.005 7 118108876.84307  92033029.19805  22475318.762 5  22475316.800 5
  22475318.800 7  22475322.656 7  88198382.69107

  23335580.075 7 122629371.40107  95555406.48204  23335583.872 4  23335579.525 4
  23335584.755 6  23335582.047 7  91573931.35607

  37105977.676 7 194993275.66707
                  37105978.782 6 145611831.49006

  36826848.541 7 193526428.73207
                  36826854.168 7 144516490.73607

  25367169.994 7 133305889.18707
                  25367174.030 7  99546923.22407  25367172.145 7 108202609.13007
  25367172.301 7 102143758.92307  25367173.086 8 100845342.14608
  36982835.835 7 194346143.69907
                  36982836.709 6 145128605.08706

  23083974.154 7 123267187.68307  95874548.55807
  23083980.608 7

  27922124.304 6 146731782.17606
                  27922127.120 6 109572458.34206  27922126.169 5 119100474.99005
  27922124.895 6 112430864.66806  27922126.194 6 111001661.57906
  20528945.182 8 107880801.74408  84063157.92107  20528947.212 7  20528945.030 7
  20528947.690 8  20528944.353 8  80560612.18908

  25382084.799 6 133383761.34006 103935416.52903  25382087.924 3  25382084.598 3
  25382088.964 5  25382091.932 6  99604785.76506

  22017780.852 8 117739005.54808  91574854.11407
  22017786.316 7

  23333295.804 6 122617374.34806  95546061.02004  23333300.048 4  23333295.219 4
  23333300.324 7  23333298.757 7  91564980.36607

  24343191.480 6 127924555.71306  99681596.09504  24343195.374 4  24343191.007 4
  24343195.794 6

  23200668.695 7 121920406.97307  95002938.12505  23200666.942 5  23200667.658 5


 25  4 11  4  2 15.0000000  0 29G18E19E29G23R22G10R08R10E33R23G24R01
                                R07E13E26G28G08S33S31E07S35R09E12G32
                                G01R24G27G31G02
  24286316.602 6 127625734.11806  99448766.82203  24286320.742 3  24286316.263 3
  24286321.244 6  24286324.239 7  95305125.32707

  24669745.396 6 129640575.77106
                  24669748.046 6  96809665.39006  24669747.937 6 105227610.09806
  24669745.813 6  99335077.97706  24669746.745 7  98072389.25607
  23161333.448 8 121714128.26208
                  23161334.702 8  90890714.25108  23161336.511 8  98794148.22808
  23161333.141 8  93261738.36108  23161333.748 8  92076121.37908
  22666882.985 7 119115730.17707  92817728.08105  22666884.645 5  22666882.681 5
  22666884.716 7  22666887.684 7  88950343.08907

  21054255.814 8 112389164.63608  87413876.05907
  21054259.961 7

  21064704.529 8 110696130.03508  86256935.22807  21064706.499 7  21064704.190 7
  21064706.612 7  21064703.523 8  82662914.11508

  20011600.701 8 107161646.13808  83348146.02808
  20011604.927 8

  23143231.037 6 123366480.78006


  23549573.875 8 123754065.25408
                  23549574.923 8  92413878.94808  23549576.165 8 100449830.45108
  23549573.056 8  94824655.52408  23549573.906 8  93619270.31008
  19253803.319 8 102994984.93808


  24353579.184 6 127979129.53406  99724109.63605  24353584.035 5  24353578.907 5
  24353584.000 6  24353583.343 7  95568962.79407

  21567949.889 7 115293223.71807


  22356063.187 8 119674245.66708  93080222.05107
  22356069.607 7

  27827246.943 6 146233209.12206
                  27827256.565 6 109200181.04706  27827252.874 6 118695766.43806
  27827253.321 6 112048867.33906  27827254.950 7 110624524.27007
  23776047.457 7 124944320.28507
                  23776048.750 8  93302791.01708  23776050.511 8 101416003.96508
  23776047.165 8  95736746.91508  23776047.825 8  94519774.54008
  22466270.200 7 118061336.73207  91995985.00805  22466272.119 5  22466269.981 5
  22466272.230 7  22466276.070 7  88162882.02207

  23338439.719 7 122644399.06407  95567116.36004  23338443.412 4  23338439.161 4
  23338444.366 6  23338441.715 7  91585153.33107

  37105975.704 7 194993274.11207
                  37105978.442 6 145611830.20106

  36826845.451 7 193526416.31607
                  36826851.736 7 144516481.49607

  25373517.752 7 133339244.99307
                  25373521.462 7  99571831.78207  25373519.963 7 108229683.64907
  25373519.690 7 102169317.26707  25373520.487 8 100870575.59908
  36982840.540 7 194346182.12807
                  36982844.163 6 145128633.79606

  23082014.037 7 123256722.30107  95866408.86107
  23082020.760 7

  27914220.737 6 146690248.51406
                  27914223.545 6 109541442.99706  27914222.030 6 119066762.65406
  27914221.432 6 112399040.23806  27914222.534 6 110970241.68906
  20529732.372 8 107884937.68508  84066380.74807  20529734.244 7  20529732.225 7
  20529734.748 8  20529731.416 8  80563700.73908

  25372072.678 6 133331144.05506 103894416.09603  25372075.335 3  25372072.464 3
  25372076.273 5  25372079.328 6  99565493.71106

  22008006.336 8 117686734.94908  91534199.27407
  22008011.452 7

  23340524.541 6 122655363.27006  95575662.78004  23340529.047 4  23340523.947 4
  23340530.004 7  23340527.834 7  91593348.72407

  24332251.925 6 127867067.62506  99636800.29403  24332255.442 3  24332251.452 3
  24332256.279 6

  23192985.994 7 121880036.75607  94971480.85705  23192984.655 5  23192984.948 5


 25  4 11  4  2 30.0000000  0 29G18E19E29G23R22G10R08R10E33R23G24R01
                                R07E13E26G28G08S33S31E07S35R09E12G32
                                G01R24G27G31G02
  24296664.514 6 127680114.33506  99491140.97003  24296669.185 3  24296664.184 3
  24296669.419 6  24296672.606 7  95345733.85507

  24664280.486 6 129611856.30806
                  24664282.870 6  96788219.07806  24664283.044 6 105204298.86506
  24664280.676 6  99313072.19206  24664281.563 7  98050663.20707
  23161499.319 8 121715000.04308
                  23161500.576 8  90891365.27408  23161502.384 8  98794855.85508
  23161499.029 8  93262406.36208  23161499.632 8  92076780.89108
  22672264.901 7 119144011.74007  92839765.64205  22672266.426 5  22672264.606 5
  22672266.391 7  22672269.383 7  88971462.42007

  21064794.497 8 112445424.37408  87457633.60407
  21064799.696 7

  21065087.100 8 110698140.25608  86258501.64207  21065089.006 7  21065086.756 7
  21065089.103 7  21065086.101 8  82664415.25908

  20014564.951 8 107177520.58808  83360492.83907
  20014569.830 7

  23135232.253 6 123323844.43806


  23546187.522 8 123736269.93808
                  23546188.593 8  92400590.25408  23546189.857 8 100435386.21208
  23546186.617 8  94811020.16408  23546187.555 8  93605808.28308
  19255776.775 8 103005540.39408


  24362511.034 6 128026065.81206  99760683.38505  24362515.542 5  24362510.762 5
  24362515.396 6  24362514.731 7  95604012.63707

  21562963.622 7 115266570.62907


  22363899.701 8 119716198.75008  93112852.20507
  22363906.016 7

  27835215.678 6 146275084.68806
                  27835224.800 6 109231451.71206  27835221.527 6 118729756.31306
  27835222.665 6 112080953.77606  27835223.770 7 110656202.82107
  23780046.559 7 124965336.55407
                  23780048.039 8  93318484.98208  23780049.868 8 101433062.62408
  23780046.429 8  95752850.28508  23780047.092 8  94535673.20708
  22457235.692 7 118013859.73407  91958989.99605  22457237.421 5  22457235.460 5
  22457237.706 7  22457241.389 7  88127428.48607

  23341320.136 7 122659536.39207  95578911.68604  23341324.080 4  23341319.560 4
  23341324.965 6  23341322.235 7  91596457.19207

  37105980.989 7 194993275.85307
                  37105978.805 6 145611831.44706

  36826840.246 7 193526407.63907
                  36826850.086 7 144516474.97507

  25379869.557 7 133372625.97507
                  25379873.762 7  99596759.14107  25379871.979 7 108256778.60807
  25379871.805 7 102194894.90407  25379872.682 8 100895828.09608
  36982852.331 7 194346224.33107
                  36982852.056 6 145128665.18106

  23080084.867 7 123246416.86307  95858393.54907
  23080090.837 7

  27906318.390 6 146648722.53806
                  27906321.194 6 109510433.42906  27906319.819 6 119033056.54906
  27906319.486 6 112367221.69706  27906320.238 6 110938827.63406
  20530536.969 8 107889167.07708  84069676.39107  20530539.025 7  20530536.822 7
  20530539.467 8  20530536.240 8  80566859.06908

  25362060.174 6 133278528.99206 103853417.40003  25362062.674 3  25362059.982 3
  25362063.193 6  25362066.959 6  99526203.30806

  21998251.662 8 117634574.84908  91493630.34807
  21998257.126 7

  23347763.404 6 122693404.09206  95605304.99204  23347767.902 4  23347762.805 4
  23347768.425 6  23347766.654 7  91621755.84107

  24321311.179 6 127809572.83406  99591999.25803  24321314.562 3  24321310.706 3
  24321314.748 6

  23185315.339 7 121839727.25207  94940070.90105  23185313.989 5  23185314.284 5


 25  4 11  4  2 45.0000000  0 29G18E19E29G23R22G10R08R10E33R23G24R01
                                R07E13E26G28G08S33S31E07S35R09E12G32
                                G01R24G27G31G02
  24307019.854 6 127734531.27006  99533543.71103  24307025.007 3  24307019.541 3
  24307024.737 6  24307027.620 7  95386369.82707

  24658825.818 6 129583193.82306
                  24658828.527 6  96766815.32606  24658828.565 6 105181033.91206
  24658826.667 6  99291110.07506  24658827.226 7  98028980.27307
  23161678.414 8 121715941.78408
                  23161679.766 8  90892068.53408  23161681.489 8  98795620.26308
  23161678.231 8  93263127.97308  23161678.824 8  92077493.32608
  22677653.438 7 119172328.68207  92861830.78005  22677655.085 5  22677653.166 5
  22677655.457 7  22677657.922 7  88992608.16207

  21075352.316 8 112501785.41108  87501469.94807
  21075357.915 7

  21065476.732 8 110700188.26608  86260097.49907  21065478.757 7  21065476.393 7
  21065478.650 7  21065475.758 8  82665944.62708

  20017539.784 8 107193449.25308  83372881.81208
  20017544.170 8

  23127246.475 6 123281276.12106


  23542814.991 8 123718547.45008
                  23542816.080 8  92387355.94408  23542817.376 8 100421001.08708
  23542814.189 8  94797440.60908  23542815.062 8  93592401.35008
  19257787.643 8 103016299.66708


  24371458.705 6 128073086.07706  99797322.58005  24371463.219 5  24371458.433 5
  24371462.804 6  24371462.314 7  95639125.20907

  21557990.004 7 115239984.59507


  22371734.829 8 119758137.83008  93145471.47307
  22371741.258 7

  27843189.657 5 146316986.85605
                  27843198.793 6 109262742.23406  27843194.439 6 118763767.75106
  27843196.040 6 112113060.55506  27843197.335 7 110687901.47207
  23784061.364 7 124986433.76807
                  23784062.706 8  93334239.39608  23784064.686 8 101450186.98808
  23784061.072 8  95769015.69008  23784061.760 8  94551633.11708
  22448211.799 7 117966440.91407  91922040.31505  22448213.901 5  22448211.540 5
  22448214.476 7  22448217.881 7  88092018.38007

  23344219.997 6 122674777.78006  95590788.09404  23344224.446 4  23344219.434 4
  23344224.714 6  23344222.614 7  91607838.74807

  37105980.184 7 194993276.26907
                  37105978.755 6 145611832.04106

  36826842.164 7 193526396.58707
                  36826847.970 7 144516466.74107

  25386225.717 7 133406026.63607
                  25386229.719 7  99621701.19107  25386227.922 7 108283889.52507
  25386227.881 7 102220487.61607  25386228.611 8 100921095.47808
  36982856.848 7 194346264.32507
                  36982859.635 6 145128695.14906

  23078184.657 7 123236266.14007  95850498.59307
  23078190.452 7

  27898416.952 6 146607199.13506
                  27898419.359 6 109479425.74406  27898418.141 6 118999352.53406
  27898417.661 6 112335405.13306  27898418.532 6 110907415.51206
  20531358.462 8 107893484.43308  84073040.58007  20531360.574 7  20531358.319 7
  20531361.094 8  20531357.830 8  80570083.08608

  25352047.294 6 133225911.03006 103812416.42503  25352050.354 3  25352047.089 3
  25352050.115 6  25352053.845 6  99486910.71806

  21988517.427 8 117582520.53608  91453143.73207
  21988523.007 7

  23355011.293 7 122731491.11807  95634983.19404  23355015.517 4  23355010.685 4
  23355017.169 7  23355014.405 7  91650197.44507

  24310368.270 6 127752066.39306  99547189.15603  24310371.344 3  24310367.814 3
  24310371.317 6

  23177655.327 7 121799473.42107  94908704.32905  23177653.970 5  23177654.263 5


 25  4 11  4  3  0.0000000  0 29G18E19E29G23R22G10R08R10E33R23G24R01
                                R07E13E26G28G08S33S31E07S35R09E12G32
                                G01R24G27G31G02
  24317381.703 6 127788984.33206  99575974.62804  24317387.018 4  24317381.404 4
  24317387.275 6  24317389.438 7  95427032.76607

  24653382.103 6 129554587.98706
                  24653384.920 6  96745453.85306  24653384.856 6 105157814.90006
  24653382.920 6  99269191.35606  24653383.647 7  98007340.17607
  23161870.896 8 121716953.02708
                  23161872.232 8  90892823.70708  23161873.848 8  98796441.09308
  23161870.620 8  93263902.84408  23161871.247 8  92078258.34808
  22683048.280 7 119200680.68307  92883923.23205  22683050.281 5  22683048.008 5
  22683050.377 7  22683053.114 7  89013780.10107

  21085930.320 7 112558246.81107  87545384.34107
  21085935.262 7

  21065873.655 8 110702273.84508  86261722.63307  21065875.631 7  21065873.311 7
  21065875.728 7  21065872.619 8  82667502.04708

  20020524.268 8 107209431.46308  83385312.43808
  20020528.551 8

  23119273.022 6 123238775.68906


  23539456.218 8 123700897.64608
                  23539457.450 8  92374175.90908  23539458.704 8 100406674.95708
  23539455.556 8  94783916.74908  23539456.395 8  93579049.40208
  19259837.257 8 103027262.59208


  24380421.968 6 128120189.64306  99834026.67805  24380426.577 5  24380421.691 5
  24380427.028 6  24380425.930 7  95674299.96207

  21553028.888 7 115213465.30407


  22379566.481 8 119800062.89708  93178079.84907
  22379572.320 7

  27851168.703 6 146358915.05706
                  27851177.629 6 109294052.22106  27851174.009 6 118797800.37506
  27851175.169 6 112145187.34206  27851176.203 7 110719619.85707
  23788091.132 8 125007611.56208
                  23788092.711 8  93350053.97308  23788094.641 8 101467376.74708
  23788091.088 8  95785242.82408  23788091.769 8  94567653.97208
  22439199.657 7 117919080.27607  91885135.98105  22439201.502 5  22439199.389 5
  22439201.619 7  22439205.256 7  88056651.73307

  23347140.570 7 122690122.58007  95602745.08804  23347144.353 4  23347140.016 4
  23347145.296 6  23347142.665 7  91619297.53807

  37105979.362 7 194993273.82407
                  37105978.496 6 145611830.20406

  36826837.058 7 193526383.10407
                  36826845.435 7 144516456.65307

  25392585.353 7 133439446.44607
                  25392589.287 7  99646657.54007  25392587.544 7 108311016.00007
  25392587.281 7 102246095.00007  25392588.179 8 100946377.34408
  36982867.146 7 194346302.17807
                  36982866.843 6 145128723.41906

  23076311.782 7 123226270.15707  95842723.97507
  23076317.976 7

  27890515.799 6 146565678.06906
                  27890518.077 6 109448419.83106  27890516.776 6 118965650.40506
  27890516.207 6 112303590.36206  27890517.269 6 110876005.17106
  20532196.642 8 107897889.21508  84076472.89207  20532198.757 7  20532196.495 7
  20532199.105 8  20532195.986 8  80573372.38808

  25342033.273 6 133173290.06306 103771413.13303  25342036.843 3  25342033.086 3
  25342036.706 6  25342040.184 6  99447615.90006

  21978802.096 8 117530572.26508  91412739.57107
  21978808.316 7

  23362267.648 6 122769623.53406  95664696.76605  23362272.043 5  23362267.018 5
  23362273.133 7  23362270.664 7  91678672.96307

  24299422.643 6 127694548.23106  99502369.90203  24299425.849 3  24299422.183 3
  24299426.124 6

  23170005.720 7 121759275.13507  94877381.03705  23170004.535 5  23170004.643 5


 25  4 11  4  3 15.0000000  0 29G18E19E29G23R22G10R08R10E33R23G24R01
                                R07E13E26G28G08S33S31E07S35R09E12G32
                                G01R24G27G31G02
  24327751.736 6 127843472.76106  99618433.07903  24327755.785 3  24327751.423 3
  24327755.565 6  24327759.272 7  95467722.10007

  24647949.285 6 129526038.50906
                  24647952.115 6  96724134.49906  24647952.065 6 105134641.67506
  24647950.107 6  99247315.83206  24647950.836 7  97985742.73807
  23162076.493 8 121718033.16808
                  23162077.728 8  90893630.31808  23162079.532 8  98797317.83908
  23162076.155 8  93264730.49608  23162076.776 8  92079075.48008
  22688450.381 7 119229067.31607  92906042.66305  22688452.095 5  22688450.113 5
  22688452.340 7  22688455.013 7  89034977.89107

  21096525.720 8 112614807.75508  87589376.16207
  21096530.974 7

  21066277.560 8 110704396.56808  86263376.70807  21066279.589 7  21066277.212 7
  21066279.598 7  21066276.585 8  82669087.20608

  20023518.571 8 107225466.48708  83397784.12708
  20023522.927 8

  23111313.521 6 123196343.43106


  23536111.352 8 123683320.18508
                  23536112.430 8  92361049.90708  23536113.760 8 100392407.55208
  23536110.626 8  94770448.32108  23536111.501 8  93565752.18808
  19261924.679 8 103038428.55508


  24389401.210 6 128167375.67206  99870795.04505  24389405.725 5  24389400.933 5
  24389406.398 6  24389405.117 7  95709536.32807

  21548080.160 7 115187012.09007


  22387395.870 8 119841973.00008  93210676.58407
  22387401.647 7

  27859151.520 6 146400868.76506
                  27859161.000 6 109325381.22606  27859158.222 6 118831853.67206
  27859158.361 6 112177333.62706  27859159.570 7 110751357.50007
  23792136.467 8 125028869.40208
                  23792137.951 8  93365928.33808  23792139.965 8 101484631.49408
  23792136.324 8  95801531.29908  23792137.005 8  94583735.39208
  22430198.552 7 117871777.69907  91848276.88205  22430200.099 5  22430198.298 5
  22430200.382 7  22430203.811 7  88021328.44507

  23350080.080 7 122705570.11907  95614782.14204  23350083.962 4  23350079.517 4
  23350084.663 6  23350082.244 7  91630833.03407

  37105977.595 7 194993267.96807
                  37105977.070 6 145611825.63806

  36826835.801 7 193526366.81207
                  36826842.256 7 144516444.59507

  25398948.486 7 133472884.72807
                  25398952.320 7  99671627.69107  25398950.780 7 108338157.46707
  25398950.431 7 102271716.54807  25398951.293 8 100971673.19208
  36982872.995 7 194346337.02807
                  36982873.484 6 145128749.57106

  23074468.604 7 123216428.51607  95835069.41607
  23074474.639 7

  27882614.832 6 146524159.01806
                  27882617.421 6 109417415.43606  27882616.164 5 118931949.95105
  27882615.705 6 112271777.13506  27882616.498 6 110844596.35506
  20533051.355 8 107902380.76908  84079972.82007  20533053.449 7  20533051.208 7
  20533053.671 8  20533050.670 8  80576726.49108

  25332019.268 6 133120665.85306 103730407.29903  25332022.376 3  25332019.103 3
  25332022.539 6  25332025.974 6  99408318.64806

  21969107.313 8 117478729.86708  91372417.76407
  21969113.702 7

  23369532.343 6 122807800.53006  95694445.07904  23369537.071 4  23369531.717 4
  23369537.407 7  23369535.635 7  91707181.74907

  24288475.331 6 127637018.21806  99457541.41103  24288477.855 3  24288474.907 3
  24288479.026 6

  23162367.280 7 121719132.29607  94846100.95705  23162365.671 5  23162366.194 5


 25  4 11  4  3 30.0000000  0 29G18E19E29G23R22G10R08R10E33R23G24R01
                                R07E13E26G28G08S33S31E07S35R09E12G32
                                G01R24G27G31G02
  24338128.263 6 127898002.65606  99660923.85004  24338131.975 4  24338127.959 4
  24338132.470 6  24338135.855 7  95508442.42707

  24642528.232 6 129497551.76906
                  24642531.113 6  96702861.98306  24642531.249 6 105111519.35006
  24642529.327 6  99225488.35406  24642529.919 7  97964192.74107
  23162296.318 8 121719188.47908
                  23162297.575 8  90894493.06908  23162299.345 8  98798255.60808
  23162295.939 8  93265615.74908  23162296.610 8  92079949.48308
  22693860.066 7 119257495.00307  92928194.09105  22693861.685 5  22693859.798 5
  22693861.509 7  22693864.594 7  89056206.33907

  21107141.552 7 112671474.17207  87633450.01807
  21107146.553 7

  21066689.914 8 110706562.93308  86265064.79507  21066691.846 7  21066689.570 7
  21066691.561 7  21066688.833 8  82670704.95608

  20026524.413 8 107241560.50908  83410301.70208
  20026528.129 8

  23103366.793 6 123153986.31306


  23532781.641 8 123665821.66808
                  23532782.652 8  92347982.84208  23532784.015 8 100378204.22208
  23532780.711 8  94757040.38008  23532781.618 8  93552514.68508
  19264051.302 8 103049804.07608


  24398397.200 6 128214650.13806  99907632.32305  24398401.615 5  24398396.928 5
  24398402.113 6  24398401.214 7  95744838.73207

  21543144.674 7 115160631.29307


  22395223.586 8 119883874.68408  93243266.76407
  22395229.035 7

  27867141.226 6 146442854.16706
                  27867150.821 6 109356733.89006  27867146.808 6 118865932.67206
  27867147.841 6 112209504.21806  27867149.358 7 110783119.12407
  23796198.266 8 125050213.66508
                  23796199.551 8  93381867.23808  23796201.477 8 101501956.38008
  23796197.934 8  95817885.99508  23796198.691 8  94599882.19008
  22421209.277 7 117824539.95507  91811468.29905  22421211.051 5  22421209.027 5
  22421211.246 7  22421214.713 7  87986053.56107

  23353039.735 7 122721126.49907  95626903.99604  23353044.087 4  23353039.159 4
  23353045.110 6  23353042.613 7  91642449.83007

  37105979.576 7 194993266.16507
                  37105976.783 6 145611824.53806

  36826830.131 7 193526354.06007
                  36826839.930 7 144516434.90207

  25405316.095 7 133506347.73207
                  25405320.106 7  99696616.29207  25405318.351 7 108365318.99207
  25405318.246 7 102297357.02507  25405319.094 8 100996987.73308
  36982880.006 7 194346374.79607
                  36982880.612 6 145128777.65606

  23072655.918 7 123206748.14907  95827540.29107
  23072662.469 7

  27874715.487 6 146482648.62406
                  27874718.306 6 109386417.47106  27874716.891 6 118898256.50106
  27874716.286 6 112239970.52006  27874717.323 6 110813194.06806
  20533923.774 8 107906965.31208  84083545.20707  20533925.841 7  20533923.622 7
  20533926.328 8  20533923.103 8  80580150.03108

  25322005.400 6 133068045.01906 103689404.10203  25322008.683 3  25322005.240 3
  25322009.536 6  25322012.744 6  99369023.93806

  21959433.810 8 117427000.16708  91332183.60607
  21959439.412 7

  23376807.028 6 122846028.07806  95724232.77405  23376811.506 5  23376806.394 5
  23376812.195 7  23376809.985 7  91735728.28907

  24277526.306 6 127579483.20906  99412709.03704  24277529.749 4  24277525.900 4
  24277529.620 6

  23154739.445 7 121679051.47107  94814869.18605  23154738.550 5  23154738.354 5


 25  4 11  4  3 45.0000000  0 29G18E19E29G23R22G10R08R10E33R23G24R01
                                R07E13E26G28G08S33S31E07S35R09E12G32
                                G01R24G27G31G02
  24348511.197 6 127952567.30706  99703441.70504  24348515.167 4  24348510.907 4
  24348516.372 6  24348518.857 7  95549188.69907

  24637118.500 6 129469121.12406
                  24637121.061 6  96681631.35506  24637121.057 6 105088442.56706
  24637118.892 6  99203703.89506  24637119.689 7  97942685.19807
  23162529.072 8 121720412.35608
                  23162530.466 8  90895407.02508  23162532.185 8  98799249.02708
  23162528.915 8  93266553.54108  23162529.492 8  92080875.35608
  22699276.666 7 119285957.30107  92950372.48805  22699277.866 5  22699276.403 5
  22699278.053 7  22699281.003 7  89077460.63307

  21117775.023 8 112728238.96408  87677600.39707
  21117780.031 7

  21067109.382 8 110708766.53708  86266781.89007  21067111.150 7  21067109.043 7
  21067111.268 7  21067108.169 8  82672350.50908

  20029539.039 8 107257706.86908  83422859.98408
  20029543.619 8

  23095433.739 6 123111698.09906


  23529465.516 8 123648395.77508
                  23529466.570 8  92334970.01208  23529467.981 8 100364059.83408
  23529464.760 8  94743688.08308  23529465.561 8  93539332.12208
  19266215.940 8 103061382.46708


  24407408.597 6 128262006.27406  99944533.23605  24407413.164 5  24407408.329 5
  24407413.932 6  24407412.484 7  95780202.12107

  21538222.302 7 115134316.40207


  22403048.062 7 119925761.29307  93275845.23207
  22403054.024 7

  27875135.976 6 146484864.62706
                  27875145.017 6 109388105.30406  27875141.531 6 118900032.05406
  27875142.252 6 112241694.00306  27875143.568 7 110814899.72607
  23800275.085 7 125071637.82707
                  23800276.443 8  93397865.79708  23800278.229 8 101519346.12308
  23800274.822 8  95834301.90908  23800275.572 8  94616089.42708
  22412231.288 7 117777360.93307  91774705.47305  22412233.035 5  22412231.025 5
  22412233.310 7  22412236.889 7  87950822.52807

  23356019.821 6 122736785.00506  95639105.43804  23356023.842 4  23356019.254 4
  23356025.364 6  23356022.181 7  91654142.87407

  37105976.388 7 194993261.87507
                  37105975.929 6 145611821.43506

  36826828.316 7 193526338.29107
                  36826836.724 7 144516423.11407

  25411687.465 7 133539828.75907
                  25411691.419 7  99721618.35307  25411689.592 7 108392495.14707
  25411689.496 7 102323011.31807  25411690.307 8 101022315.91108
  36982886.575 7 194346410.52607
                  36982887.484 6 145128804.38606

  23070872.596 7 123197222.57207  95820131.52907
  23070877.969 7

  27866816.915 6 146441140.57206
                  27866819.445 6 109355421.28306  27866818.324 6 118864564.95806
  27866817.531 6 112208165.72806  27866818.519 6 110781793.57806
  20534812.518 8 107911636.17708  84087184.85507  20534814.647 7  20534812.366 7
  20534815.076 8  20534811.905 8  80583638.02908

  25311992.243 6 133015421.31406 103648398.66403  25311995.182 3  25311992.083 3
  25311996.017 6  25311998.639 6  99329727.05006

  21949779.992 8 117375377.40408  91292032.64607
  21949785.262 7

  23384089.694 7 122884299.29907  95754054.49705  23384094.125 5  23384089.060 5
  23384094.402 7  23384092.886 7  91764307.43807

  24266575.476 6 127521937.01006  99367867.92803  24266578.557 3  24266575.029 3
  24266578.835 6

  23147123.096 7 121639026.53507  94783680.96805  23147121.972 5  23147122.001 5


 25  4 11  4  4  0.0000000  0 29G18E19E29G23R22G10R08R10E33R23G24R01
                                R07E13E26G28G08S33S31E07S35R09E12G32
                                G01R24G27G31G02
  24358902.628 6 128007173.33706  99745991.80604  24358906.610 4  24358902.351 4
  24358906.636 6  24358910.140 7  95589965.85707

  24631720.238 6 129440753.67806
                  24631722.916 6  96660447.90506  24631722.812 6 105065417.06406
  24631720.705 6  99181967.83106  24631721.502 7  97921225.44007
  23162776.346 8 121721711.60008
                  23162777.695 8  90896377.25408  23162779.396 8  98800303.62008
  23162776.096 8  93267549.08308  23162776.710 8  92081858.24208
  22704700.315 7 119314461.17107  92972583.28105  22704701.904 5  22704700.047 5
  22704702.151 7  22704705.158 7  89098745.96907

  21128429.280 8 112785108.72008  87721832.40007
  21128434.212 7

  21067536.891 8 110711014.38008  86268533.46807  21067538.909 7  21067536.552 7
  21067538.911 7  21067535.909 8  82674029.10208

  20032565.511 8 107273912.33308  83435464.24708
  20032569.663 8

  23087514.815 6 123069486.39806


  23526164.612 8 123631049.61408
                  23526165.715 8  92322016.72508  23526167.099 8 100349980.17308
  23526163.816 8  94730396.88508  23526164.672 8  93526209.87808
  19268419.327 8 103073170.34908


  24416437.008 6 128309450.63506  99981502.89905  24416441.428 5  24416436.740 5
  24416442.078 6  24416440.962 7  95815631.37907

  21533313.547 7 115108074.35507


  22410871.675 7 119967639.68007  93308417.29607
  22410877.869 7

  27883136.181 6 146526906.92406
                  27883145.562 6 109419500.47906  27883141.293 6 118934157.24906
  27883142.573 6 112273908.19306  27883144.039 7 110846704.40907
  23804368.395 7 125093148.75007
                  23804369.912 8  93413929.15008  23804371.600 8 101536806.28608
  23804368.191 8  95850784.30508  23804368.976 8  94632362.30108
  22403266.255 7 117730247.88707  91737994.05605  22403267.678 5  22403265.992 5
  22403268.302 7  22403271.474 7  87915640.77707

  23359020.532 6 122752552.26106  95651391.61204  23359024.247 4  23359019.960 4
  23359024.406 6  23359022.531 7  91665917.12707

  37105979.339 7 194993260.49607
                  37105975.755 6 145611820.20506

  36826824.967 7 193526326.48207
                  36826834.439 7 144516414.25507

  25418063.375 7 133573334.56507
                  25418067.412 7  99746638.92407  25418065.868 7 108419691.42607
  25418065.363 7 102348684.59907  25418066.255 8 101047662.83608
  36982892.813 7 194346449.58007
                  36982894.974 6 145128833.47106

  23069118.415 7 123187858.97807  95812848.77907
  23069124.323 7

  27858919.953 6 146399641.87906
                  27858922.236 6 109324432.08206  27858921.767 6 118830881.00506
  27858920.407 6 112176368.08306  27858921.437 6 110750400.15906
  20535719.075 8 107916400.09708  84090897.01607  20535721.148 7  20535718.923 7
  20535721.648 8  20535718.476 8  80587195.51908

  25301978.632 6 132962801.86706 103607396.54703  25301982.307 3  25301978.480 3
  25301982.209 5  25301985.365 6  99290433.36006

  21940147.623 8 117323868.89408  91251970.51907
  21940153.940 7

  23391382.214 7 122922620.75507  95783915.36005  23391386.438 5  23391381.593 5
  23391387.212 7  23391385.051 7  91792924.09307

  24255623.517 6 127464386.81206  99323023.70703  24255627.160 3  24255623.079 3
  24255628.085 6

  23139518.753 7 121599064.68607  94752541.91505  23139517.307 5  23139517.653 5


 25  4 11  4  4 15.0000000  0 29G18E19E29G23R22G10R08R10E33R23G24R01
                                R07E13E26G28G08S33S31E07S35R09E12G32
                                G01R24G27G31G02
  24369302.063 6 128061816.00006  99788570.45304  24369305.136 4  24369301.813 4
  24369305.303 6  24369308.456 7  95630770.38307

  24626333.376 6 129412444.98806
                  24626336.030 6  96639308.36106  24626335.976 6 105042439.27406
  24626333.625 6  99160276.80706  24626334.476 7  97899810.15607
  23163037.010 8 121723081.61108
                  23163038.382 8  90897400.33008  23163040.066 8  98801415.65608
  23163036.786 8  93268598.85008  23163037.406 8  92082894.66308
  22710131.708 7 119343002.22807  92994823.04805  22710133.141 5  22710131.440 5
  22710133.768 7  22710136.274 7  89120059.07107

  21139101.086 7 112842078.40307  87766142.12607
  21139105.944 7

  21067972.158 8 110713302.14208  86270316.14407  21067974.222 7  21067971.823 7
  21067974.170 7  21067971.189 8  82675737.50608

  20035601.811 8 107290171.91208  83448110.60307
  20035606.184 7

  23079609.500 6 123027347.69406


  23522877.931 8 123613778.90008
                  23522879.224 8  92309119.78008  23522880.475 8 100335961.74808
  23522877.253 8  94717163.49408  23522878.154 8  93513144.71008
  19270661.016 8 103085163.48208


  24425481.694 6 128356978.32106 100018537.48205  24425485.705 5  24425481.426 5
  24425486.019 6  24425485.142 7  95851122.85007

  21528417.050 7 115081900.26007


  22418692.681 7 120009504.92707  93340979.15407
  22418698.411 7

  27891141.744 6 146568976.49606
                  27891150.977 6 109450916.01006  27891147.710 6 118968304.58506
  27891148.311 6 112306143.27006  27891149.652 7 110878529.71507
  23808477.474 7 125114741.94407
                  23808478.897 8  93430053.93408  23808480.682 8 101554333.22708
  23808477.272 8  95867329.73508  23808478.031 8  94648697.40908
  22394312.468 7 117683196.74607  91701330.88605  22394314.148 5  22394312.223 5
  22394314.541 7  22394317.896 7  87880505.24107

  23362040.773 6 122768423.60406  95663758.89804  23362044.578 4  23362040.228 4
  23362045.356 6  23362042.783 7  91677769.11407

  37105975.869 7 194993259.00407
                  37105975.433 6 145611819.17506

  36826824.247 7 193526314.39807
                  36826832.136 7 144516405.27707

  25424443.071 7 133606860.52307
                  25424447.092 7  99771674.54207  25424445.504 7 108446904.05107
  25424445.205 7 102374373.31507  25424446.035 8 101073025.00308
  36982902.919 7 194346487.98507
                  36982902.142 6 145128862.15906

  23067393.977 7 123178652.97807  95805688.60407
  23067400.656 7

  27851023.747 6 146358148.29206
                  27851026.207 6 109293446.69806  27851025.551 6 118797201.21006
  27851024.128 6 112144574.38506  27851025.320 6 110719010.61906
  20536642.430 8 107921252.43808  84094678.07807  20536644.511 7  20536642.283 7
  20536644.891 8  20536641.781 8  80590819.03908

  25291965.810 6 132910182.51706 103566394.47903  25291968.466 3  25291965.667 3
  25291969.205 5  25291972.352 6  99251139.74306

  21930535.435 8 117272470.73608  91211994.21007
  21930541.978 7

  23398682.830 7 122960987.59607  95813811.58905  23398687.565 5  23398682.209 5
  23398688.246 7  23398685.969 7  91821574.64207

  24244671.018 6 127406828.44606  99278173.12204  24244673.997 4  24244670.621 4
  24244675.159 6

  23131925.624 7 121559161.71407  94721448.72805  23131923.974 5  23131924.533 5


 25  4 11  4  4 30.0000000  0 29G18E19E29G23R22G10R08R10E33R23G24R01
                                R07E13E26G28G08S33S31E07S35R09E12G32
                                G01R24G27G31G02
  24379706.431 6 128116496.29506  99831178.41704  24379710.440 4  24379706.190 4
  24379711.413 6  24379713.839 7  95671603.01207

  24620957.430 6 129384196.25506
                  24620960.308 6  96618213.57206  24620960.507 6 105019510.13606
  24620958.093 6  99138631.70506  24620958.883 7  97878440.21107
  23163311.390 8 121724523.52708
                  23163312.707 8  90898477.10408  23163314.445 8  98802586.05608
  23163311.140 8  93269703.70908  23163311.784 8  92083985.48008
  22715570.256 7 119371581.70807  93017092.75305  22715571.766 5  22715569.988 5
  22715572.133 7  22715574.714 7  89141400.87307

  21149792.865 7 112899148.79507  87810530.18507
  21149797.431 7

  21068415.564 8 110715631.09408  86272130.92007  21068417.413 7  21068415.229 7
  21068417.390 7  21068414.307 8  82677476.66608

  20038648.458 8 107306486.78208  83460799.95307
  20038652.444 7

  23071718.258 6 122985283.44306


  23519606.226 8 123596585.03808
                  23519607.340 8  92296280.23608  23519608.631 8 100322005.70608
  23519605.399 8  94703988.99608  23519606.255 8  93500137.68908
  19272941.928 8 103097362.70308


  24434541.792 6 128404590.27306 100055637.73705  24434545.816 5  24434541.520 5
  24434545.697 6  24434545.369 7  95886677.27107

  21523532.987 7 115055795.44707


  22426511.052 7 120051358.51807  93373531.94007
  22426517.043 7

  27899153.102 6 146611074.37006
                  27899162.153 6 109482352.69106  27899158.675 6 119002474.89606
  27899159.528 6 112338400.02506  27899160.644 7 110910376.43607
  23812602.495 7 125136418.61207
                  23812603.886 8  93446241.05108  23812605.689 8 101571927.92008
  23812602.219 8  95883939.13008  23812602.968 8  94665095.66408
  22385370.754 7 117636209.10907  91664717.19005  22385372.633 5  22385370.486 5
  22385373.019 7  22385376.517 7  87845417.13607

  23365080.876 6 122784399.95306  95676208.00104  23365084.727 4  23365080.326 4
  23365085.671 6  23365083.018 7  91689699.50207

  37105974.966 7 194993258.65107
                  37105975.281 6 145611819.08806

  36826823.370 7 193526302.63307
                  36826829.941 7 144516396.69807

  25430826.721 7 133640407.67607
                  25430830.879 7  99796725.98207  25430829.224 7 108474133.87107
  25430829.003 7 102400078.27207  25430829.862 8 101098403.20108
  36982907.171 7 194346527.57407
                  36982909.677 6 145128891.96806

  23065700.159 7 123169606.23107  95798652.28707
  23065706.544 7

  27843128.963 6 146316661.25706
                  27843131.676 6 109262466.20406  27843130.522 6 118763526.72906
  27843129.362 6 112112785.69406  27843130.461 6 110687626.02106
  20537582.681 8 107926194.26208  84098528.86107  20537584.871 7  20537582.534 7
  20537585.430 8  20537582.227 8  80594509.37708

  25281952.528 6 132857564.71406 103525393.63103  25281955.810 3  25281952.417 3
  25281956.281 6  25281959.227 6  99211847.25906

  21920945.244 8 117221184.77308  91172105.16607
  21920950.381 7

  23405993.152 6 122999400.63806  95843743.82705  23405997.416 5  23405992.518 5
  23405997.632 7  23405995.839 7  91850259.70807

  24233717.025 6 127349263.57106  99233317.47703  24233719.680 3  24233716.668 3
  24233719.914 6

  23124343.639 7 121519319.01907  94690402.52505  23124342.096 5  23124342.548 5


 25  4 11  4  4 45.0000000  0 29G18E19E29G23R22G10R08R10E33R23G24R01
                                R07E13E26G28G08S33S31E07S35R09E12G32
                                G01R24G27G31G02
  24390118.422 6 128171213.68706  99873815.29304  24390123.258 4  24390118.194 4
  24390122.805 6  24390126.003 7  95712463.33607

  24615593.309 6 129356007.23306
                  24615595.901 6  96597163.35406  24615596.171 6 104996629.45306
  24615593.824 6  99117032.34806  24615594.631 7  97857115.42407
  23163599.347 8 121726036.96208
                  23163600.712 8  90899607.28408  23163602.485 8  98803814.50408
  23163599.162 8  93270863.37108  23163599.761 8  92085130.40008
  22721015.557 7 119400199.40207  93039392.24105  22721017.674 5  22721015.285 5
  22721017.515 7  22721020.465 7  89162771.21707

  21160502.595 7 112956319.16407  87854995.99807
  21160507.349 7

  21068866.452 8 110718001.12508  86273977.70607  21068868.421 7  21068866.126 7
  21068868.356 7  21068865.360 8  82679246.50508

  20041705.604 8 107322856.31408  83473531.82607
  20041709.653 7

  23063841.222 6 122943293.69906


  23516348.724 8 123579467.94208
                  23516350.014 8  92283498.00208  23516351.422 8 100308111.97108
  23516348.140 8  94690873.31208  23516348.959 8  93487188.73008
  19275260.821 8 103109767.96408


  24443617.872 6 128452285.85606 100092803.17405  24443621.859 5  24443617.609 5
  24443622.352 6  24443621.556 7  95922294.15707

  21518663.029 7 115029759.55907


  22434327.573 7 120093199.72707  93406075.07707
  22434332.699 7

  27907168.958 6 146653200.15806
                  27907178.089 6 109513810.22006  27907175.025 6 119036667.90206
  27907175.880 6 112370678.19806  27907176.984 7 110942244.27807
  23816743.182 7 125158178.46707
                  23816744.617 8  93462490.28908  23816746.559 8 101589590.14108
  23816742.966 8  95900612.25908  23816743.740 8  94681556.84708
  22376441.400 7 117589285.11407  91628153.08305  22376443.241 5  22376441.119 5
  22376443.650 7  22376446.999 7  87810376.54007

  23368140.935 6 122800480.82806  95688738.56704  23368144.569 4  23368140.381 4
  23368145.598 6  23368143.157 7  91701707.95907

  37105978.020 7 194993257.47207
                  37105975.102 6 145611817.86506

  36826821.108 7 193526291.21507
                  36826827.920 7 144516388.03807

  25437214.617 7 133673975.58007
                  25437218.621 7  99821792.93307  25437217.173 7 108501380.55607
  25437216.812 7 102425799.13707  25437217.606 8 101123797.10908
  36982916.870 7 194346567.06807
                  36982917.279 6 145128921.30506

  23064036.108 7 123160718.93707  95791739.97307
  23064042.427 7

  27835235.458 6 146275180.66806
                  27835238.137 6 109231490.52306  27835236.485 6 118729857.47306
  27835236.022 6 112081001.94006  27835236.915 6 110656246.30106
  20538540.210 8 107931225.13708  84102449.04007  20538542.188 7  20538540.067 7
  20538542.580 8  20538539.560 8  80598266.22008

  25271940.147 6 132804948.44106 103484393.97903  25271943.462 3  25271940.022 3
  25271943.129 6  25271946.852 6  99172555.93606

  21911375.232 8 117170011.14908  91132303.53607
  21911381.149 7

  23413311.516 6 123037859.26706  95873711.57605  23413315.798 5  23413310.886 5
  23413316.512 7  23413314.132 7  91878978.79907

  24222761.475 6 127291692.28906  99188456.82903  24222763.967 3  24222761.100 3
  24222764.634 6

  23116773.067 7 121479536.69007  94659403.34805  23116771.733 5  23116771.967 5


 25  4 11  4  5  0.0000000  0 29G18E19E29G23R22G10R08R10E33R23G24R01
                                R07E13E26G28G08S33S31E07S35R09E12G32
                                G01R24G27G31G02
  24400537.484 6 128225967.41906  99916480.47604  24400542.594 4  24400537.252 4
  24400542.619 6  24400545.348 7  95753350.80107

  24610240.880 6 129327877.65906
                  24610243.083 6  96576157.54906  24610243.046 6 104973797.03106
  24610240.869 6  99095478.55706  24610241.710 7  97835835.62607
  23163900.855 8 121727621.33108
                  23163902.098 8  90900790.43208  23163903.959 8  98805100.52808
  23163900.612 8  93272077.38008  23163901.252 8  92086328.97908
  22726468.518 7 119428854.92207  93061721.19805  22726470.648 5  22726468.237 5
  22726470.734 7  22726473.396 7  89184169.80307

  21171230.978 7 113013588.55607  87899538.83807
  21171236.295 7

  21069325.255 8 110720411.84108  86275856.19207  21069327.129 7  21069324.925 7
  21069327.059 7  21069324.058 8  82681046.72808

  20044772.180 8 107339279.88208  83486305.73307
  20044776.476 7

  23055977.198 6 122901379.25706


  23513106.219 8 123562427.31508
                  23513107.318 8  92270772.88308  23513108.665 8 100294280.30508
  23513105.382 8  94677816.22908  23513106.206 8  93474297.62908
  19277618.169 8 103122378.51808


  24452709.732 6 128500064.25306 100130033.13205  24452713.920 5  24452709.460 5
  24452714.663 6  24452713.411 7  95957972.86107

  21513805.152 7 115003792.11607


  22442141.462 7 120135028.27307  93438608.38507
  22442147.360 7

  27915190.336 6 146695353.31606
                  27915199.952 6 109545288.16406  27915196.782 6 119070883.07006
  27915197.160 6 112402977.30706  27915198.436 7 110974132.80807
  23820899.776 7 125180020.99607
                  23820901.145 8  93478801.27108  23820902.987 8 101607319.47408
  23820899.437 8  95917348.75408  23820900.239 8  94698080.58608
  22367524.176 7 117542424.63207  91591638.47905  22367525.923 5  22367523.877 5
  22367526.237 7  22367529.683 7  87775383.39107

  23371220.544 6 122816665.48506  95701349.99404  23371224.421 4  23371220.008 4
  23371225.423 6  23371223.022 7  91713793.91807

  37105976.866 7 194993257.37107
                  37105974.919 6 145611818.00606

  36826817.329 7 193526279.91607
                  36826825.760 7 144516379.67007

  25443606.148 7 133707563.64207
                  25443610.177 7  99846874.92907  25443608.642 7 108528643.59107
  25443608.382 7 102451535.44607  25443609.200 8 101149206.26208
  36982924.526 7 194346606.62807
                  36982924.697 6 145128950.88306

  23062401.172 7 123151990.53107  95784951.25207
  23062407.311 7

  27827343.450 6 146233706.24806
                  27827345.720 6 109200519.43106  27827344.460 6 118696193.22406
  27827343.703 6 112049222.90006  27827344.627 6 110624871.23906
  20539514.240 8 107936344.43708  84106438.12307  20539516.322 7  20539514.097 7
  20539516.837 7  20539513.709 8  80602089.09308

  25261927.989 6 132752333.46806 103443395.33003  25261931.222 3  25261927.855 3
  25261931.279 5  25261934.283 6  99133265.57006

  21901827.159 8 117118949.70908  91092589.12907
  21901832.330 7

  23420638.646 6 123076362.64206  95903714.19505  23420642.780 5  23420638.007 5
  23420643.130 6  23420641.116 7  91907731.30507

  24211803.457 6 127234114.50406  99143591.10303  24211807.325 3  24211803.082 3
  24211807.741 6

  23109214.042 7 121439814.62007  94628451.13205  23109212.925 5  23109212.934 5


 25  4 11  4  5 15.0000000  0 29G18E19E29G23R22G10R08R10E33R23G24R01
                                R07E13E26G28G08S33S31E07S35R09E12G32
                                G01R24G27G31G02
  24410963.812 6 128280755.39206  99959172.34803  24410968.187 3  24410963.553 3
  24410967.842 6  24410971.579 7  95794263.82107

  24604898.380 6 129299805.54006
                  24604901.084 6  96555194.65406  24604901.206 6 104951011.26906
  24604898.904 6  99073968.80206  24604899.740 7  97814599.30207
  23164215.399 8 121729274.66808
                  23164216.772 8  90902025.08108  23164218.603 8  98806442.53208
  23164215.230 8  93273344.23808  23164215.862 8  92087579.73308
  22731928.795 7 119457546.43307  93084078.20405  22731930.356 5  22731928.509 5
  22731930.272 7  22731933.196 7  89205595.26107

  21181977.258 7 113070954.60807  87944156.84707
  21181982.518 7

  21069791.434 8 110722861.51508  86277765.03507  21069793.265 7  21069791.104 7
  21069793.152 7  21069790.220 8  82682876.03308

  20047849.420 8 107355755.25208  83499119.91608
  20047853.407 8

  23048129.178 6 122859538.10006


  23509877.800 8 123545461.52708
                  23509878.844 8  92258103.63708  23509880.138 8 100280509.38808
  23509876.887 8  94664816.48208  23509877.712 8  93461463.13308
  19280013.620 8 103135192.30808


  24461816.714 6 128547923.24106 100167325.87905  24461821.564 5  24461816.424 5
  24461821.685 6  24461820.565 7  95993711.76607

  21508959.472 7 114977891.04707


  22449952.967 8 120176841.72708  93471129.94707
  22449958.277 7

  27923216.770 6 146737531.77506
                  27923226.250 6 109576785.01906  27923222.906 6 119105118.79906
  27923223.842 6 112435295.82606  27923224.761 7 111006040.49607
  23825071.379 7 125201944.34907
                  23825073.024 8  93495172.60808  23825074.809 8 101625114.39908
  23825071.357 8  95934147.16008  23825072.106 8  94714665.45808
  22358618.812 7 117495626.20707  91555172.22305  22358620.445 5  22358618.508 5
  22358620.647 7  22358624.323 7  87740436.57107

  23374319.583 6 122832951.84206  95714040.66204  23374323.783 4  23374319.042 4
  23374324.829 6  23374322.088 7  91725955.81807

  37105977.354 7 194993254.77507
                  37105974.583 6 145611816.05206

  36826813.698 7 193526266.79407
                  36826823.104 7 144516369.90507

  25450001.340 7 133741169.81407
                  25450005.324 7  99871970.44107  25450003.660 7 108555921.32707
  25450003.414 7 102477285.62707  25450004.238 8 101174629.11008
  36982931.720 7 194346644.09907
                  36982931.789 6 145128978.84006

  23060796.721 7 123143419.28607  95778284.77807
  23060802.200 7

  27819451.505 6 146192236.30706
                  27819454.160 6 109169551.71106  27819452.976 6 118662532.62306
  27819452.213 6 112017447.30406  27819453.112 6 110593499.58106
  20540504.871 8 107941550.10308  84110494.49807  20540506.929 7  20540504.728 7
  20540507.439 8  20540504.308 8  80605976.45208

  25251915.817 6 132699718.22906 103402396.47303  25251918.651 3  25251915.692 3
  25251918.818 6  25251921.711 6  99093974.99806

  21892298.864 8 117067999.25808  91052961.06607
  21892303.949 7

  23427973.841 6 123114908.48506  95933749.91704  23427977.846 4  23427973.202 4
  23427978.513 7  23427976.112 7  91936515.52807

  24200846.230 6 127176528.54806  99098719.01703  24200848.491 3  24200845.859 3
  24200850.249 6

  23101666.697 7 121400151.20307  94597544.62305  23101665.219 5  23101665.593 5


 25  4 11  4  5 30.0000000  0 29G18E19E29G23R22G10R08R10E33R23G24R01
                                R07E13E26G28G08S33S31E07S35R09E12G32
                                G01R24G27G31G02
  24421396.283 6 128335575.69606 100001889.41804  24421400.357 4  24421396.002 4
  24421400.172 6  24421403.703 7  95835200.99107

  24599567.235 6 129271789.22406
                  24599569.772 6  96534273.42506  24599569.562 6 104928270.77606
  24599567.549 6  99052501.79106  24599568.372 7  97793405.18107
  23164542.941 8 121730995.22208
                  23164544.187 8  90903309.93208  23164546.012 8  98807839.10008
  23164542.557 8  93274662.60308  23164543.269 8  92088881.34008
  22737395.163 7 119486272.36807  93106462.03105  22737396.776 5  22737394.882 5
  22737396.867 7  22737399.549 7  89227046.42507

  21192741.720 7 113128415.13607  87988848.33807
  21192746.481 7

  21070264.577 8 110725348.60108  86279703.03107  21070266.519 7  21070264.251 7
  21070266.602 7  21070263.493 8  82684733.27908

  20050934.991 8 107372280.63408  83511973.00008
  20050939.525 8

  23040290.719 6 122817769.15206


  23506663.082 8 123528569.12008
                  23506664.280 8  92245489.18608  23506665.595 8 100266798.02608
  23506662.352 8  94651872.95508  23506663.170 8  93448684.14408
  19282446.533 8 103148207.76608


  24470938.908 6 128595860.86206 100204679.89505  24470943.862 5  24470938.613 5
  24470943.377 6  24470942.646 7  96029509.37607

  21504126.965 7 114952054.49107


  22457760.015 7 120218638.50307  93503638.54707
  22457766.926 7

  27931247.898 6 146779733.75406
                  27931257.059 6 109608299.45106  27931253.477 6 119139373.63006
  27931254.387 6 112467632.36806  27931255.585 7 111037965.97907
  23829258.362 7 125223946.82807
                  23829259.972 8  93511603.02008  23829261.809 8 101642973.55308
  23829258.196 8  95951006.19508  23829259.043 8  94731310.18208
  22349725.131 7 117448888.55807  91518753.32505  22349726.490 5  22349724.827 5
  22349726.971 7  22349730.270 7  87705535.14107

  23377437.957 6 122849337.99406  95726809.10704  23377442.118 4  23377437.412 4
  23377443.877 6  23377440.289 7  91738192.23507

  37105977.363 7 194993249.34507
                  37105973.412 6 145611811.99406

  36826810.823 7 193526250.08607
                  36826819.969 7 144516357.49107

  25456399.446 7 133774792.27107
                  25456403.364 7  99897078.12307  25456401.852 7 108583212.28607
  25456401.555 7 102503048.29707  25456402.369 8 101200064.28408
  36982937.122 7 194346678.64107
                  36982938.255 6 145129004.72506

  23059220.621 7 123135003.93707  95771739.53707
  23059226.481 7

  27811560.680 6 146150769.46106
                  27811563.110 6 109138586.28506  27811562.057 6 118628874.53906
  27811561.029 6 111985674.09106  27811562.115 6 110562130.26206
  20541511.717 8 107946840.35508  84114616.78607  20541513.648 7  20541511.574 7
  20541514.200 8  20541511.035 8  80609926.98508

  25241902.526 6 132647101.28706 103361396.30303  25241906.272 3  25241902.379 3
  25241906.031 6  25241909.092 6  99054683.18706

  21882790.917 8 117017158.74708  91013418.46807
  21882796.513 7

  23435316.427 6 123153494.77106  95963817.14904  23435320.434 4  23435315.810 4
  23435321.309 7  23435318.765 7  91965329.96807

  24189885.410 6 127118933.27506  99053839.66704  24189888.661 4  24189885.021 4
  24189889.957 6

  23094129.738 7 121360545.05707  94566682.73505  23094128.380 5  23094128.630 5


 25  4 11  4  5 45.0000000  0 29G18E19E29G23R22G10R08R10E33R23G24R01
                                R07E13E26G28G08S33S31E07S35R09E12G32
                                G01R24G27G31G02
  24431834.954 6 128390435.77206 100044637.47104  24431840.008 4  24431834.673 4
  24431839.505 6  24431842.785 7  95876167.87607

  24594247.729 6 129243836.60806
                  24594250.572 6  96513399.75606  24594250.371 6 104905581.98906
  24594248.175 6  99031083.60106  24594249.099 7  97772259.25207
  23164884.436 8 121732790.56308
                  23164885.784 8  90904650.62308  23164887.589 8  98809296.36608
  23164884.236 8  93276038.26808  23164884.892 8  92090239.51908
  22742869.533 7 119515040.44907  93128878.70305  22742871.227 5  22742869.256 5
  22742871.349 7  22742873.962 7  89248529.06307

  21203525.142 7 113185977.50207  88033619.04607
  21203530.475 7

  21070746.575 8 110727880.87008  86281676.23607  21070748.408 7  21070746.249 7
  21070748.423 7  21070745.343 8  82686624.27008

  20054031.918 8 107388863.38908  83524870.70508
  20054035.920 8

  23032471.420 6 122776081.25606


  23503464.073 8 123511757.92708
                  23503465.171 8  92232935.39108  23503466.542 8 100253152.58708
  23503463.271 8  94638991.66408  23503464.086 8  93435966.60108
  19284918.785 8 103161432.61308


  24480077.337 6 128643884.39706 100242100.87405  24480082.110 5  24480077.033 5
  24480082.387 6  24480081.011 7  96065371.15307

  21499307.066 7 114926290.26507


  22465566.198 7 120260426.44307  93536140.27607
  22465572.824 7

  27939284.707 6 146821966.88906
                  27939293.460 6 109639837.12206  27939290.167 6 119173653.72806
  27939291.006 6 112499992.77506  27939292.240 7 111069915.02007
  23833461.683 7 125246036.07507
                  23833463.409 8  93528098.24008  23833465.180 8 101660903.12708
  23833461.673 8  95967931.72308  23833462.493 8  94748020.55508
  22340843.835 7 117402219.75907  91482388.08105  22340845.660 5  22340843.518 5
  22340845.915 7  22340849.532 7  87670685.12007

  23380576.672 6 122865831.35406  95739661.07804  23380580.656 4  23380576.131 4
  23380581.313 6  23380578.991 7  91750508.71707

  37105971.738 7 194993247.40907
                  37105973.188 6 145611810.55006

  36826810.474 7 193526237.71607
                  36826817.554 7 144516348.23407

  25462802.213 7 133808438.57007
                  25462806.061 7  99922203.60007  25462804.207 7 108610522.58407
  25462804.140 7 102528829.21507  25462805.053 8 101225517.48008
  36982944.259 7 194346716.47607
                  36982945.607 6 145129032.93406

  23057675.229 7 123126752.39207  95765321.70307
  23057680.688 7

  27803671.600 6 146109313.53806
                  27803674.288 6 109107629.02306  27803672.808 6 118595225.29006
  27803672.318 6 111953909.23506  27803673.266 6 110530769.20306
  20542535.734 8 107952222.67008  84118810.81307  20542537.864 7  20542535.596 7
  20542538.217 8  20542535.225 8  80613946.26508

  25231891.216 6 132594490.64406 103320401.02703  25231894.023 3  25231891.069 3
  25231894.040 6  25231897.988 6  99015396.05406

  21873305.899 8 116966436.27708  90973967.71807
  21873311.281 7

  23442668.197 6 123192128.87206  95993921.63104  23442672.399 4  23442667.585 4
  23442672.735 7  23442670.692 7  91994180.07507

  24178925.625 6 127061336.71406  99008959.33204  24178929.175 4  24178925.232 4
  24178929.073 6

  23086605.343 7 121321004.17007  94535871.70205  23086603.931 5  23086604.226 5


 25  4 11  4  6  0.0000000  0 30G18E19E29G23R22G10R08R10E33R23G24R01
                                R07E13E26G28G08S33S31E07S35R09E12G32
                                G01R24G27G31R11G02
  24442282.049 6 128445334.99206 100087416.04503  24442286.640 3  24442281.759 3
  24442287.224 6  24442289.934 7  95917163.98707

  24588941.034 6 129215947.40006
                  24588943.455 6  96492573.43806  24588942.975 6 104882944.67106
  24588941.130 6  99009713.97506  24588941.923 7  97751161.27907
  23165240.402 8 121734660.25008
                  23165241.531 8  90906046.83408  23165243.318 8  98810813.97808
  23165240.007 8  93277470.89708  23165240.681 8  92091653.93808
  22748351.937 7 119543850.40607  93151328.01005  22748353.486 5  22748351.669 5
  22748354.036 7  22748356.438 7  89270042.97207

  21214327.442 7 113243640.89907  88078468.32407
  21214332.925 7

  21071236.947 8 110730458.14608  86283684.50907  21071238.851 7  21071236.621 7
  21071238.841 7  21071235.806 8  82688548.86708

  20057139.186 8 107405502.98508  83537812.62607
  20057143.731 7

  23024667.571 6 122734474.19006


  23500280.515 8 123495027.81308
                  23500281.480 8  92220442.14408  23500282.959 8 100239572.96608
  23500279.616 8  94626172.51008  23500280.430 8  93423310.40008
  19287429.932 8 103174866.33908


  24489232.544 6 128691993.20406 100279588.29605  24489236.671 5  24489232.254 5
  24489237.621 6  24489235.804 7  96101296.60807

  21494500.539 7 114900597.99007


  22473372.142 8 120302204.98508  93568634.68107
  22473377.438 7

  27947327.315 6 146864230.61606
                  27947336.342 6 109671397.66006  27947332.965 6 119207958.69706
  27947334.266 6 112532376.63706  27947334.847 7 111101887.22107
  23837681.793 7 125268211.74307
                  23837683.294 8  93544657.98908  23837685.120 8 101678902.86008
  23837681.546 8  95984923.46408  23837682.381 8  94764796.30108
  22331976.224 7 117355619.84907  91446076.51505  22331977.963 5  22331975.907 5
  22331978.347 7  22331981.817 7  87635886.54707

  23383735.237 6 122882431.36106  95752596.16104  23383739.393 4  23383734.674 4
  23383740.448 6  23383737.868 7  91762904.83207

  37105976.665 7 194993249.30807
                  37105973.644 6 145611812.01006

  36826805.421 7 193526229.16507
                  36826815.909 7 144516341.92307

  25469209.255 7 133842108.18807
                  25469213.269 7  99947346.50207  25469211.661 7 108637851.82007
  25469211.254 7 102554628.02107  25469212.164 8 101250988.33608
  36982952.491 7 194346758.79507
                  36982953.486 6 145129064.64006

  23056160.165 7 123118664.65307  95759031.26307
  23056166.267 7

  27795785.107 6 146067868.35006
                  27795787.530 6 109076679.77206  27795786.021 6 118561584.75006
  27795785.187 6 111922152.59606  27795786.397 6 110499416.25906
  20543577.431 8 107957696.57308  84123076.20407  20543579.520 7  20543577.288 7
  20543579.952 8  20543576.854 8  80618033.93008

  25221880.608 6 132541886.16806 103279410.56003  25221883.809 3  25221880.461 3
  25221884.418 5  25221887.807 6  98976113.54406

  21863842.515 8 116915832.28508  90934609.12907
  21863848.228 7

  23450028.968 6 123230809.99906  96024062.75304  23450033.226 4  23450028.360 4
  23450033.909 7  23450031.501 7  92023065.31607

  24167964.752 6 127003738.98406  98964078.05803  24167967.721 3  24167964.341 3
  24167969.357 6

  24580439.187 6 131350421.31716 102161487.40516
  24580450.710 6

  23079093.220 7 121281528.46907  94505111.46305  23079091.923 5  23079092.107 5


 25  4 11  4  6 15.0000000  0 30G18E19E29G23R22G10R08R10E33R23G24R01
                                R07E13E26G28G08S33S31E07S35R09E12G32
                                G01R24G27G31R11G02
  24452735.408 6 128500263.60006 100130217.49203  24452739.375 3  24452735.118 3
  24452739.277 6  24452743.095 7  95958182.04607

  24583643.975 6 129188111.83606
                  24583646.287 7  96471787.17907  24583646.330 6 104860350.90306
  24583644.186 6  98988385.46106  24583644.968 7  97730103.89307
  23165608.442 8 121736594.62908
                  23165609.605 8  90907491.35608  23165611.457 8  98812384.10708
  23165608.149 8  93278953.10308  23165608.763 8  92093117.30208
  22753840.289 7 119572692.75207  93173802.54605  22753842.148 5  22753840.026 5
  22753842.510 7  22753845.070 7  89291581.06607

  21225146.762 7 113301395.17607  88123388.28607
  21225152.285 7

  21071733.883 8 110733070.94908  86285720.46707  21071736.068 7  21071733.557 7
  21071735.948 7  21071733.002 8  82690499.99608

  20060255.435 8 107422189.78408  83550791.24707
  20060259.571 7

  23016874.669 6 122692938.97806


  23497110.426 8 123478369.47208
                  23497111.472 8  92208002.48908  23497112.985 8 100226051.59308
  23497109.674 8  94613408.33708  23497110.434 8  93410708.48508
  19289978.946 8 103188499.08308


  24498401.896 6 128740177.38506 100317134.43505  24498405.899 5  24498401.610 5
  24498405.869 6  24498405.117 7  96137278.31807

  21489705.306 7 114874967.74607


  22481173.006 7 120343964.44607  93601114.26207
  22481177.712 7

  27955373.380 6 146906515.32006
                  27955382.937 6 109702973.84406  27955379.300 6 119242280.63806
  27955380.270 6 112564776.55506  27955381.344 7 111133875.26707
  23841916.184 7 125290464.27607
                  23841917.830 8  93561275.13108  23841919.629 8 101696964.98108
  23841916.114 8  96001974.10408  23841916.901 8  94781630.19208
  22323119.975 7 117309079.67507  91409811.49205  22323121.611 5  22323119.662 5
  22323122.096 7  22323125.390 7  87601132.58307

  23386913.102 6 122899128.23006  95765606.71604  23386916.673 4  23386912.544 4
  23386917.876 6  23386915.133 7  91775373.28407

  37105975.547 7 194993246.04307
                  37105972.920 6 145611809.59606

  36826805.139 7 193526215.36007
                  36826813.248 7 144516331.65607

  25475619.039 7 133875791.42807
                  25475622.954 7  99972499.57907  25475621.254 7 108665192.12807
  25475621.043 7 102580437.26207  25475621.864 8 101276469.49408
  36982959.069 7 194346794.63307
                  36982960.511 6 145129091.11306

  23054674.954 7 123110731.21607  95752860.85307
  23054680.668 7

  27787898.538 6 146026424.56206
                  27787900.458 6 109045731.55806  27787899.955 6 118527945.40406
  27787898.732 6 111890397.03806  27787899.720 6 110468064.37206
  20544634.656 8 107963252.36208  84127405.40707  20544636.728 7  20544634.513 7
  20544637.208 8  20544634.117 8  80622182.75308

  25211869.901 6 132489278.59406 103238417.68303  25211872.999 3  25211869.767 3
  25211873.699 6  25211876.772 6  98936828.69406

  21854399.575 8 116865337.22708  90895335.22607
  21854404.785 7

  23457396.496 6 123269528.30306  96054232.84804  23457401.092 4  23457395.875 4
  23457401.635 6  23457399.212 7  92051978.32407

  24157002.289 6 126946130.62906  98919188.54003  24157005.797 3  24157001.847 3
  24157005.225 6

  24570808.013 6 131298959.77606 102121461.81406
  24570820.481 6

  23071591.790 7 121242108.76907  94474394.85605  23071590.655 5  23071590.677 5


 25  4 11  4  6 30.0000000  0 30G18E19E29G23R22G10R08R10E33R23G24R01
                                R07E13E26G28G08S33S31E07S35R09E12G32
                                G01R24G27G31R11G02
  24463195.167 6 128555230.71306 100173048.95803  24463199.189 3  24463194.895 3
  24463199.637 6  24463202.889 7  95999228.84207

  24578358.852 6 129160339.52906
                  24578361.470 7  96451048.17007  24578361.131 6 104837808.48006
  24578359.089 6  98967105.42906  24578360.020 7  97709094.37407
  23165990.628 8 121738602.97908
                  23165991.821 8  90908991.11108  23165993.605 8  98814014.26708
  23165990.292 8  93280491.98108  23165990.926 8  92094636.61908
  22759337.116 7 119601576.91807  93196309.67505  22759338.760 5  22759336.866 5
  22759338.670 7  22759341.402 7  89313150.39807

  21235985.107 7 113359249.38807  88168385.98207
  21235990.313 7

  21072239.625 8 110735728.79708  86287791.52607  21072241.840 7  21072239.295 7
  21072241.771 7  21072238.753 8  82692484.75908

  20063381.595 8 107438932.73608  83563813.55507
  20063386.097 7

  23009097.763 6 122651485.75106


  23493955.880 8 123461792.42808
                  23493957.017 8  92195623.54008  23493958.517 8 100212596.20908
  23493955.087 8  94600706.45608  23493955.914 8  93398168.07208
  19292566.201 8 103202340.39708


  24507587.030 6 128788445.95906 100354746.34905  24507590.965 5  24507586.753 5
  24507591.822 6  24507590.431 7  96173323.07007

  21484923.877 7 114849409.04707


  22488971.258 7 120385713.96507  93633586.09307
  22488977.960 7

  27963425.841 6 146948830.19906
                  27963434.977 6 109734572.56806  27963431.731 6 119276627.10106
  27963432.853 6 112597199.60206  27963433.793 7 111165886.15707
  23846167.141 7 125312802.99807
                  23846168.750 8  93577956.64608  23846170.573 8 101715097.05908
  23846166.985 8  96019090.78408  23846167.813 8  94798529.28908
  22314277.086 7 117262608.98807  91373600.62205  22314278.476 5  22314276.769 5
  22314278.683 7  22314282.200 7  87566430.51207

  23390110.677 6 122915931.08606  95778699.85304  23390114.281 4  23390110.114 4
  23390115.064 6  23390112.607 7  91787920.87607

  37105976.017 7 194993246.19007
                  37105972.960 6 145611809.83806

  36826802.904 7 193526204.29907
                  36826811.218 7 144516323.08307

  25482033.326 7 133909497.53207
                  25482036.938 7  99997669.70807  25482035.643 7 108692550.96507
  25482035.147 7 102606264.01207  25482035.937 8 101301967.93308
  36982968.276 7 194346835.11107
                  36982968.157 6 145129121.55606

  23053219.807 7 123102962.12007  95746818.25607
  23053225.564 7

  27780014.083 6 145984991.77606
                  27780016.159 6 109014791.57506  27780015.158 6 118494314.91706
  27780014.020 6 111858649.91406  27780015.292 6 110436720.81706
  20545709.201 8 107968899.22008  84131805.56807  20545711.245 7  20545709.054 7
  20545711.841 8  20545708.640 8  80626399.57508

  25201860.617 6 132436677.55206 103197429.88403  25201863.787 3  25201860.479 3
  25201863.993 6  25201867.257 6  98897548.72806

  21844979.211 8 116814961.47508  90856154.13507
  21844984.969 7

  23464773.254 6 123308292.75806  96084438.90405  23464777.619 5  23464772.606 5
  23464778.167 7  23464775.880 7  92080925.78907

  24146039.777 6 126888521.44206  98874298.33204  24146042.908 4  24146039.353 4
  24146042.721 6

  24561169.412 6 131247445.01906 102081394.83706
  24561181.232 6

  23064103.283 7 121202754.68507  94443729.37505  23064101.703 5  23064102.179 5


 25  4 11  4  6 45.0000000  0 30G18E19E29G23R22G10R08R10E33R23G24R01
                                R07E13E26G28G08S33S31E07S35R09E12G32
                                G01R24G27G31R11G02
  24473661.203 6 128610229.77806 100215905.31403  24473665.473 3  24473660.940 3
  24473665.712 6  24473668.955 7  96040299.51607

  24573085.053 6 129132624.26506
                  24573087.450 7  96430351.75307  24573087.551 6 104815312.37306
  24573085.212 6  98945869.10806  24573085.943 7  97688128.00407
  23166385.581 8 121740678.91708
                  23166386.787 8  90910541.33508  23166388.676 8  98815699.29208
  23166385.273 8  93282082.64708  23166385.958 8  92096207.06308
  22764840.290 7 119630496.70507  93218844.55805  22764842.115 5  22764840.049 5
  22764841.843 7  22764844.595 7  89334746.32007

  21246840.450 7 113417196.67907  88213456.07507
  21246844.704 7

  21072752.958 8 110738425.50908  86289892.87007  21072755.022 7  21072752.632 7
  21072755.096 7  21072751.918 8  82694498.54808

  20066517.537 8 107455725.36308  83576874.50108
  20066522.143 8

  23001334.335 6 122610108.62106


  23490815.689 8 123445290.61108
                  23490816.740 8  92183300.77808  23490818.270 8 100199201.89208
  23490814.961 8  94588062.23008  23490815.709 8  93385684.57708
  19295191.785 8 103216383.78108


  24516786.812 6 128836792.31206 100392418.87105  24516790.961 5  24516786.540 5
  24516791.828 6  24516790.369 7  96209425.92207

  21480155.535 7 114823915.42707


  22496767.552 7 120427446.96007  93666045.08507
  22496773.490 7

  27971482.968 6 146991168.88906
                  27971492.020 6 109766189.07306  27971487.834 6 119310992.89606
  27971489.338 6 112629640.89106  27971490.592 7 111197915.05807
  23850433.171 7 125335221.63707
                  23850434.888 8  93594697.84308  23850436.621 8 101733294.00408
  23850433.076 8  96036268.70608  23850433.946 8  94815488.84908
  22305446.231 7 117216201.92307  91337439.32405  22305447.429 5  22305445.923 5
  22305447.936 7  22305451.290 7  87531775.94607

  23393326.778 7 122932833.38207  95791870.47604  23393330.831 4  23393326.224 4
  23393331.909 6  23393328.942 7  91800542.73107

  37105974.559 7 194993243.52407
                  37105972.415 6 145611807.85006

  36826799.304 7 193526191.31007
                  36826808.607 7 144516313.49807

  25488450.279 7 133943220.04307
                  25488454.088 7 100022852.11007  25488452.470 7 108719923.14107
  25488452.160 7 102632103.34207  25488453.109 8 101327478.79908
  36982973.955 7 194346872.52907
                  36982975.177 6 145129149.53206

  23051794.852 7 123095350.57807  95740898.21907
  23051800.310 7

  27772130.374 6 145943563.84906
                  27772133.149 6 108983855.23306  27772131.891 6 118460688.43906
  27772130.739 6 111826906.51706  27772131.822 6 110405380.94506
  20546799.913 8 107974630.75808  84136271.71607  20546801.927 7  20546799.784 7
  20546802.619 8  20546799.331 8  80630679.63008

  25191850.232 6 132384077.07006 103156442.53203  25191854.596 3  25191850.116 3
  25191854.501 6  25191857.353 6  98858269.18306

  21835579.743 8 116764699.05508  90817061.18607
  21835585.218 7

  23472156.896 6 123347096.73806  96114675.75204  23472161.748 4  23472156.266 4
  23472162.518 6  23472160.092 7  92109902.77207

  24135075.681 6 126830905.57906  98829402.94804  24135078.660 4  24135075.288 4
  24135079.195 6

  24551517.655 6 131195871.05406 102041281.81406
  24551528.007 6

  23056625.761 7 121163460.15007  94413110.30105  23056624.023 5  23056624.661 5


 25  4 11  4  7  0.0000000  0 29G18E19E29G23R22G10R08R10E33R23G24R01
                                R07E13E26G28G08S33S31E07S35R09E12G32
                                G01R24G27G31G02
  24484133.433 6 128665264.65306 100258789.57403  24484138.420 3  24484133.174 3
  24484138.024 6  24484141.605 7  96081396.92107

  24567822.519 6 129104970.10006
                  24567824.953 7  96409700.95207  24567824.665 6 104792865.81306
  24567822.624 6  98924679.57706  24567823.500 7  97667207.83907
  23166794.216 8 121742826.42408
                  23166795.447 8  90912145.00508  23166797.279 8  98817442.40308
  23166793.925 8  93283728.14508  23166794.602 8  92097831.64808
  22770351.089 7 119659456.26107  93241410.42805  22770352.889 5  22770350.844 5
  22770353.018 7  22770355.471 7  89356371.94007

  21257713.715 7 113475240.75507  88258601.43007
  21257719.540 7

  21073274.313 8 110741165.32208  86292027.79407  21073276.359 7  21073273.983 7
  21073276.397 7  21073273.320 8  82696544.52108

  20069664.058 8 107472571.65808  83589977.17607
  20069667.807 7

  22993587.187 6 122568812.49406


  23487690.697 8 123428868.30608
                  23487691.642 8  92171037.38408  23487693.093 8 100185872.11708
  23487689.896 8  94575478.92408  23487690.621 8  93373261.22808
  19297855.105 8 103230633.00708


  24526002.148 6 128885220.25706 100430154.97005  24526006.698 5  24526001.880 5
  24526007.627 6  24526005.703 7  96245589.69507

  21475399.256 7 114798491.09907


  22504561.512 7 120469167.87007  93698494.66607
  22504567.591 7

  27979545.376 6 147033535.35606
                  27979553.936 6 109797826.32806  27979551.129 6 119345381.22606
  27979551.891 6 112662103.46406  27979552.682 7 111229964.96807
  23854715.245 7 125357724.26107
                  23854716.950 8  93611501.74908  23854718.725 8 101751559.12308
  23854715.207 8  96053510.97208  23854716.053 8  94832511.93408
  22296628.211 7 117169862.93607  91301331.07005  22296629.389 5  22296627.916 5
  22296629.425 7  22296633.210 7  87497172.21107

  23396562.119 7 122949838.97807  95805121.60504  23396567.163 4  23396561.547 4
  23396567.766 6  23396564.913 7  91813241.73407

  37105973.267 7 194993242.81907
                  37105972.254 6 145611807.36606

  36826799.890 7 193526179.62507
                  36826806.375 7 144516304.75207

  25494871.267 7 133976962.92407
                  25494875.253 7 100048049.70807  25494873.630 7 108747311.83807
  25494873.369 7 102657958.27507  25494874.157 8 101353005.06508
  36982980.492 7 194346911.33607
                  36982982.506 6 145129178.50806

  23050399.492 7 123087901.28507  95735104.36307
  23050405.537 7

  27764248.487 6 145902145.18706
                  27764251.257 6 108952925.76606  27764249.918 6 118427069.43506
  27764248.893 6 111795170.18206  27764250.032 6 110374048.04506
  20547907.594 8 107980450.86408  84140806.87707  20547909.450 7  20547907.465 7
  20547909.878 8  20547906.819 8  80635025.83508

  25181842.015 6 132331481.50206 103115459.01103  25181845.531 3  25181841.917 3
  25181845.328 6  25181848.595 6  98818993.30706

  21826202.092 8 116714554.57808  90778059.98807
  21826208.195 7

  23479549.853 6 123385943.94206  96144946.28804  23479554.055 4  23479549.250 4
  23479554.747 7  23479552.430 7  92138912.02807

  24124111.568 6 126773287.49706  98784505.81803  24124113.767 3  24124111.166 3
  24124115.172 6

  23049160.382 7 121124229.69707  94382541.16205  23049158.801 5  23049159.287 5


 25  4 11  4  7 15.0000000  0 30G18E19E29G23R22G10R08R10E33R23G24R01
                                R07E13E26G28G08S33S31E07S35R09E12G32
                                G01R24G27G31R11G02
  24494612.652 6 128720333.36406 100301700.20503  24494617.229 3  24494612.416 3
  24494618.051 6  24494621.026 7  96122519.59507

  24562571.164 6 129077375.36506
                  24562573.705 7  96389094.53407  24562573.845 6 104770467.51506
  24562571.475 6  98903535.60406  24562572.358 7  97646332.64307
  23167216.195 8 121745043.67908
                  23167217.380 8  90913800.76708  23167219.109 8  98819242.14208
  23167215.876 8  93285427.09908  23167216.522 8  92099509.00508
  22775868.891 7 119688453.90607  93264005.98105  22775870.751 5  22775868.655 5
  22775871.362 7  22775873.611 7  89378026.00407

  21268605.832 7 113533379.38807  88303820.34407
  21268610.602 7

  21073803.658 8 110743946.62208  86294195.04707  21073805.589 7  21073803.337 7
  21073805.953 7  21073802.566 8  82698621.46908

  20072819.407 8 107489469.46608  83603119.91707
  20072823.506 7

  22985856.324 6 122527596.12506


  23484580.452 8 123412523.99408
                  23484581.388 8  92158832.23208  23484582.923 8 100172605.63508
  23484579.618 8  94562955.37108  23484580.393 8  93360896.87508
  19300557.186 8 103245086.54908


  24535232.621 6 128933727.61506 100467952.95205  24535237.147 5  24535232.349 5
  24535237.687 6  24535236.152 6  96281812.77506

  21470655.363 7 114773134.13007


  22512352.875 7 120510874.60107  93730933.22607
  22512358.315 7

  27987612.122 6 147075927.71206
                  27987620.794 6 109829482.91706  27987618.177 6 119379790.57906
  27987618.585 6 112694585.88206  27987619.699 7 111262034.47507
  23859013.047 7 125380309.12207
                  23859014.690 8  93628367.06008  23859016.431 8 101769890.98408
  23859012.964 8  96070816.25208  23859013.801 8  94849597.23008
  22287822.928 7 117123590.67907  91265274.81905  22287824.008 5  22287822.647 5
  22287824.058 7  22287827.758 7  87462618.31307

  23399817.915 7 122966945.92107  95818451.70004  23399822.679 4  23399817.343 4
  23399822.610 6  23399820.293 7  91826016.40507

  37105974.094 7 194993241.63407
                  37105972.012 6 145611806.49606

  36826795.132 7 193526168.14007
                  36826804.211 7 144516296.15407

  25501295.671 7 134010724.28707
                  25501299.780 7 100073261.11807  25501298.180 7 108774715.54107
  25501298.075 7 102683827.37107  25501298.730 8 101378545.31908
  36982987.616 7 194346950.67907
                  36982989.992 6 145129207.98706

  23049034.200 7 123080612.95707  95729435.70307
  23049040.406 7

  27756368.364 6 145860734.21506
                  27756370.882 6 108922002.06406  27756369.961 6 118393456.68206
  27756368.963 6 111763439.77106  27756369.674 6 110342720.99306
  20549031.420 8 107986357.67308  84145409.59907  20549033.446 7  20549031.286 7
  20549034.076 8  20549030.848 8  80639436.77908

  25171834.149 6 132278889.38206 103074478.17403  25171837.136 3  25171834.056 3
  25171837.783 5  25171840.670 6  98779720.02006

  21816846.908 8 116664526.91908  90739149.61107
  21816852.216 7

  23486949.999 6 123424832.31506  96175248.90404  23486954.233 4  23486949.405 4
  23486955.158 7  23486952.720 7  92167952.02907

  24113146.660 6 126715665.83306  98739605.91703  24113148.602 3  24113146.285 3
  24113149.092 6

  24532185.168 6 131092543.38916 101960908.84816
  24532194.380 6

  23041706.770 7 121085061.88507  94352020.82805  23041705.443 5  23041705.675 5


 25  4 11  4  7 30.0000000  0 30G18E19E29G23R22G10R08R10E33R23G24R01
                                R07E13E26G28G08S33S31E07S35R09E12G32
                                G01R24G27G31R11G02
  24505098.529 6 128775435.07206 100344636.53503  24505102.795 3  24505098.279 3
  24505102.989 6  24505106.974 7  96163666.89307

  24557331.143 6 129049839.62306
                  24557333.887 7  96368532.17307  24557334.078 6 104748117.10706
  24557331.564 6  98882436.82006  24557332.461 7  97625502.07007
  23167651.357 8 121747330.00408
                  23167652.391 8  90915508.10508  23167654.144 8  98821097.93308
  23167650.927 8  93287178.97708  23167651.579 8  92101238.61408
  22781394.268 7 119717489.13607  93286630.81405  22781396.017 5  22781394.032 5
  22781396.217 7  22781398.944 7  89399708.13507

  21279513.706 7 113591611.51307  88349111.98207
  21279518.833 7

  21074340.689 8 110746768.94708  86296394.26907  21074342.662 7  21074340.372 7
  21074342.680 7  21074339.582 8  82700729.05708

  20075984.081 8 107506418.08708  83616302.18208
  20075988.699 8

  22978139.013 6 122486459.42906


  23481484.752 8 123396257.26608
                  23481485.908 8  92146685.01208  23481487.507 8 100159402.12908
  23481484.246 8  94550491.26308  23481484.917 8  93348591.21108
  19303297.220 8 103259743.77608


  24544478.228 6 128982313.53706 100505812.13505  24544482.575 5  24544477.974 5
  24544482.852 6  24544481.861 7  96318094.50707

  21465925.155 7 114747843.82707


  22520140.917 7 120552566.45907  93763360.21807
  22520147.636 7

  27995683.802 6 147118345.26706
                  27995692.978 6 109861158.32506  27995689.378 6 119414220.38506
  27995690.733 6 112727087.60406  27995691.505 7 111294123.03907
  23863326.382 7 125402975.58907
                  23863328.005 8  93645293.32208  23863329.741 8 101788289.09208
  23863326.261 8  96088184.06908  23863327.083 8  94866744.26808
  22279029.924 7 117077384.96607  91229270.41705  22279031.305 5  22279029.643 5
  22279031.362 7  22279035.074 7  87428114.11107

  23403091.960 6 122984153.36906  95831860.09704  23403096.917 4  23403091.393 4
  23403097.312 6  23403094.736 7  91838866.13507

  37105971.796 7 194993239.79807
                  37105971.543 6 145611805.17406

  36826794.081 7 193526155.22707
                  36826801.832 7 144516286.60407

  25507724.028 7 134044503.40307
                  25507727.796 7 100098485.78807  25507726.025 7 108802133.65707
  25507725.805 7 102709710.07107  25507726.674 8 101404099.00208
  36983000.212 7 194346988.31207
                  36982997.249 6 145129236.06006

  23047700.016 7 123073484.90207  95723891.69607
  23047705.083 7

  27748489.495 6 145819330.51806
                  27748491.591 6 108891083.81606  27748490.875 6 118359849.84006
  27748490.014 6 111731714.93906  27748490.733 6 110311399.45406
  20550171.909 8 107992350.43908  84150079.29907  20550173.840 7  20550171.780 7
  20550174.479 8  20550171.256 8  80643911.91208

  25161826.842 6 132226300.38006 103033499.75503  25161829.555 3  25161826.749 3
  25161830.253 6  25161833.301 6  98740449.05906

  21807513.115 8 116614616.07108  90700330.12907
  21807519.335 7

  23494357.804 6 123463760.87106  96205582.83604  23494362.026 4  23494357.205 4
  23494362.579 6  23494360.646 7  92197022.04507

  24102180.473 6 126658040.42906  98694703.07204  24102182.645 4  24102180.125 4
  24102184.369 6

  24522502.343 6 131040802.61906 101920666.07906
  24522512.938 6

  23034265.506 7 121045956.37607  94321549.05005  23034263.800 5  23034264.415 5


 25  4 11  4  7 45.0000000  0 30G18E19E29G23R22G10R08R10E33R23G24R01
                                R07E13E26G28G08S33S31E07S35R09E12G32
                                G01R24G27G31R11G02
  24515590.929 6 128830573.40606 100387601.41103  24515595.565 3  24515590.697 3
  24515595.214 6  24515599.363 7  96204841.56407

  24552102.970 6 129022366.75806
                  24552106.124 7  96348016.76407  24552106.115 6 104725817.74706
  24552103.454 6  98861386.23706  24552104.522 7  97604719.07407
  23168100.096 8 121749689.19408
                  23168101.287 8  90917269.85608  23168103.098 8  98823012.87608
  23168099.883 8  93288986.68408  23168100.499 8  92103023.34408
  22786927.386 7 119746565.91807  93309288.03405  22786929.302 5  22786927.158 5
  22786929.047 7  22786932.119 7  89421421.30507

  21290441.338 7 113649940.64007  88394479.04907
  21290446.310 7

  21074886.424 8 110749636.32108  86298628.59207  21074888.290 7  21074886.107 7
  21074888.392 7  21074885.238 8  82702870.28408

  20079159.598 8 107523421.32208  83629526.92608
  20079163.744 8

  22970436.567 6 122445406.56906


  23478404.967 8 123380072.22708
                  23478405.989 8  92134598.79708  23478407.557 8 100146264.93308
  23478404.303 8  94538089.75608  23478404.993 8  93336347.35008
  19306075.913 8 103274608.16408


  24553739.386 6 129030981.61406 100543735.38205  24553743.627 5  24553739.132 5
  24553744.587 6  24553742.908 7  96354437.61907

  21461206.189 7 114722623.97807


  22527926.747 7 120594247.51707  93795778.81507
  22527932.705 7

  28003761.210 6 147160791.83106
                  28003770.203 6 109892855.37606  28003766.932 6 119448673.71406
  28003767.872 6 112759611.54806  28003768.848 7 111326233.53207
  23867656.067 7 125425727.57507
                  23867657.601 8  93662283.43608  23867659.379 8 101806756.61108
  23867655.752 8  96105617.40508  23867656.638 8  94883955.99508
  22270250.372 7 117031250.11707  91193321.23605  22270251.936 5  22270250.100 5
  22270252.221 7  22270255.890 7  87393662.81907

  23406386.509 6 123001464.96506  95845349.66704  23406391.197 4  23406385.942 4
  23406391.177 6  23406389.024 7  91851793.61507

  37105972.364 7 194993240.96507
                  37105971.762 6 145611805.98406

  36826791.362 7 193526146.31307
                  36826799.999 7 144516280.11807

  25514155.741 7 134078304.02507
                  25514159.752 7 100123726.51507  25514158.130 7 108829569.23207
  25514157.903 7 102735609.24807  25514158.727 8 101429668.95408
  36983002.895 7 194347029.52307
                  36983004.882 6 145129266.78306

  23046394.940 7 123066521.66107  95718475.88107
  23046401.620 7

  27740612.719 6 145777938.22806
                  27740615.058 6 108860174.04906  27740614.104 6 118326252.27706
  27740613.021 6 111699998.84706  27740613.957 6 110280086.52406
  20551329.035 8 107998432.89008  84154818.88207  20551331.256 7  20551328.897 7
  20551331.979 8  20551328.678 8  80648454.01208

  25151820.786 6 132173718.70206 102992527.06603  25151823.763 3  25151820.693 3
  25151824.577 6  25151827.339 6  98701183.55906

  21798202.112 8 116564826.35508  90661604.83907
  21798207.826 7

  23501774.275 6 123502733.17006  96235950.84804  23501778.131 4  23501773.681 4
  23501778.742 7  23501776.733 7  92226124.71507

  24091214.028 6 126600415.47106  98649800.61204  24091217.453 4  24091213.666 4
  24091218.225 6

  24512809.930 6 130989010.36406 101880383.24206
  24512819.846 6

  23026836.178 7 121006917.50907  94291129.19205  23026834.847 5  23026835.083 5


 25  4 11  4  8  0.0000000  0 30G18E19E29G23R22G10R08R10E33R23G24R01
                                R07E13E26G28G08S33S31E07S35R09E12G32
                                G01R24G27G31R11G02
  24526089.744 6 128885743.39306 100430590.95203  24526093.960 3  24526089.512 3
  24526094.135 6  24526097.499 7  96246039.84807

  24546886.629 6 128994952.00106
                  24546889.085 7  96327544.75507  24546888.761 6 104703565.53406
  24546886.633 6  98840380.15806  24546887.623 7  97583980.03107
  23168562.154 8 121752116.36908
                  23168563.167 8  90919082.37408  23168564.988 8  98824982.99208
  23168561.704 8  93290846.48108  23168562.364 8  92104859.50008
  22792467.629 7 119775679.55507  93331973.96505  22792469.360 5  22792467.406 5
  22792469.437 7  22792472.180 7  89443161.98507

  21301386.052 7 113708361.48907  88439917.44007
  21301390.674 7

  21075439.609 8 110752544.10208  86300894.40307  21075441.666 7  21075439.292 7
  21075441.628 7  21075438.530 8  82705041.69008

  20082343.985 8 107540473.96708  83642790.10307
  20082348.280 7

  22962751.805 6 122404433.81206


  23475339.796 8 123363964.28708
                  23475340.703 8  92122570.15508  23475342.331 8 100133190.32308
  23475339.038 8  94525747.32308  23475339.749 8  93324161.81308
  19308892.697 8 103289674.89608


  24563015.533 6 129079726.66206 100581718.58505  24563019.543 5  24563015.283 5
  24563020.806 6  24563018.887 7  96390838.19107

  21456501.424 7 114697469.76507


  22535710.596 7 120635912.66507  93828185.02507
  22535717.361 7

  28011843.006 6 147203262.43406
                  28011851.857 6 109924570.40306  28011848.875 6 119483146.59306
  28011849.514 6 112792153.93706  28011850.747 7 111358362.24307
  23872000.744 7 125448560.26707
                  23872002.597 8  93679333.82408  23872004.162 8 101825289.63708
  23872000.587 8  96123112.58108  23872001.553 8  94901228.77708
  22261484.334 7 116985181.72407  91157423.83605  22261485.369 5  22261484.066 5
  22261485.805 7  22261489.353 7  87359261.16007

  23409700.155 7 123018875.67807  95858916.46404  23409704.165 4  23409699.579 4
  23409704.746 6  23409702.209 7  91864795.13807

  37105973.526 7 194993240.78907
                  37105971.645 6 145611805.93706

  36826791.573 7 193526135.27907
                  36826797.991 7 144516271.86107

  25520591.180 7 134112121.23207
                  25520594.968 7 100148979.62507  25520593.130 7 108857018.26407
  25520593.070 7 102761521.13707  25520593.924 8 101455251.45508
  36983013.019 7 194347069.36507
                  36983012.498 6 145129296.66806

  23045121.882 7 123059718.41107  95713184.48306
  23045127.535 6

  27732737.360 6 145736552.82406
                  27732739.554 6 108829269.46206  27732738.610 6 118292660.28606
  27732737.592 6 111668288.02706  27732738.517 6 110248778.81906
  20552502.810 8 108004600.11708  84159624.53007  20552504.874 7  20552502.663 7
  20552505.226 8  20552502.226 8  80653059.42808

  25141815.655 6 132121139.84006 102951556.57703  25141818.615 3  25141815.571 3
  25141819.153 6  25141821.651 6  98661920.16706

  21788912.652 8 116515153.43208  90622970.38207
  21788918.413 7

  23509197.454 6 123541744.04806  96266348.91704  23509201.660 4  23509196.820 4
  23509202.287 6  23509200.315 7  92255256.19807

  24080247.932 6 126542786.72806  98604895.17704  24080251.018 4  24080247.593 4
  24080251.275 6

  24503107.149 6 130937161.99806 101840056.79306
  24503116.993 6

  23019419.246 7 120967940.72407  94260757.71605  23019417.745 5  23019418.151 5


 25  4 11  4  8 15.0000000  0 30G18E19E29G23R22G10R08R10E33R23G24R01
                                R07E13E26G28G08S33S31E07S35R09E12G32
                                G01R24G27G31R11G02
  24536593.153 6 128940941.87306 100473602.69803  24536598.047 3  24536592.912 3
  24536597.852 6  24536602.027 7  96287259.43307

  24541680.173 6 128967592.56906
                  24541682.677 7  96307114.05707  24541682.413 6 104681358.23906
  24541680.339 6  98819416.47806  24541681.273 7  97563282.84307
  23169036.340 8 121754608.57108
                  23169037.411 8  90920943.45008  23169039.187 8  98827005.89808
  23169035.958 8  93292756.10608  23169036.597 8  92106744.85108
  22798014.067 7 119804827.23307  93354686.42305  22798015.988 5  22798013.848 5
  22798015.934 7  22798018.856 7  89464928.08007

  21312345.666 7 113766870.59007  88485424.51007
  21312351.144 7

  21076000.313 8 110755489.54308  86303189.55707  21076002.175 7  21076000.000 7
  21076002.090 8  21075999.085 8  82707241.21208

  20085537.163 8 107557572.75708  83656089.17908
  20085541.349 8

  22955079.151 6 122363538.61306


  23472288.765 8 123347930.82708
                  23472289.667 8  92110597.13308  23472291.216 8 100120176.16708
  23472287.990 8  94513461.95408  23472288.663 8  93312032.61708
  19311746.504 8 103304941.08008


  24572305.418 6 129128545.47806 100619759.25505  24572309.626 5  24572305.168 5
  24572310.108 6  24572308.742 7  96427293.84807

  21451807.114 7 114672378.27707


  22543490.336 7 120677558.63807  93860576.32107
  22543496.434 7

  28019928.851 6 147245754.18006
                  28019938.129 6 109956301.19606  28019935.085 6 119517636.60406
  28019935.875 6 112824712.48206  28019936.795 7 111390506.91207
  23876360.542 7 125471470.78707
                  23876362.312 8  93696442.32908  23876363.918 8 101843885.84308
  23876360.312 8  96140667.39608  23876361.268 8  94918560.43608
  22252729.629 7 116939177.31807  91121576.30005  22252731.077 5  22252729.361 5
  22252731.444 7  22252734.914 8  87324907.27508

  23413031.232 7 123036382.43807  95872558.10304  23413035.577 4  23413030.642 4
  23413036.304 6  23413033.642 7  91877868.37407

  37105972.999 7 194993235.98207
                  37105970.823 6 145611802.19206

  36826787.338 7 193526119.81207
                  36826795.076 7 144516260.24607

  25527028.977 7 134145952.02707
                  25527032.774 7 100174242.87407  25527031.288 7 108884478.32307
  25527030.914 7 102787443.42807  25527031.692 8 101480844.22608
  36983018.541 7 194347104.54407
                  36983019.250 6 145129322.87906

  23043876.958 7 123053072.21307  95708015.26807
  23043882.469 7

  27724862.732 6 145695171.63006
                  27724864.949 6 108798367.99906  27724863.579 6 118259071.71006
  27724862.715 6 111636580.44206  27724863.847 6 110217474.29406
  20553691.840 8 108010849.08808  84164493.86907  20553693.963 7  20553691.697 7
  20553694.628 8  20553691.398 8  80657725.88008

  25131809.649 6 132068561.22206 102910586.25903  25131813.212 3  25131809.573 3
  25131813.151 6  25131816.435 6  98622656.95806

  21779645.517 8 116465595.12608  90584425.08307
  21779650.946 7

  23516627.639 6 123580790.33206  96296774.57304  23516631.878 4  23516627.005 4
  23516632.763 7  23516630.619 7  92284414.10407

  24069281.046 6 126485151.56106  98559984.74904  24069282.977 4  24069280.725 4
  24069283.849 6

  24493393.001 6 130885254.68606 101799684.47706
  24493403.566 6

  23012013.301 7 120929023.40407  94230432.57105  23012011.960 5  23012012.197 5


 25  4 11  4  8 30.0000000  0 30G18E19E29G23R22G10R08R10E33R23G24R01
                                R07E13E26G28G08S33S31E07S35R09E12G32
                                G01R24G27G31R11G02
  24547104.099 5 128996176.42705 100516642.54703  24547108.712 3  24547103.845 3
  24547109.284 6  24547112.683 7  96328505.94007

  24536485.879 6 128940296.27606
                  24536488.299 7  96286730.51207  24536488.334 6 104659202.19006
  24536485.882 6  98798501.17706  24536486.893 7  97542633.41907
  23169524.426 8 121757173.47508
                  23169525.439 8  90922858.81508  23169527.281 8  98829087.81108
  23169524.027 8  93294721.43908  23169524.675 8  92108685.20008
  22803568.877 7 119834016.82307  93377431.53905  22803570.780 5  22803568.667 5
  22803570.999 7  22803573.444 7  89486725.47607

  21323325.460 7 113825475.49007  88531006.06107
  21323330.498 7

  21076569.282 8 110758480.53908  86305520.21107  21076571.359 7  21076568.965 7
  21076571.253 7  21076568.233 8  82709474.76208

  20088740.154 8 107574725.51908  83669430.23108
  20088744.141 8

  22947422.968 6 122322729.56206


  23469253.316 8 123331979.77808
                  23469254.271 8  92098685.64708  23469255.746 8 100107228.89308
  23469252.556 8  94501239.73908  23469253.259 8  93299965.76708
  19314639.210 8 103320414.45108


  24581610.623 6 129177445.55506 100657863.24805  24581615.130 5  24581610.378 5
  24581616.033 6  24581614.100 7  96463810.18107

  21447126.397 7 114647357.21207


  22551267.574 7 120719193.65507  93892959.11607
  22551274.968 7

  28028020.303 6 147288274.64806
                  28028029.460 6 109988053.45706  28028026.720 6 119552149.94206
  28028027.013 6 112857293.06606  28028028.008 7 111422673.33607
  23880736.594 7 125494466.90007
                  23880738.278 8  93713614.75308  23880740.060 8 101862551.51508
  23880736.386 8  96158287.79208  23880737.274 8  94935956.84608
  22243988.844 7 116893245.05907  91085784.97805  22243990.419 5  22243988.572 5
  22243990.397 7  22243994.201 8  87290607.27508

  23416382.279 7 123053992.73707  95886280.41904  23416386.888 4  23416381.662 4
  23416387.037 6  23416384.643 7  91891018.94607

  37105970.807 7 194993234.73907
                  37105970.528 6 145611801.29606

  36826787.168 7 193526109.12907
                  36826792.800 7 144516252.55307

  25533470.700 7 134179804.01507
                  25533474.593 7 100199521.96607  25533472.992 7 108911955.59207
  25533472.593 7 102813381.97307  25533473.512 8 101506453.04508
  36983028.200 7 194347143.43307
                  36983026.570 6 145129352.00606

  23042664.095 7 123046591.52307  95702974.77407
  23042668.950 7

  27716990.355 6 145653802.54606
                  27716992.356 6 108767475.57606  27716991.819 6 118225492.97206
  27716990.599 6 111604882.12306  27716991.466 6 110186178.92006
  20554897.978 8 108017187.42408  84169432.84507  20554900.108 7  20554897.831 7
  20554900.659 8  20554897.474 8  80662459.06708

  25121805.838 6 132015990.87506 102869622.39503  25121809.710 3  25121805.745 3
  25121808.907 5  25121812.754 7  98583399.92507

  21770401.030 8 116416159.71308  90545975.35607
  21770406.438 7

  23524066.411 6 123619879.37206  96327233.55404  23524070.516 4  23524065.777 4
  23524070.621 6  23524068.950 7  92313603.95607

  24058313.452 6 126427518.07906  98515075.63704  24058315.831 4  24058313.135 4
  24058316.525 6

  24483670.452 6 130833297.13306 101759273.07706
  24483679.952 6

  23004620.474 7 120890173.58007  94200160.02305  23004619.048 5  23004619.370 5


 25  4 11  4  8 45.0000000  0 30G18E19E29G23R22G10R08R10E33R23G24R01
                                R07E13E26G28G08S33S31E07S35R09E12G32
                                G01R24G27G31R11G02
  24557620.402 6 129051439.87006 100559704.90703  24557625.056 3  24557620.224 3
  24557625.205 6  24557628.773 7  96369774.02207

  24531302.128 6 128913056.35306
                  24531304.768 7  96266389.05907  24531304.827 6 104637091.89306
  24531302.243 6  98777629.06706  24531303.289 7  97522026.63807
  23170024.958 8 121759804.09508
                  23170026.035 8  90924823.25008  23170027.839 8  98831223.06208
  23170024.671 8  93296737.11708  23170025.233 8  92110675.25708
  22809129.808 7 119863241.45007  93400203.96005  22809131.985 5  22809129.603 5
  22809131.800 7  22809134.669 7  89508549.04507

  21334320.271 7 113884168.62907  88576656.25707
  21334325.237 7

  21077145.769 8 110761510.32608  86307881.09207  21077147.926 7  21077145.456 7
  21077147.672 7  21077144.756 8  82711737.27108

  20091952.605 8 107591925.21008  83682807.77608
  20091956.320 8

  22939781.954 6 122282000.03806


  23466232.340 8 123316104.46908
                  23466233.301 8  92086830.73108  23466234.875 8 100094343.10208
  23466231.594 8  94489075.55708  23466232.275 8  93287956.21808
  19317569.213 8 103336087.87408


  24590930.440 6 129226419.61706 100696024.89005  24590934.622 5  24590930.195 5
  24590934.670 6  24590933.467 7  96500381.76707

  21442457.102 7 114622399.48507


  22559042.807 7 120760810.50707  93925327.74707
  22559048.505 7

  28036115.828 6 147330816.84306
                  28036125.149 6 110019821.92706  28036121.476 6 119586680.90706
  28036122.831 6 112889890.28006  28036123.568 7 111454856.17807
  23885127.638 7 125517541.67807
                  23885129.310 8  93730845.91808  23885130.888 8 101881281.04908
  23885127.417 8  96175968.47108  23885128.251 8  94953412.76808
  22235260.982 7 116847378.45707  91050044.81705  22235262.281 5  22235260.714 5
  22235262.243 7  22235265.953 8  87256356.29308

  23419752.452 6 123071699.47406  95900077.88404  23419756.332 4  23419751.826 4
  23419756.648 6  23419754.195 7  91904241.51007

  37105968.840 7 194993230.21207
                  37105969.517 6 145611797.99906

  36826781.654 7 193526093.50807
                  36826790.041 7 144516240.76807

  25539915.294 7 134213670.18007
                  25539919.143 7 100224811.63007  25539917.622 7 108939444.35407
  25539917.039 7 102839331.36507  25539918.041 8 101532072.57208
  36983032.667 7 194347178.29707
                  36983033.206 6 145129377.98306

  23041479.601 7 123040269.64307  95698057.77506
  23041484.289 6

  27709118.994 6 145612438.97106
                  27709121.448 6 108736587.28506  27709120.368 6 118191918.69406
  27709119.631 6 111573188.03306  27709120.257 6 110154887.72706
  20556119.845 8 108023608.06708  84174435.95507  20556121.925 7  20556119.698 7
  20556122.559 8  20556119.263 8  80667253.71708

  25111802.398 6 131963422.21906 102828659.84103  25111805.966 3  25111802.282 3
  25111805.468 6  25111809.193 7  98544144.16007

  21761177.461 8 116366840.60208  90507616.10007
  21761183.395 7

  23531511.365 6 123659003.99206  96357720.26904  23531515.651 4  23531510.731 4
  23531516.141 6  23531514.290 7  92342820.40007

  24047345.447 6 126369879.80506  98470162.78304  24047347.553 4  24047345.126 4
  24047348.338 6

  24473936.708 6 130781282.84006 101718817.61006
  24473946.463 6

  22997239.486 7 120851384.74407  94169934.99605  22997237.723 5  22997238.378 5


 25  4 11  4  9  0.0000000  0 30G18E19E29G23R22G10R08R10E33R23G24R01
                                R07E13E26G28G08S33S31E07S35R09E12G32
                                G01R24G27G31R11G02
  24568143.023 6 129106739.67406 100602795.60503  24568147.938 3  24568142.840 3
  24568149.043 6  24568152.173 7  96411069.25407

  24526130.772 6 128885880.37506
                  24526133.289 7  96246095.34507  24526133.178 6 104615033.50006
  24526130.778 6  98756805.96406  24526131.862 7  97501468.22807
  23170539.572 8 121762508.00708
                  23170540.596 8  90926842.42608  23170542.425 8  98833417.81408
  23170539.225 8  93298808.96408  23170539.774 8  92112720.76808
  22814699.693 7 119892508.95307  93423009.78305  22814701.369 5  22814699.501 5
  22814701.424 7  22814704.031 7  89530404.61507

  21345333.117 7 113942957.43007  88622380.85907
  21345338.814 7

  21077731.426 8 110764586.76408  86310278.32207  21077733.324 7  21077731.109 7
  21077733.139 7  21077730.195 8  82714034.61808

  20095174.582 8 107609179.35108  83696227.67207
  20095178.478 7

  22932158.698 6 122241358.66006


  23463227.199 8 123300312.80508
                  23463228.211 8  92075038.26708  23463229.804 8 100081525.20608
  23463226.492 8  94476975.46308  23463227.220 8  93276009.93808
  19320537.473 8 103351969.04208


  24600265.392 6 129275475.06706 100734249.96005  24600269.537 5  24600265.147 5
  24600269.952 6  24600268.358 7  96537014.14007

  21437802.656 7 114597512.95407


  22566814.240 7 120802416.67607  93957688.11607
  22566820.928 7

  28044216.830 6 147373388.32606
                  28044225.966 6 110051612.29206  28044222.403 6 119621235.66006
  28044223.579 6 112922509.95706  28044224.811 7 111487061.19007
  23889534.976 7 125540702.79907
                  23889536.698 8  93748141.56008  23889538.430 8 101900080.66108
  23889534.820 8  96193715.29908  23889535.657 8  94970934.00408
  22226546.888 7 116801585.57907  91014362.10605  22226548.135 5  22226546.625 5
  22226548.645 7  22226551.934 7  87222160.37507

  23423141.627 6 123089510.06106  95913956.27004  23423145.500 4  23423141.001 4
  23423146.103 6  23423143.462 7  91917541.62307

  37105971.174 7 194993229.22707
                  37105969.624 6 145611797.16206

  36826777.125 7 193526082.12507
                  36826787.796 7 144516232.13007

  25546363.920 7 134247558.07707
                  25546367.837 7 100250117.53007  25546365.910 7 108966950.76607
  25546365.815 7 102865297.42107  25546366.702 8 101557708.54808
  36983039.165 7 194347217.87807
                  36983040.526 6 145129407.60206

  23040327.239 7 123034114.24907  95693270.30206
  23040331.898 6

  27701250.127 6 145571088.76306
                  27701252.501 6 108705708.96006  27701251.492 6 118158355.27706
  27701250.822 6 111541504.17306  27701251.515 6 110123606.64206
  20557358.671 8 108030118.56208  84179509.08007  20557360.810 7  20557358.528 7
  20557361.257 8  20557358.173 8  80672115.46108

  25101800.540 6 131910863.19906 102787704.79003  25101803.898 3  25101800.411 3
  25101804.414 5  25101807.452 6  98504895.58606

  21751978.767 8 116317646.44508  90469353.99607
  21751983.609 7

  23538964.647 6 123698171.47606  96388240.37104  23538968.817 4  23538964.008 4
  23538969.440 6  23538967.578 7  92372068.82307

  24036377.167 6 126312244.80406  98425252.49004  24036379.701 4  24036376.814 4
  24036380.704 6

  24464193.551 6 130729220.02606 101678324.34106
  24464204.373 6

  22989870.675 7 120812664.89407  94139763.72805  22989869.661 5  22989869.562 5


 25  4 11  4  9 15.0000000  0 30G18E19E29G23R22G10R08R10E33R23G24R01
                                R07E13E26G28G08S33S31E07S35R09E12G32
                                G01R24G27G31R11G02
  24578672.665 6 129162071.50606 100645911.25803  24578677.411 3  24578672.487 3
  24578677.720 6  24578681.590 7  96452388.42507

  24520970.822 6 128858764.40006
                  24520973.176 7  96225846.43907  24520973.243 6 104593023.81106
  24520970.927 6  98736028.81406  24520971.843 7  97480955.20107
  23171067.170 8 121765281.08108
                  23171068.327 8  90928913.24108  23171069.986 8  98835668.69008
  23171066.892 8  93300933.79908  23171067.447 8  92114818.59408
  22820275.860 7 119921815.26207  93445845.85105  22820278.041 5  22820275.650 5
  22820278.375 6  22820280.904 7  89552289.17507

  21356362.860 7 114001837.26007  88668176.24007
  21356368.583 7

  21078324.978 8 110767705.82908  86312708.76907  21078326.891 7  21078324.665 7
  21078326.744 7  21078323.713 8  82716363.79908

  20098405.594 8 107626483.29408  83709686.30507
  20098409.665 7

  22924549.302 6 122200801.90106


  23460237.343 8 123284600.86208
                  23460238.265 8  92063305.34208  23460239.856 8 100068772.02308
  23460236.619 8  94464936.46208  23460237.327 8  93264123.97608
  19323544.632 8 103368053.76108


  24609614.381 6 129324607.48906 100772535.01305  24609618.917 5  24609614.131 5
  24609618.645 6  24609617.941 6  96573703.99206

  21433158.670 7 114572693.07807


  22574584.362 7 120844008.11607  93990037.00107
  22574591.027 7

  28052322.603 6 147415984.94106
                  28052332.003 6 110083421.41406  28052328.784 6 119655810.80706
  28052329.410 6 112955148.88006  28052330.548 6 111519285.22106
  23893958.025 7 125563946.17507
                  23893959.726 8  93765498.62008  23893961.320 8 101918947.02508
  23893957.769 8  96211525.15108  23893958.717 8  94988517.45908
  22217845.703 7 116755862.77807  90978734.00005  22217847.341 5  22217845.435 5
  22217847.831 7  22217851.057 7  87188016.78007

  23426549.268 6 123107420.21006  95927912.24204  23426553.623 4  23426548.629 4
  23426554.209 6  23426551.684 7  91930916.09507

  37105970.986 7 194993228.88807
                  37105969.365 6 145611796.93606

  36826777.183 7 193526071.50507
                  36826785.694 7 144516224.55007

  25552815.877 7 134281463.46807
                  25552819.753 7 100275436.48807  25552818.243 7 108994471.37207
  25552817.797 7 102891276.87207  25552818.681 8 101583357.75408
  36983046.028 7 194347257.02207
                  36983048.101 6 145129436.81006

  23039204.127 7 123028121.59807  95688609.36506
  23039209.449 6

  27693383.434 6 145529748.13106
                  27693385.413 6 108674837.76006  27693384.820 6 118124799.61006
  27693383.757 6 111509827.63006  27693384.563 6 110092332.77306
  20558613.767 8 108036714.67108  84184648.91807  20558616.004 7  20558613.624 7
  20558616.428 8  20558613.361 8  80677041.14908

  25091800.325 6 131858310.03306 102746754.29503  25091803.222 3  25091800.227 3
  25091803.361 6  25091806.894 6  98465651.35606

  21742801.239 8 116268573.44608  90431186.16307
  21742806.661 7

  23546425.236 6 123737377.38606  96418790.42704  23546429.277 4  23546424.588 4
  23546429.929 6  23546428.287 7  92401345.96907

  24025409.700 6 126254609.41406  98380341.88604  24025412.049 4  24025409.356 4
  24025412.964 6

  24454439.964 6 130677104.98006 101637790.54806
  24454450.783 6

  22982515.273 7 120774010.24807  94109643.26005  22982513.953 5  22982514.160 5


 25  4 11  4  9 30.0000000  0 30G18E19E29G23R22G10R08R10E33R23G24R01
                                R07E13E26G28G08S33S31E07S35R09E12G32
                                G01R24G27G31R11G02
  24589206.945 5 129217432.77105 100689049.83403  24589212.634 3  24589206.793 3
  24589212.499 6  24589216.534 7  96493729.54207

  24515821.711 6 128831706.02106
                  24515824.176 7  96205640.55007  24515824.396 6 104571060.87706
  24515821.701 6  98715295.82306  24515822.760 7  97460485.76207
  23171607.554 8 121768120.78608
                  23171608.678 8  90931033.81908  23171610.353 8  98837973.66308
  23171607.231 8  93303109.69408  23171607.803 8  92116966.83008
  22825860.108 7 119951158.09207  93468710.37705  22825861.662 5  22825859.907 5
  22825862.331 7  22825864.806 7  89574201.00507

  21367410.063 7 114060805.18707  88714040.15007
  21367415.256 7

  21078925.897 8 110770865.36508  86315170.75107  21078928.097 7  21078925.584 7
  21078928.102 7  21078924.923 8  82718723.19808

  20101645.775 8 107643834.63708  83723181.81108
  20101650.497 8

  22916957.163 6 122160327.50806


  23457262.061 8 123268966.51708
                  23457263.115 8  92051630.36108  23457264.786 8 100056081.81508
  23457261.529 8  94452956.91208  23457262.205 8  93252296.71008
  19326588.937 8 103384339.44308


  24618977.969 6 129373814.10706 100810877.88505  24618982.504 5  24618977.706 5
  24618982.580 6  24618981.516 7  96610449.25907

  21428528.410 7 114547937.69807


  22582351.605 7 120885582.36007  94022372.50907
  22582357.100 7

  28060433.003 6 147458604.15706
                  28060442.311 6 110115247.39306  28060439.023 6 119690404.29206
  28060440.261 6 112987805.13206  28060440.801 7 111551526.33907
  23898396.219 7 125587269.38407
                  23898398.004 8  93782915.29908  23898399.630 8 101937878.20008
  23898396.061 8  96229396.17808  23898396.973 8  95006161.31208
  22209158.215 7 116710208.02007  90943158.91205  22209159.587 5  22209157.947 5
  22209159.850 7  22209163.024 7  87153923.99907

  23429976.239 7 123125427.24007  95941943.70104  23429980.044 4  23429975.627 4
  23429980.785 6  23429978.163 7  91944362.91407

  37105970.544 7 194993226.65107
                  37105969.012 6 145611795.42906

  36826772.116 7 193526058.09107
                  36826783.195 7 144516214.45307

  25559270.749 7 134315383.84807
                  25559274.579 7 100300766.63507  25559273.106 7 109022004.15107
  25559272.558 7 102917267.81407  25559273.513 8 101609018.29908
  36983052.365 7 194347294.52607
                  36983055.291 6 145129464.96706

  23038112.046 7 123022289.43607  95684073.30307
  23038117.616 7

  27685517.940 6 145488414.85006
                  27685519.928 6 108643972.08206  27685518.959 6 118091249.91006
  27685518.006 6 111478156.74306  27685519.028 6 110061064.48806
  20559884.940 8 108043393.85708  84189853.49107  20559886.995 7  20559884.797 7
  20559887.474 8  20559884.372 8  80682028.86808

  25081800.617 6 131805760.60506 102705806.73303  25081803.077 3  25081800.515 3
  25081803.426 6  25081807.007 6  98426409.96606

  21733646.616 8 116219619.60308  90393111.00207
  21733652.155 7

  23553892.844 6 123776618.96306  96449368.27804  23553896.770 4  23553892.187 4
  23553897.247 6  23553895.598 7  92430649.72407

  24014441.655 6 126196971.70006  98335429.47504  24014443.673 4  24014441.307 4
  24014444.879 6

  24444676.525 6 130624935.75606 101597214.49306
  24444688.639 6

  22975171.854 7 120735418.80707  94079572.05105  22975169.966 5  22975170.750 5


 25  4 11  4  9 45.0000000  0 30G18E19E29G23R22G10R08R10E33R23G24R01
                                R07E13E26G28G08S33S31E07S35R09E12G32
                                G01R24G27G31R11G02
  24599749.381 6 129272824.61806 100732212.26703  24599753.326 3  24599749.238 3
  24599753.196 6  24599757.299 7  96535093.52707

  24510683.905 6 128804706.87206
                  24510686.222 7  96185478.89307  24510686.265 6 104549146.01806
  24510684.071 6  98694608.20906  24510684.964 7  97440061.12607
  23172160.850 8 121771028.49608
                  23172161.940 8  90933205.17808  23172163.671 8  98840333.82408
  23172160.553 8  93305337.69408  23172161.104 8  92119166.50908
  22831450.999 7 119980538.93107  93491604.51705  22831452.720 5  22831450.794 5
  22831452.857 7  22831455.774 7  89596141.22007

  21378472.652 7 114119862.33307  88759973.46007
  21378478.481 7

  21079535.385 8 110774066.84308  86317665.41307  21079537.324 7  21079535.077 7
  21079537.353 8  21079534.183 8  82721113.91408

  20104895.702 8 107661234.63608  83736715.14908
  20104899.427 8

  22909378.719 6 122119937.68806


  23454302.214 8 123253411.36508
                  23454303.064 8  92040014.51008  23454304.655 8 100043455.88808
  23454301.449 8  94441038.03508  23454302.147 8  93240529.34708
  19329671.559 8 103400827.39308


  24628356.159 6 129423096.08306 100849279.46005  24628360.565 5  24628355.891 5
  24628360.642 6  24628359.711 7  96647250.78307

  21423908.653 7 114523248.13407


  22590114.204 7 120927140.83407  94054695.75307
  22590120.962 7

  28068547.394 6 147501247.27406
                  28068556.934 6 110147091.24006  28068553.456 6 119725017.18806
  28068555.032 6 113020479.68906  28068555.553 7 111583785.54107
  23902850.134 7 125610673.84907
                  23902851.701 8  93800392.65708  23902853.331 8 101956875.32908
  23902849.755 8  96247329.46708  23902850.682 8  95023866.63608
  22200483.801 7 116664623.15507  90907638.29005  22200485.006 5  22200483.551 5
  22200485.279 7  22200488.599 7  87119883.42307

  23433421.340 6 123143532.39506  95956051.61604  23433425.434 4  23433420.728 4
  23433426.675 6  23433423.242 7  91957883.00007

  37105967.668 7 194993223.32107
                  37105968.256 6 145611792.93506

  36826773.708 7 193526044.36407
                  36826780.605 7 144516204.16307

  25565728.674 7 134349320.48807
                  25565732.489 7 100326108.93607  25565730.897 7 109049550.12507
  25565730.589 7 102943271.22007  25565731.444 8 101634691.15308
  36983062.654 7 194347331.03007
                  36983062.164 6 145129492.15806

  23037051.037 7 123016619.56007  95679663.42207
  23037056.064 7

  27677654.223 6 145447090.51406
                  27677656.257 6 108613113.07206  27677655.428 6 118057707.50406
  27677654.496 6 111446492.72006  27677655.201 6 110029802.96906
  20561171.956 8 108050157.41308  84195123.81107  20561174.040 7  20561171.809 7
  20561174.500 8  20561171.374 8  80687079.59208

  25071801.755 6 131753216.69606 102664863.45003  25071804.900 3  25071801.653 3
  25071805.100 6  25071808.092 6  98387172.66806

  21724515.121 8 116170787.08708  90355130.18907
  21724520.409 7

  23561367.344 6 123815897.31606  96479974.75004  23561371.240 4  23561366.714 4
  23561371.908 6  23561370.035 7  92459980.92907

  24003473.543 6 126139333.41806  98290516.61404  24003475.248 4  24003473.213 4
  24003475.829 6

  24434906.249 6 130572714.10906 101556597.72006
  24434914.989 6

  22967840.013 7 120696892.20307  94049551.35905  22967838.415 5  22967838.905 5


 25  4 11  4 10  0.0000000  0 30G18E19E29G23R22G10R08R10E33R23G24R01
                                R07E13E26G28G08S33S31E07S35R09E12G32
                                G01R24G27G31R11G02
  24610296.284 6 129328251.75406 100775402.18003  24610300.721 3  24610296.155 3
  24610300.798 6  24610305.124 7  96576483.84607

  24505558.471 6 128777771.89706
                  24505560.687 7  96165365.16307  24505560.521 6 104527283.23706
  24505558.396 6  98673969.76406  24505559.376 7  97419685.04007
  23172727.825 8 121774009.03108
                  23172729.119 8  90935430.91908  23172730.850 8  98842753.10908
  23172727.740 8  93307621.49808  23172728.266 8  92121421.28108
  22837050.200 7 120009962.83107  93514532.20705  22837052.220 5  22837049.995 5
  22837052.076 7  22837055.009 7  89618113.58007

  21389554.853 7 114179013.17407  88805979.63507
  21389560.245 7

  21080153.627 8 110777315.40008  86320196.76307  21080155.530 7  21080153.319 7
  21080155.240 7  21080152.357 8  82723539.79208

  20108154.446 8 107678688.01908  83750290.01907
  20108158.654 7

  22901819.517 6 122079637.98906


  23451358.228 8 123237940.56708
                  23451359.010 8  92028461.65708  23451360.632 8 100030898.43708
  23451357.465 8  94429183.80208  23451358.147 8  93228825.80308
  19332792.378 8 103417522.67108


  24637749.301 6 129472458.00806 100887743.34205  24637753.856 5  24637749.033 5
  24637754.136 6  24637752.706 6  96684112.01406

  21419303.215 7 114498629.29007


  22597875.774 7 120968688.35507  94087010.49407
  22597881.867 7

  28076667.955 6 147543919.14906
                  28076677.382 6 110178956.55806  28076674.264 6 119759653.42206
  28076675.043 6 113053176.26506  28076675.658 7 111616066.48307
  23907320.430 7 125634164.48707
                  23907321.805 8  93817934.36508  23907323.410 8 101975942.40308
  23907319.804 8  96265328.78108  23907320.807 8  95041637.14608
  22191823.613 7 116619113.53007  90872176.29805  22191824.801 5  22191823.359 5
  22191824.741 7  22191828.279 7  87085899.01807

  23436885.563 7 123161740.31207  95970239.61104  23436890.338 4  23436884.951 4
  23436891.726 6  23436888.392 7  91971479.83407

  37105970.427 7 194993224.06907
                  37105968.524 6 145611793.40206

  36826772.103 7 193526034.83207
                  36826778.785 7 144516197.14707

  25572190.623 7 134383278.22207
                  25572194.521 7 100351466.98007  25572192.843 7 109077113.21507
  25572192.489 7 102969290.77107  25572193.386 8 101660379.95108
  36983069.818 7 194347371.75007
                  36983069.904 6 145129522.58506

  23036019.376 7 123011116.88607  95675383.62106
  23036025.147 6

  27669792.751 6 145405780.37806
                  27669794.981 6 108582264.67406  27669794.224 6 118024176.59006
  27669793.478 6 111414839.57006  27669794.107 6 109998552.19406
  20562475.971 8 108057010.09308  84200463.57507  20562478.055 7  20562475.819 7
  20562478.739 8  20562475.428 8  80692196.86408

  25061804.951 6 131700683.47906 102623928.52803  25061808.369 3  25061804.840 3
  25061808.258 6  25061811.370 6  98347943.37006

  21715406.772 8 116122081.28108  90317247.94207
  21715411.969 7

  23568849.409 6 123855217.00906  96510613.44904  23568853.726 4  23568848.752 4
  23568854.054 6  23568852.535 7  92489342.99707

  23992505.792 6 126081699.78506  98245607.38004  23992508.151 4  23992505.475 4
  23992508.703 6

  24425123.934 6 130520445.47106 101515944.41306
  24425134.558 6

  22960522.116 7 120658435.74107  94019585.32205  22960520.349 5  22960520.999 5


 25  4 11  4 10 15.0000000  0 30G18E19E29G23R22G10R08R10E33R23G24R01
                                R07E13E26G28G08S33S31E07S35R09E12G32
                                G01R24G27G31R11G02
  24620849.970 6 129383709.93806 100818616.27303  24620854.032 3  24620849.832 3
  24620854.391 6  24620858.194 7  96617897.32907

  24500444.360 6 128750896.97906
                  24500446.526 7  96145296.28707  24500446.464 6 104505469.22106
  24500444.106 6  98653377.32406  24500445.217 7  97399354.38207
  23173308.327 8 121777058.27408
                  23173309.321 8  90937707.96508  23173311.099 8  98845228.14908
  23173307.941 8  93309957.93908  23173308.495 8  92123728.02508
  22842656.503 7 120039425.77007  93537490.32905  22842658.696 5  22842656.307 5
  22842658.630 7  22842661.526 7  89640115.11407

  21400651.941 7 114238253.14907  88852055.14907
  21400657.337 7

  21080779.734 8 110780607.10608  86322761.73107  21080781.902 7  21080779.426 7
  21080781.776 7  21080778.696 8  82725997.88908

  20111423.063 8 107696190.36508  83763902.95607
  20111427.304 7

  22894275.114 6 122039425.05006


  23448429.377 8 123222550.27508
                  23448430.342 8  92016968.91308  23448432.000 8 100018406.31708
  23448428.790 8  94417391.25308  23448429.467 8  93217183.15708
  19335951.390 8 103434420.61508


  24647157.024 6 129521895.44706 100926266.06705  24647161.292 5  24647156.756 5
  24647161.377 6  24647160.444 6  96721029.61506

  21414710.411 7 114474076.93807


  22605633.437 7 121010220.78307  94119313.46507
  22605640.409 7

  28084792.810 6 147586615.58006
                  28084802.028 6 110210840.21906  28084799.486 6 119794309.58306
  28084799.662 6 113085891.68706  28084800.667 7 111648366.02607
  23911805.945 7 125657737.25207
                  23911807.602 8  93835537.39708  23911809.214 8 101995076.13708
  23911805.604 8  96283391.02608  23911806.546 8  95059469.78608
  22183176.728 7 116573675.49507  90836770.08605  22183178.074 5  22183176.474 5
  22183178.404 7  22183181.678 7  87051968.07807

  23440369.345 6 123180046.75206  95984504.37904  23440373.982 4  23440368.715 4
  23440374.310 6  23440371.855 7  91985150.22707

  37105972.650 7 194993225.60607
                  37105968.596 6 145611794.77206

  36826767.918 7 193526025.88407
                  36826776.974 7 144516190.40607

  25578655.801 7 134417252.86707
                  25578659.767 7 100376837.64807  25578658.046 7 109104690.03407
  25578657.643 7 102995323.28907  25578658.538 8 101686081.54408
  36983077.097 7 194347412.51007
                  36983077.913 6 145129552.92906

  23035019.676 7 123005777.84607  95671231.06507
  23035025.942 7

  27661933.503 6 145364480.59106
                  27661936.088 6 108551424.00006  27661934.945 6 117990654.09006
  27661934.174 6 111383194.34006  27661934.957 6 109967309.24606
  20563796.297 8 108063947.71108  84205869.51607  20563798.199 7  20563796.145 7
  20563798.766 8  20563795.580 8  80697377.56708

  25051809.216 6 131648157.23606 102582999.03703  25051812.938 3  25051809.118 3
  25051812.501 6  25051816.066 6  98308719.27006

  21706321.459 8 116073498.73008  90279461.55507
  21706326.825 7

  23576338.474 6 123894573.65706  96541280.94004  23576343.041 4  23576337.804 4
  23576343.458 6  23576341.941 7  92518732.68307

  23981538.396 6 126024067.24606  98200698.99604  23981541.354 4  23981538.075 4
  23981541.797 6

  24415332.733 6 130468126.41506 101475251.87306
  24415342.745 6

  22953216.521 7 120620045.69907  93989671.03705  22953214.926 5  22953215.386 5


 25  4 11  4 10 30.0000000  0 30G18E19E29G23R22G10R08R10E33R23G24R01
                                R07E13E26G28G08S33S31E07S35R09E12G32
                                G01R24G27G31R11G02
  24631407.183 6 129439193.73706 100861850.35103  24631412.592 3  24631407.067 3
  24631412.558 6  24631416.839 7  96659329.96907

  24495340.695 6 128724077.27706
                  24495342.909 7  96125268.63307  24495342.968 6 104483700.01706
  24495340.535 6  98632827.21606  24495341.575 7  97379065.50207
  23173900.476 8 121780171.00508
                  23173901.639 8  90940032.42108  23173903.418 8  98847754.72508
  23173900.285 8  93312343.03308  23173900.797 8  92126082.80008
  22848269.755 7 120068922.76807  93560474.98505  22848271.838 5  22848269.559 5
  22848271.878 7  22848274.645 7  89662142.06207

  21411765.690 7 114297576.62007  88898195.58307
  21411770.816 7

  21081413.284 8 110783937.00208  86325356.45907  21081415.531 7  21081412.967 7
  21081415.493 7  21081412.361 8  82728484.50808

  20114699.651 8 107713736.52908  83777549.98508
  20114703.792 8

  22886747.309 6 121999294.04206


  23445515.063 8 123207235.57608
                  23445516.064 8  92005532.63108  23445517.799 8 100005975.57408
  23445514.480 8  94405656.62708  23445515.176 8  93205597.70308
  19339147.087 8 103451516.44308


  24656577.568 6 129571403.02406 100964843.42005  24656582.102 5  24656577.314 5
  24656583.262 6  24656581.158 6  96757999.58006

  21410128.805 7 114449585.83607


  22613389.255 7 121051732.75807  94151600.54807
  22613395.652 7

  28092921.325 6 147629331.35706
                  28092930.585 6 110242738.32306  28092927.247 6 119828981.45006
  28092928.073 6 113118621.93206  28092929.214 7 111680680.20307
  23916306.480 7 125681386.99107
                  23916307.962 8  93853197.91708  23916309.596 8 102014272.35208
  23916305.978 8  96301512.25208  23916306.935 8  95077360.65808
  22174542.389 7 116528304.30907  90801415.97005  22174544.023 5  22174542.130 5
  22174544.233 7  22174547.680 7  87018087.05907

  23443871.695 6 123198446.34006  95998841.71704  23443875.222 4  23443871.083 4
  23443876.229 6  23443873.085 7  91998890.17807

  37105969.439 7 194993221.77407
                  37105967.921 6 145611791.88106

  36826761.420 7 193526011.43107
                  36826774.162 7 144516179.47607

  25585123.118 7 134451239.15607
                  25585127.055 7 100402217.02007  25585125.204 7 109132276.30807
  25585125.075 7 103021364.73107  25585125.926 8 101711791.95108
  36983082.401 7 194347449.02907
                  36983084.553 6 145129580.37706

  23034049.398 7 123000597.37607  95667201.85407
  23034055.259 7

  27654075.365 6 145323186.22106
                  27654077.681 6 108520587.36206  27654077.034 6 117957135.99206
  27654075.903 6 111351553.26306  27654076.774 6 109936070.39006
  20565131.414 8 108070965.00408  84211337.54907  20565133.537 7  20565131.262 7
  20565134.125 8  20565130.921 8  80702617.76408

  25041813.672 6 131595633.12206 102542071.20003  25041817.422 3  25041813.538 3
  25041818.231 6  25041821.162 7  98269496.77707

  21697258.188 8 116025034.68308  90241767.34207
  21697263.525 7

  23583834.513 6 123933961.81006  96571972.97504  23583838.523 4  23583833.829 4
  23583838.744 6  23583837.314 7  92548145.86907

  23970571.278 6 125966431.08206  98155787.79304  23970572.996 4  23970570.943 4
  23970573.248 6

  24405531.709 6 130415751.97506 101434516.26706
  24405542.381 6

  22945923.135 7 120581717.28007  93959804.78105  22945921.338 5  22945921.995 5


 25  4 11  4 10 45.0000000  0 30G18E19E29G23R22G10R08R10E33R23G24R01
                                R07E13E26G28G08S33S31E07S35R09E12G32
                                G01R24G27G31R11G02
  24641971.842 6 129494711.07906 100905110.54503  24641977.601 3  24641971.695 3
  24641977.957 6  24641981.499 7  96700787.64307

  24490248.857 6 128697320.67206
                  24490251.295 7  96105288.09107  24490251.351 6 104461982.01706
  24490249.108 6  98612325.45006  24490249.918 7  97358824.34607
  23174506.594 8 121783355.24308
                  23174507.597 8  90942410.28808  23174509.253 8  98850339.35308
  23174506.216 8  93314782.92708  23174506.716 8  92128491.68108
  22853891.247 7 120098461.96207  93583492.51205  22853892.959 5  22853891.060 5
  22853892.969 7  22853895.859 7  89684200.53207

  21422895.787 7 114356991.35307  88944407.04007
  21422901.168 7

  21082055.882 8 110787313.32308  86327987.36507  21082058.009 7  21082055.565 7
  21082058.027 7  21082054.873 8  82731005.78708

  20117985.780 8 107731334.35608  83791237.18708
  20117989.947 8

  22879236.827 6 121959253.98406


  23442616.967 8 123192004.78308
                  23442617.751 8  91994159.00008  23442619.400 8  99993612.92608
  23442616.140 8  94393986.29308  23442616.841 8  93194075.72008
  19342381.324 8 103468817.92108


  24666014.275 6 129620988.56806 101003481.56205  24666018.200 5  24666014.039 5
  24666018.542 6  24666016.958 6  96795027.82806

  21405560.570 7 114425164.21607


  22621141.473 7 121093232.59307  94183878.20307
  22621147.888 7

  28101055.115 5 147672074.48605
                  28101064.425 6 110274656.86206  28101061.303 6 119863675.52206
  28101062.218 6 113151373.10706  28101062.877 7 111713015.06207
  23920823.165 7 125705121.83407
                  23920824.590 8  93870921.98008  23920826.160 8 102033537.64308
  23920822.594 8  96319698.68708  23920823.528 8  95095315.90708
  22165922.977 7 116483008.49507  90766120.57905  22165924.354 5  22165922.723 5
  22165924.546 7  22165928.215 7  86984262.32507

  23447391.565 6 123216946.95706  96013257.79004  23447395.494 4  23447390.957 4
  23447396.051 6  23447393.666 7  92012705.57707

  37105968.674 7 194993220.96307
                  37105967.858 6 145611791.05306

  36826764.457 7 193526000.76107
                  36826772.136 7 144516171.61107

  25591594.162 7 134485245.08507
                  25591598.084 7 100427611.05507  25591596.426 7 109159878.51907
  25591596.334 7 103047421.21707  25591597.053 8 101737517.21008
  36983092.153 7 194347488.22407
                  36983092.097 6 145129609.66406

  23033110.585 7 122995583.99507  95663302.59307
  23033116.021 7

  27646219.993 6 145281905.68806
                  27646222.252 6 108489761.06306  27646221.605 6 117923629.10406
  27646220.505 6 111319922.78606  27646221.323 6 109904841.99506
  20566483.343 8 108078069.95908  84216873.88907  20566485.545 7  20566483.183 7
  20566486.098 8  20566482.914 8  80707923.42708

  25031821.573 6 131543119.57706 102501151.60103  25031824.432 3  25031821.399 3
  25031824.738 6  25031828.075 7  98230282.18907

  21688219.163 8 115976697.97108  90204172.14507
  21688224.549 7

  23591337.260 6 123973389.21406  96602695.61104  23591341.539 4  23591336.590 4
  23591341.970 6  23591340.043 7  92577588.40407

  23959603.802 6 125908799.72306  98110880.31404  23959605.452 4  23959603.454 4
  23959607.382 6

  24395721.924 6 130363331.06606 101393744.52606
  24395731.596 6

  22938642.438 7 120543458.98007  93929993.15505  22938640.960 5  22938641.294 5


 25  4 11  4 11  0.0000000  0 30G18E19E29G23R22G10R08R10E33R23G24R01
                                R07E13E26G28G08S33S31E07S35R09E12G32
                                G01R24G27G31R11G02
  24652541.480 6 129550255.28306 100948391.67503  24652547.068 3  24652541.328 3
  24652546.784 6  24652550.795 7  96742265.39107

  24485168.118 6 128670621.11506
                  24485170.463 7  96085350.15507  24485170.480 6 104440310.33306
  24485168.143 6  98591867.39006  24485169.126 7  97338626.34807
  23175124.788 8 121786604.44608
                  23175125.842 8  90944836.65808  23175127.589 8  98852976.70708
  23175124.543 8  93317272.59208  23175124.993 8  92130949.69808
  22859518.851 7 120128037.00507  93606537.99205  22859520.858 5  22859518.646 5
  22859521.362 7  22859523.984 7  89706285.77407

  21434042.610 7 114416490.35807  88990684.02107
  21434047.408 7

  21082706.059 8 110790729.75808  86330649.52607  21082708.116 7  21082705.742 7
  21082708.035 7  21082704.989 8  82733557.02808

  20121280.801 8 107748977.19108  83804959.40507
  20121284.992 7

  22871740.967 6 121919298.97806


  23439733.298 8 123176851.65908
                  23439734.189 8  91982843.36608  23439735.803 8  99981313.32008
  23439732.595 8  94382375.46908  23439733.292 8  93182612.49108
  19345652.752 8 103486318.48908


  24675463.410 6 129670645.23206 101042175.11305  24675467.790 5  24675463.178 5
  24675467.763 6  24675466.422 6  96832109.16006

  21401003.597 7 114400805.39207


  22628889.978 7 121134713.44607  94216141.05407
  22628896.811 7

  28109193.454 6 147714838.40906
                  28109202.189 6 110306590.91306  28109199.031 6 119898386.45706
  28109199.999 6 113184140.23706  28109200.689 7 111745365.65207
  23925354.517 7 125728935.28307
                  23925356.130 8  93888704.74408  23925357.859 8 102052866.73408
  23925354.233 8  96337945.35408  23925355.071 8  95113330.62208
  22157316.796 7 116437782.01807  90730879.22105  22157317.898 5  22157316.555 5
  22157318.155 7  22157321.779 7  86950489.36507

  23450930.143 7 123235541.83507  96027747.30904  23450933.849 4  23450929.535 4
  23450934.959 6  23450932.290 7  92026591.38907

  37105970.338 7 194993217.87407
                  37105967.058 6 145611789.06006

  36826760.240 7 193525987.20307
                  36826769.467 7 144516161.57607

  25598067.699 7 134519264.07407
                  25598071.698 7 100453014.85007  25598070.130 7 109187491.33907
  25598069.738 7 103073487.71407  25598070.665 8 101763252.35708
  36983097.877 7 194347524.18407
                  36983098.956 6 145129636.49206

  23032201.902 7 122990731.33607  95659528.33907
  23032207.767 7

  27638366.009 6 145240632.64406
                  27638368.254 6 108458940.34406  27638367.528 6 117890128.30406
  27638366.442 6 111288298.06806  27638367.293 6 109873619.27606
  20567850.969 8 108085255.95108  84222473.37107  20567852.968 7  20567850.804 7
  20567853.327 8  20567850.289 8  80713289.60408

  25021829.607 6 131490610.41606 102460235.45503  25021831.504 3  25021829.447 3
  25021832.870 6  25021835.913 7  98191070.88007

  21679202.507 8 115928482.50708  90166671.27407
  21679207.801 7

  23598846.218 6 124012849.12306  96633443.57504  23598850.274 4  23598845.557 4
  23598850.314 6  23598848.878 7  92607055.21107

  23948636.654 6 125851167.19806  98065971.95504  23948638.864 4  23948636.279 4
  23948639.967 6

  24385903.060 6 130310857.42406 101352931.76106
  24385912.132 6

  22931374.533 7 120505264.47207  93900231.23805  22931372.825 5  22931373.402 5


 25  4 11  4 11 15.0000000  0 30G18E19E29G23R22G10R08R10E33R23G24R01
                                R07E13E26G28G08S33S31E07S35R09E12G32
                                G01R24G27G31R11G02
  24663118.035 6 129605829.15206 100991695.92903  24663122.527 3  24663117.892 3
  24663122.708 6  24663126.268 7  96783765.28007

  24480098.644 6 128643981.28306
                  24480101.098 7  96065456.82607  24480101.046 6 104418687.12806
  24480098.677 6  98571455.09606  24480099.710 7  97318473.53607
  23175756.078 8 121789921.59108
                  23175757.057 8  90947313.76008  23175758.799 8  98855669.20008
  23175755.729 8  93319814.31008  23175756.203 8  92133459.10808
  22865154.097 7 120157651.03607  93629613.84105  22865156.448 5  22865153.874 5
  22865156.514 7  22865159.260 7  89728400.11907

  21445204.183 7 114476076.29607  89037028.61106
  21445209.948 6

  21083364.434 8 110794189.53408  86333345.46307  21083366.473 7  21083364.117 7
  21083366.357 7  21083363.341 8  82736140.63408

  20124584.489 8 107766667.85308  83818718.81707
  20124588.518 7

  22864262.374 6 121879432.66806


  23436865.273 8 123161779.48108
                  23436866.005 8  91971588.18908  23436867.686 8  99969079.42308
  23436864.532 8  94370826.67408  23436865.149 8  93171210.50608
  19348962.318 8 103504020.99008


  24684926.231 6 129720375.78006 101080926.24205  24684931.205 5  24684925.981 5
  24684931.350 6  24684929.628 6  96869245.69006

  21396459.158 7 114376512.38307


  22636636.902 7 121176178.55607  94248391.70207
  22636642.941 7

  28117334.582 6 147757626.02806
                  28117344.410 6 110338542.67706  28117341.113 6 119933116.66306
  28117342.004 6 113216925.52306  28117342.842 7 111777734.17507
  23929901.582 7 125752830.38807
                  23929903.174 8  93906548.48808  23929905.130 8 102072262.11008
  23929901.283 8  96356254.58208  23929902.165 8  95131407.10808
  22148724.417 7 116392628.32307  90695694.57605  22148725.308 5  22148724.172 5
  22148725.873 7  22148729.371 7  86916770.75407

  23454487.173 7 123254233.88507  96042312.54504  23454490.828 4  23454486.561 4
  23454491.832 6  23454489.256 7  92040549.73807

  37105966.738 7 194993214.74607
                  37105966.503 6 145611786.67206

  36826759.417 7 193525973.20507
                  36826767.003 7 144516151.03407

  25604544.354 7 134553299.05607
                  25604548.395 7 100478430.57507  25604546.666 7 109215117.13107
  25604546.334 7 103099566.47007  25604547.292 8 101788999.59808
  36983102.322 7 194347561.14807
                  36983105.794 6 145129664.30306

  23031323.656 7 122986042.56707  95655881.54907
  23031329.771 7

  27630514.111 6 145199370.41906
                  27630516.447 6 108428127.72906  27630515.491 6 117856636.29606
  27630514.310 6 111256681.59606  27630515.289 6 109842404.73606
  20569234.414 8 108092525.90308  84228138.28207  20569236.358 7  20569234.249 7
  20569236.810 8  20569233.734 8  80718718.47508

  25011838.650 6 131438109.00706 102419325.31003  25011840.585 3  25011838.503 3
  25011841.801 5  25011845.023 6  98151865.35506

  21670209.166 8 115880392.17208  90129267.72107
  21670215.035 7

  23606361.865 6 124052344.18406  96664218.95504  23606365.627 4  23606361.195 4
  23606366.595 6  23606364.740 7  92636548.27607

  23937669.978 6 125793536.87406  98021065.30604  23937672.183 4  23937669.594 4
  23937673.070 6

  24376074.225 6 130258334.73406 101312080.81706
  24376083.487 6

  22924119.088 7 120467137.17707  93870521.69605  22924117.385 5  22924117.966 5


 25  4 11  4 11 30.0000000  0 30G18E19E29G23R22G10R08R10E33R23G24R01
                                R07E13E26G28G08S33S31E07S35R09E12G32
                                G01R24G27G31R11G02
  24673698.764 6 129661433.11706 101035023.64303  24673703.656 3  24673698.630 3
  24673704.146 6  24673707.731 7  96825287.65207

  24475040.851 6 128617402.18406
                  24475043.283 7  96045608.83807  24475042.980 6 104397113.21006
  24475040.828 6  98551089.33506  24475041.835 7  97298366.66107
  23176400.229 8 121793307.26208
                  23176401.314 8  90949842.03408  23176403.085 8  98858417.32408
  23176399.940 8  93322408.53908  23176400.457 8  92136020.36008
  22870797.202 7 120187304.79507  93652720.64005  22870799.265 5  22870796.966 5
  22870799.417 6  22870802.137 7  89750544.14307

  21456382.487 7 114535749.37807  89083440.99707
  21456388.678 7

  21084031.081 8 110797693.41208  86336075.76407  21084033.223 7  21084030.760 7
  21084033.480 7  21084030.122 8  82738757.17908

  20127896.609 8 107784406.84208  83832515.82307
  20127900.918 7

  22856800.506 6 121839656.00606


  23434012.601 8 123146789.11308
                  23434013.400 8  91960394.09408  23434015.074 8  99956911.92208
  23434011.902 8  94359340.55808  23434012.571 8  93159870.40008
  19352309.533 8 103521926.19008


  24694404.094 6 129770180.50706 101119735.17905  24694408.393 5  24694403.853 5
  24694408.496 6  24694407.008 6  96906437.57606

  21391926.511 7 114352285.72907


  22644379.176 7 121217628.38507  94280630.44607
  22644386.035 7

  28125481.984 6 147800437.95906
                  28125491.630 6 110370512.57206  28125488.033 6 119967866.57106
  28125489.353 6 113249729.42106  28125489.929 7 111810121.06907
  23934464.530 7 125776807.81607
                  23934465.952 8  93924453.71208  23934467.698 8 102091724.31308
  23934464.048 8  96374626.90208  23934464.920 8  95149545.88008
  22140146.231 7 116347548.47407  90660567.46405  22140146.925 5  22140145.995 5
  22140147.702 7  22140150.742 7  86883107.28907

  23458062.967 6 123273023.51906  96056953.82104  23458066.668 4  23458062.373 4
  23458067.950 6  23458064.801 7  92054580.95007

  37105967.566 7 194993211.42007
                  37105966.051 6 145611783.99506

  36826755.272 7 193525960.06707
                  36826764.329 7 144516141.35607

  25611024.247 7 134587350.56607
                  25611028.251 7 100503858.63807  25611026.473 7 109242756.33007
  25611026.075 7 103125657.87007  25611027.093 8 101814759.32908
  36983112.334 7 194347597.66507
                  36983112.854 6 145129691.35006

  23030476.578 7 122981518.65707  95652362.97907
  23030482.103 7

  27622664.392 6 145158119.93606
                  27622666.675 6 108397323.87306  27622665.343 6 117823153.81606
  27622664.612 6 111225074.17906  27622665.548 6 109811199.10106
  20570634.037 8 108099880.32208  84233869.00907  20570635.851 7  20570633.877 7
  20570636.321 8  20570633.244 8  80724210.42308

  25001849.295 6 131385616.33506 102378421.99403  25001851.848 3  25001849.148 3
  25001852.218 5  25001855.564 6  98112666.35306

  21661239.415 8 115832427.87808  90091962.19607
  21661245.191 7

  23613884.227 6 124091874.73906  96695021.97904  23613887.960 4  23613883.543 4
  23613888.646 6  23613887.223 7  92666067.84607

  23926703.966 6 125735909.80606  97976161.17204  23926705.743 4  23926703.564 4
  23926706.749 6

  24366234.851 6 130205763.85606 101271192.39306
  24366245.480 6

  22916876.848 7 120429078.05207  93840865.27005  22916874.791 5  22916875.731 5


 25  4 11  4 11 45.0000000  0 30G18E19E29G23R22G10R08R10E33R23G24R01
                                R07E13E26G28G08S33S31E07S35R09E12G32
                                G01R24G27G31R11G02
  24684285.608 6 129717068.04406 101078375.47403  24684290.357 3  24684285.465 3
  24684291.291 6  24684294.558 7  96866833.15307

  24469994.444 6 128590884.95506
                  24469997.121 7  96025807.06207  24469997.012 6 104375589.51906
  24469994.797 6  98530770.97106  24469995.748 7  97278306.59307
  23177057.893 8 121796762.46708
                  23177058.796 8  90952422.23608  23177060.518 8  98861221.88308
  23177057.446 8  93325056.04908  23177057.937 8  92138634.21608
  22876448.453 7 120216999.47807  93675859.33905  22876449.714 5  22876448.217 5
  22876450.101 7  22876452.868 7  89772718.71807

  21467578.411 7 114595510.28707  89129921.66807
  21467584.187 7

  21084706.534 8 110801242.70608  86338841.45707  21084708.617 7  21084706.213 7
  21084708.640 7  21084705.501 8  82741407.63408

  20131218.411 8 107802195.23008  83846351.23707
  20131222.749 7

  22849354.386 6 121799971.10006


  23431175.979 8 123131881.90208
                  23431176.658 8  91949262.09708  23431178.330 8  99944811.92308
  23431175.173 8  94347918.16308  23431175.814 8  93148593.20408
  19355694.193 8 103540034.92008


  24703895.759 6 129820060.25006 101158602.56605  24703899.833 5  24703895.514 5
  24703900.620 6  24703898.970 6  96943685.49806

  21387407.117 7 114328126.52107


  22652120.608 7 121259064.10807  94312858.21607
  22652127.448 7

  28133634.004 6 147843275.18406
                  28133642.933 6 110402501.36106  28133639.466 6 120002636.99506
  28133640.625 6 113282552.69506  28133641.621 7 111842527.09907
  23939043.064 7 125800868.67407
                  23939044.613 8  93942421.23008  23939046.203 8 102111254.22208
  23939042.767 8  96393063.13508  23939043.548 8  95167747.75508
  22131581.962 7 116302544.02907  90625499.12805  22131582.847 5  22131581.739 5
  22131583.416 7  22131586.718 7  86849500.13907

  23461656.985 6 123291911.54606  96071671.77404  23461661.141 4  23461656.400 4
  23461662.365 6  23461659.079 7  92068685.65807

  37105968.192 7 194993210.40507
                  37105965.819 6 145611783.40606

  36826753.014 7 193525948.87607
                  36826762.240 7 144516133.11507

  25617507.407 7 134621419.57307
                  25617511.270 7 100529299.78607  25617509.535 7 109270409.74707
  25617509.364 7 103151762.70107  25617510.226 8 101840532.31708
  36983118.724 7 194347636.00607
                  36983120.103 6 145129719.87906

  23029660.199 7 122977160.99807  95648973.72206
  23029665.862 6

  27614816.748 6 145116882.50806
                  27614819.313 6 108366529.76306  27614818.324 6 117789681.92906
  27614817.502 6 111193476.73106  27614818.195 6 109780003.32206
  20572049.670 8 108107320.19508  84239666.32307  20572051.611 7  20572049.514 7
  20572052.157 8  20572049.002 8  80729766.18708

  24991862.691 6 131333133.79906 102337526.56203  24991865.065 3  24991862.526 3
  24991865.250 5  24991868.508 6  98073474.92406

  21652294.120 8 115784591.37608  90054756.05207
  21652299.450 7

  23621413.724 6 124131441.56506  96725853.25804  23621417.404 4  23621413.058 4
  23621418.105 6  23621416.613 7  92695614.47807

  23915738.342 6 125678287.50506  97931260.76804  23915740.337 4  23915737.967 4
  23915740.443 6

  24356387.501 6 130153146.85306 101230268.16606
  24356398.514 6

  22909647.761 7 120391088.56507  93811263.10505  22909645.779 5  22909646.648 5


 25  4 11  4 12  0.0000000  0 30G18E19E29G23R22G10R08R10E33R23G24R01
                                R07E13E26G28G08S33S31E07S35R09E12G32
                                G01R24G27G31R11G02
  24694878.408 6 129772732.80006 101121750.54103  24694883.452 3  24694878.256 3
  24694883.569 6  24694887.148 7  96908400.90507

  24464960.239 6 128564428.63006
                  24464962.487 7  96006050.76007  24464962.435 6 104354115.27806
  24464960.259 6  98510499.29706  24464961.233 7  97258292.60407
  23177728.358 8 121800286.18508
                  23177729.325 8  90955053.60408  23177731.132 8  98864082.05808
  23177727.938 8  93327756.05708  23177728.462 8  92141299.90408
  22882106.466 7 120246734.22907  93699029.25405  22882107.909 5  22882106.243 5
  22882108.737 7  22882111.368 7  89794923.22007

  21478790.060 7 114655357.60707  89176469.56207
  21478795.424 7

  21085390.466 8 110804836.59908  86341641.90007  21085392.494 7  21085390.136 7
  21085392.439 7  21085389.467 8  82744091.39308

  20134549.628 8 107820031.66308  83860224.01307
  20134553.824 7

  22841926.589 6 121760377.23606


  23428354.856 8 123117057.08208
                  23428355.595 8  91938191.62308  23428357.274 8  99932778.79908
  23428354.061 8  94336558.89608  23428354.739 8  93137378.33308
  19359117.810 8 103558346.18708


  24713401.821 6 129870013.74106 101197527.41005  24713405.778 5  24713401.585 5
  24713406.618 6  24713404.769 6  96980988.49406

  21382899.814 7 114304033.88507


  22659857.681 7 121300484.50507  94345074.06207
  22659864.848 7

  28141790.129 5 147886136.61305
                  28141799.358 6 110434508.22306  28141795.429 6 120037427.08106
  28141797.025 6 113315394.55106  28141797.856 7 111874951.45607
  23943637.443 7 125825011.97307
                  23943638.902 8  93960450.31008  23943640.651 8 102130851.05108
  23943637.030 8  96411562.54308  23943637.868 8  95186012.00008
  22123032.020 7 116257614.42307  90590489.09805  22123032.939 5  22123031.792 5
  22123033.784 7  22123036.788 7  86815948.88007

  23465269.374 7 123310896.83107  96086465.50004  23465273.931 4  23465268.793 4
  23465275.126 6  23465271.807 7  92082862.98907

  37105968.339 7 194993210.25607
                  37105965.676 6 145611783.32206

  36826755.276 7 193525938.12607
                  36826760.210 7 144516124.96407

  25623993.587 7 134655505.04607
                  25623997.526 7 100554753.22207  25623995.773 7 109298076.52707
  25623995.525 7 103177880.14307  25623996.480 8 101866317.75708
  36983126.701 7 194347676.25907
                  36983127.727 6 145129750.15706

  23028875.650 7 122972968.92407  95645713.26407
  23028881.038 7

  27606971.910 6 145075657.44506
                  27606974.272 6 108335744.89006  27606973.395 6 117756220.07906
  27606972.476 6 111161888.75306  27606973.279 6 109748816.89706
  20573481.308 8 108114844.41508  84245529.36607  20573483.393 7  20573481.156 7
  20573483.835 8  20573480.794 8  80735384.94008

  24981876.816 6 131280660.75506 102296638.56003  24981879.793 3  24981876.642 3
  24981880.265 6  24981883.349 6  98034290.58006

  21643372.154 8 115736882.34508  90017649.07307
  21643377.785 7

  23628949.520 6 124171043.32106  96756711.74904  23628953.246 4  23628948.841 4
  23628954.207 6  23628952.392 7  92725187.19007

  23904774.015 6 125620669.43406  97886363.65404  23904776.070 4  23904773.662 4
  23904776.929 6

  24346533.304 6 130100483.02606 101189307.55406
  24346543.137 6

  22902431.514 7 120353168.25607  93781714.84905  22902429.836 5  22902430.388 5


 25  4 11  4 12 15.0000000  0 30G18E19E29G23R22G10R08R10E33R23G24R01
                                R07E13E26G28G08S33S31E07S35R09E12G32
                                G01R24G27G31R11G02
  24705475.688 6 129828423.19506 101165145.59903  24705481.416 3  24705475.528 3
  24705481.296 6  24705485.537 7  96949987.81207

  24459936.560 6 128538029.45406
                  24459938.979 7  95986337.13907  24459938.890 6 104332687.40506
  24459936.820 6  98490271.38906  24459937.620 7  97238321.84207
  23178411.040 8 121803874.40408
                  23178412.124 8  90957733.13608  23178413.887 8  98866994.58208
  23178410.746 8  93330505.48308  23178411.256 8  92144014.38308
  22887771.954 7 120276505.20507  93722227.39905  22887773.115 5  22887771.740 5
  22887774.323 7  22887776.760 7  89817154.76607

  21490016.213 7 114715286.85207  89223081.17407
  21490021.967 7

  21086082.125 8 110808471.28308  86344474.12707  21086084.124 7  21086081.790 7
  21086084.068 8  21086081.070 8  82746805.61008

  20137888.246 8 107837911.95108  83874130.91107
  20137892.779 7

  22834515.776 6 121720871.31706


  23425548.654 8 123102310.93308
                  23425549.491 8  91927179.90108  23425551.205 8  99920809.52708
  23425547.938 8  94325259.90808  23425548.644 8  93126222.97808
  19362577.914 8 103576855.65308


  24722920.276 6 129920036.76006 101236506.44305  24722924.767 5  24722920.040 5
  24722925.090 6  24722923.726 6  97018343.41806

  21378405.021 7 114280003.66507


  22667592.084 7 121341885.70207  94377274.98907
  22667599.019 7

  28149950.267 6 147929018.24006
                  28149959.358 6 110466530.21806  28149956.273 6 120072233.57506
  28149956.800 6 113348251.87606  28149957.860 6 111907391.11806
  23948246.748 7 125849233.77407
                  23948248.154 8  93978538.01908  23948249.918 8 102150511.60308
  23948246.317 8  96430122.10108  23948247.136 8  95204335.63208
  22114495.797 7 116212756.09207  90555534.61305  22114496.750 5  22114495.574 5
  22114496.793 7  22114500.508 7  86782450.84307

  23468900.166 6 123329975.20006  96101331.77204  23468904.338 4  23468899.603 4
  23468905.294 6  23468902.193 7  92097109.80807

  37105965.942 7 194993207.14007
                  37105965.220 6 145611780.89606

  36826746.038 7 193525925.25007
                  36826757.657 7 144516115.55007

  25630482.143 7 134689602.93207
                  25630486.162 7 100580215.92207  25630484.668 7 109325753.37307
  25630484.239 7 103204007.08007  25630485.091 8 101892112.57608
  36983132.930 7 194347712.54507
                  36983134.649 6 145129777.14906

  23028120.908 7 122968938.27007  95642578.34607
  23028126.556 7

  27599128.801 6 145034440.95906
                  27599130.737 6 108304966.39006  27599130.455 6 117722765.17506
  27599129.105 6 111130307.34006  27599129.981 6 109717636.93606
  20574928.597 8 108122448.90308  84251454.95207  20574930.469 7  20574928.450 7
  20574931.019 8  20574927.811 8  80741063.63208

  24971892.253 6 131228193.57606 102255755.10703  24971895.554 3  24971892.088 3
  24971895.615 6  24971899.134 6  97995110.62106

  21634473.229 8 115689297.26008  89980638.49707
  21634478.588 7

  23636491.214 6 124210675.76206  96787594.15204  23636495.160 4  23636490.548 4
  23636495.576 6  23636494.217 7  92754782.82307

  23893809.280 6 125563052.08406  97841467.10304  23893811.875 4  23893808.927 4
  23893812.724 6

  24336668.914 6 130047768.66606 101148307.57706
  24336678.034 6

  22895228.149 7 120315313.42207  93752217.61505  22895226.169 5  22895227.036 5


 25  4 11  4 12 30.0000000  0 30G18E19E29G23R22G10R08R10E33R23G24R01
                                R07E13E26G28G08S33S31E07S35R09E12G32
                                G01R24G27G31R11G02
  24716080.326 6 129884145.96506 101208565.87103  24716084.858 3  24716080.170 3
  24716085.059 6  24716089.097 7  96991598.88107

  24454925.218 6 128511694.41006
                  24454927.442 7  95966671.40907  24454927.370 6 104311311.59006
  24454925.179 6  98470092.63306  24454926.183 7  97218399.59807
  23179107.566 8 121807533.96808
                  23179108.535 8  90960465.93308  23179110.347 8  98869965.01908
  23179107.134 8  93333309.57308  23179107.626 8  92146782.82708
  22893445.095 7 120306319.41107  93745459.22305  22893446.593 5  22893444.881 5
  22893446.848 7  22893450.131 7  89839418.60407

  21501259.567 7 114775304.68907  89269761.68807
  21501265.155 7

  21086783.167 8 110812153.87408  86347343.68307  21086784.908 7  21086782.846 7
  21086785.051 7  21086781.820 8  82749555.60508

  20141236.514 8 107855843.15108  83888077.41507
  20141240.920 7

  22827123.601 6 121681460.89306


  23422759.041 8 123087650.61808
                  23422759.680 8  91916232.27008  23422761.344 8  99908909.92708
  23422758.178 8  94314026.69108  23422758.879 8  93115132.55308
  19366076.494 8 103595570.43408


  24732454.249 6 129970135.82506 101275544.72405  24732458.020 5  24732454.008 5
  24732458.796 5  24732457.082 6  97055755.12106

  21373922.528 7 114256042.85507


  22675323.817 7 121383274.61007  94409466.36707
  22675330.268 7

  28158115.227 6 147971926.85906
                  28158124.569 6 110498572.32206  28158121.613 6 120107061.99006
  28158122.220 6 113381129.87706  28158123.021 6 111939851.18006
  23952872.160 7 125873541.01907
                  23952873.682 8  93996689.52908  23952875.364 8 102170241.50908
  23952871.894 8  96448747.13008  23952872.654 8  95222723.90208
  22105974.269 7 116167976.43207  90520641.42305  22105975.479 5  22105974.046 5
  22105975.281 7  22105979.140 7  86749011.54707

  23472549.777 6 123349153.34006  96116275.77004  23472554.077 4  23472549.223 4
  23472554.044 6  23472551.784 7  92111431.14607

  37105966.609 7 194993208.53807
                  37105965.278 6 145611782.16206

  36826747.769 7 193525915.32307
                  36826755.891 7 144516108.02307

  25636974.445 7 134723720.01407
                  25636978.511 7 100605692.96407  25636976.972 7 109353445.82107
  25636976.481 7 103230148.75107  25636977.381 8 101917921.93308
  36983141.770 7 194347753.42907
                  36983142.210 6 145129807.78006

  23027397.399 7 122965076.64507  95639574.88107
  23027403.122 7

  27591288.566 6 144993240.37006
                  27591290.528 6 108274199.77906  27591289.922 6 117689323.19206
  27591288.703 6 111098738.12106  27591289.680 6 109686469.02106
  20576392.132 8 108130140.47008  84257448.38907  20576394.107 7  20576391.989 7
  20576394.918 8  20576391.474 8  80746807.34208

  24961910.974 6 131175739.48206 102214881.84303  24961913.569 3  24961910.809 3
  24961914.196 6  24961917.460 7  97955940.43807

  21625599.689 8 115641843.78808  89943730.27407
  21625604.947 7

  23644040.128 6 124250345.47806  96818505.58204  23644044.131 4  23644039.471 4
  23644045.435 6  23644043.163 7  92784406.28007

  23882847.078 6 125505442.72006  97796576.77704  23882849.290 4  23882846.752 4
  23882850.127 6

  24326795.012 6 129995011.46806 101107274.22606
  24326805.688 6

  22888038.189 7 120277531.27107  93722777.00405  22888036.251 5  22888037.089 5


 25  4 11  4 12 45.0000000  0 30G18E19E29G23R22G10R08R10E33R23G24R01
                                R07E13E26G28G08S33S31E07S35R09E12G32
                                G01R24G27G31R11G02
  24726688.342 6 129939891.22206 101252003.66603  24726693.412 3  24726688.182 3
  24726692.796 6  24726696.795 7  97033226.77007

  24449924.018 6 128485413.88406
                  24449926.339 6  95947046.37806  24449926.242 6 104289980.01806
  24449924.141 6  98449955.65306  24449925.134 7  97198518.59207
  23179815.573 8 121811255.18008
                  23179816.612 8  90963244.77808  23179818.420 8  98872985.49408
  23179815.267 8  93336160.90908  23179815.726 8  92149597.91708
  22899124.808 7 120336167.35707  93768717.35205  22899126.667 5  22899124.589 5
  22899126.574 7  22899129.898 7  89861707.63507

  21512519.023 7 114835400.87607  89316503.15307
  21512523.707 7

  21087491.106 8 110815874.88908  86350243.18207  21087492.985 7  21087490.785 7
  21087493.085 7  21087489.931 8  82752334.29308

  20144592.987 8 107873815.04408  83902055.55207
  20144597.020 7

  22819744.564 6 121642136.54206


  23419983.654 8 123073066.72708
                  23419984.465 8  91905341.71408  23419986.053 8  99897072.36208
  23419982.917 8  94302852.03208  23419983.661 8  93104099.94608
  19369611.454 8 103614480.67808


  24741999.861 6 130020301.06506 101314634.58105  24742004.103 5  24741999.620 5
  24742004.698 6  24742002.938 6  97093216.26006

  21369451.293 7 114232141.64007


  22683052.193 7 121424641.37407  94441640.48507
  22683058.407 7

  28166283.984 6 148014852.81906
                  28166293.670 6 110530627.36806  28166290.408 6 120141904.45306
  28166291.231 6 113414021.15106  28166291.687 6 111972324.33706
  23957512.125 7 125897924.08607
                  23957513.610 8  94014897.65508  23957515.544 8 102190032.95608
  23957511.753 8  96467430.25508  23957512.601 8  95241169.52808
  22097466.479 7 116123266.20607  90485802.33505  22097467.327 5  22097466.260 5
  22097467.605 7  22097470.911 7  86715624.09007

  23476215.847 6 123368421.36306  96131289.81804  23476220.521 4  23476215.284 4
  23476221.112 6  23476218.496 7  92125819.62507

  37105965.594 7 194993203.91407
                  37105964.299 6 145611778.73606

  36826746.812 7 193525900.60707
                  36826752.993 7 144516096.97907

  25643468.424 7 134757846.59407
                  25643472.503 7 100631177.09707  25643470.894 7 109381145.95407
  25643470.629 7 103256297.67907  25643471.461 8 101943738.46208
  36983149.135 7 194347788.27107
                  36983148.998 6 145129833.85706

  23026704.593 7 122961374.47307  95636695.44707
  23026710.117 7

  27583449.674 6 144952046.18306
                  27583451.662 6 108243437.98306  27583450.497 6 117655886.41706
  27583449.741 6 111067173.82906  27583450.729 6 109655305.97706
  20577870.591 8 108137909.33508  84263502.06007  20577872.479 7  20577870.448 7
  20577873.059 8  20577869.779 8  80752608.78308

  24951929.657 6 131123289.21306 102174011.56103  24951932.482 3  24951929.483 3
  24951932.751 6  24951936.413 6  97916773.07606

  21616748.092 8 115594512.38608  89906916.99707
  21616753.158 7

  23651594.126 6 124290042.52006  96849438.31004  23651598.361 4  23651593.496 4
  23651598.656 6  23651597.579 7  92814050.14107

  23871884.805 6 125447832.15706  97751685.51604  23871885.882 4  23871884.488 4
  23871886.867 6

  24316911.782 6 129942202.30606 101066200.56706
  24316923.104 6

  22880860.712 7 120239812.49807  93693385.79105  22880858.644 5  22880859.608 5


 25  4 11  4 13  0.0000000  0 30G18E19E29G23R22G10R08R10E33R23G24R01
                                R07E13E26G28G08S33S31E07S35R09E12G32
                                G01R24G27G31R11G02
  24737301.540 6 129995665.52306 101295464.10803  24737307.058 3  24737301.393 3
  24737306.925 6  24737310.070 7  97074876.34507

  24444934.578 6 128459194.64106
                  24444936.913 7  95927467.12407  24444936.973 6 104268698.19906
  24444934.725 6  98429865.61806  24444935.733 7  97178683.94707
  23180536.735 8 121815044.72408
                  23180537.744 8  90966074.65308  23180539.519 8  98876061.44308
  23180536.395 8  93339064.60508  23180536.837 8  92152464.70208
  22904812.834 7 120366055.86407  93792007.07605  22904814.343 5  22904812.606 5
  22904814.350 6  22904817.465 7  89884026.95407

  21523791.981 7 114895581.81207  89363310.51907
  21523797.264 7

  21088207.779 8 110819641.26208  86353178.02407  21088209.710 7  21088207.458 7
  21088209.637 8  21088206.636 8  82755146.85008

  20147957.668 8 107891834.54408  83916070.73207
  20147962.559 7

  22812386.507 6 121602906.14506


  23417224.298 8 123058566.24908
                  23417225.171 8  91894513.44508  23417226.632 8  99885302.50208
  23417223.624 8  94291741.28408  23417224.303 8  93093130.43708
  19373184.989 8 103633592.98708


  24751560.677 6 130070538.94406 101353781.04005  24751564.060 5  24751560.436 5
  24751564.466 5  24751563.029 6  97130731.63806

  21364991.997 7 114208306.81607


  22690776.119 7 121465992.93807  94473802.81207
  22690783.213 7

  28174457.246 6 148057802.75006
                  28174466.629 6 110562700.30106  28174463.284 6 120176766.36706
  28174463.962 6 113446930.77606  28174464.807 7 112004815.61207
  23962167.841 7 125922389.72607
                  23962169.244 8  94033167.45008  23962171.059 8 102209891.42808
  23962167.517 8  96486176.65008  23962168.267 8  95259677.62308
  22088972.883 7 116078632.57607  90451022.93205  22088973.807 5  22088972.647 5
  22088974.232 7  22088977.439 7  86682293.84407

  23479900.732 6 123387785.86406  96146379.04004  23479905.313 4  23479900.156 4
  23479905.636 6  23479903.361 7  92140280.11807

  37105963.188 7 194993200.06807
                  37105963.704 6 145611775.62806

  36826741.486 7 193525887.51707
                  36826750.547 7 144516087.41307

  25649965.824 7 134791989.31007
                  25649969.678 7 100656673.27107  25649968.024 7 109408859.19207
  25649967.619 7 103282458.98307  25649968.594 8 101969567.20208
  36983153.240 7 194347824.67707
                  36983155.920 6 145129861.13106

  23026041.597 7 122957838.62407  95633945.36607
  23026047.828 7

  27575612.684 6 144910865.48506
                  27575615.365 6 108212686.22106  27575614.554 6 117622460.56106
  27575613.551 6 111035619.86206  27575614.295 6 109624153.11206
  20579364.896 8 108145762.15608  84269621.15407  20579366.797 7  20579364.749 7
  20579367.645 8  20579364.182 8  80758472.91308

  24941950.691 6 131070849.82206 102133149.74503  24941953.784 3  24941950.539 3
  24941954.083 6  24941957.347 6  97877613.87406

  21607921.591 8 115547310.85308  89870204.71407
  21607926.433 7

  23659155.499 6 124329773.34206  96880397.35404  23659158.828 4  23659154.878 4
  23659159.372 6  23659157.935 7  92843719.21007

  23860922.146 6 125390227.69206  97706799.01404  23860924.263 4  23860921.811 4
  23860924.712 6

  24307022.217 6 129889348.64306 101025092.25006
  24307031.827 6

  22873696.348 7 120202164.17407  93664049.46605  22873694.345 5  22873695.244 5


 25  4 11  4 13 15.0000000  0 30G18E19E29G23R22G10R08R10E33R23G24R01
                                R07E13E26G28G08S33S31E07S35R09E12G32
                                G01R24G27G31R11G02
  24747920.285 6 130051469.28306 101338947.49803  24747926.178 3  24747920.120 3
  24747925.764 6  24747929.825 7  97116547.91007

  24439956.974 6 128433037.56206
                  24439959.408 7  95907934.27607  24439959.497 6 104247466.82806
  24439957.277 6  98409823.21106  24439958.147 7  97158896.31907
  23181270.943 8 121818903.15808
                  23181271.906 8  90968955.96308  23181273.650 8  98879193.29608
  23181270.627 8  93342021.07608  23181271.051 8  92155383.59308
  22910508.488 7 120395985.65407  93815328.97505  22910509.880 5  22910508.269 5
  22910510.318 7  22910513.021 7  89906377.10107

  21535082.438 7 114955847.73407  89410183.97707
  21535087.829 7

  21088933.313 8 110823453.78108  86356148.82607  21088935.217 7  21088932.996 7
  21088935.196 8  21088932.184 8  82757993.87108

  20151331.853 8 107909901.94908  83930123.14607
  20151335.868 7

  22805045.152 6 121563770.77306


  23414480.847 8 123044150.01808
                  23414481.789 8  91883748.09108  23414483.346 8  99873601.02108
  23414480.242 8  94280695.09508  23414480.994 8  93082224.66608
  19376795.014 8 103652907.81808


  24761133.951 6 130120849.78306 101392984.35405  24761137.639 5  24761133.715 5
  24761137.341 5  24761136.783 6  97168301.47406

  21360546.660 7 114184538.98107


  22698498.271 7 121507329.64907  94505953.57407
  22698504.892 7

  28182635.250 6 148100777.11006
                  28182644.410 6 110594791.51006  28182640.982 6 120211648.14306
  28182641.881 6 113479859.14306  28182642.756 6 112037325.39806
  23966839.304 7 125946938.53407
                  23966840.726 8  94051499.34108  23966842.444 8 102229817.40308
  23966838.937 8  96504986.76708  23966839.771 8  95278248.62708
  22080494.061 7 116034076.60407  90416304.03005  22080495.074 5  22080493.829 5
  22080495.314 7  22080498.679 7  86649021.57807

  23483604.823 6 123407247.18506  96161543.71204  23483608.603 4  23483604.238 4
  23483609.265 6  23483606.620 7  92154812.92507

  37105965.866 7 194993198.95607
                  37105963.476 6 145611775.09606

  36826741.732 7 193525875.44607
                  36826748.226 7 144516078.17307

  25656465.850 7 134826148.66007
                  25656470.064 7 100682181.87307  25656468.218 7 109436585.94307
  25656467.988 7 103308633.01807  25656468.920 8 101995408.52208
  36983159.711 7 194347862.49207
                  36983163.079 6 145129889.27406

  23025411.709 7 122954469.97007  95631325.34307
  23025417.284 7

  27567779.391 6 144869699.06906
                  27567781.495 6 108181945.13906  27567780.677 6 117589046.33806
  27567779.644 6 111004076.83006  27567780.442 6 109593011.05906
  20580875.247 8 108153699.38508  84275806.01907  20580877.190 7  20580875.104 7
  20580877.880 8  20580874.523 8  80764400.07608

  24931974.414 6 131018422.27606 102092297.17403  24931977.397 3  24931974.280 3
  24931976.882 5  24931980.889 6  97838463.49306

  21599118.818 8 115500240.16308  89833594.22907
  21599123.680 7

  23666721.855 6 124369538.28006  96911382.99404  23666726.133 4  23666721.247 4
  23666725.707 6  23666725.062 7  92873413.77607

  23849962.240 6 125332630.26806  97661917.98604  23849963.440 4  23849961.914 4
  23849965.129 6

  24297123.004 6 129836451.22006 100983949.85806
  24297132.712 6

  22866545.690 7 120164587.29707  93634768.81005  22866543.514 5  22866544.586 5


 25  4 11  4 13 30.0000000  0 30G18E19E29G23R22G10R08R10E33R23G24R01
                                R07E13E26G28G08S33S31E07S35R09E12G32
                                G01R24G27G31R11G02
  24758545.229 6 130107298.76206 101382450.92503  24758549.940 3  24758545.069 3
  24758549.923 6  24758553.762 7  97158238.69207

  24434990.573 6 128406938.90906
                  24434993.088 7  95888445.06707  24434993.039 6 104226282.88806
  24434990.756 6  98389825.59106  24434991.721 7  97139152.90507
  23182017.482 8 121822826.87008
                  23182018.572 8  90971886.02608  23182020.441 8  98882378.13508
  23182017.158 8  93345027.57108  23182017.687 8  92158351.87108
  22916210.663 7 120425953.29007  93838680.36105  22916212.446 5  22916210.444 5
  22916212.675 7  22916215.764 7  89928755.51307

  21546387.265 7 115016194.57307  89457120.39007
  21546392.305 7

  21089666.851 8 110827309.08408  86359152.96407  21089668.858 7  21089666.530 7
  21089668.843 8  21089665.815 8  82760872.83908

  20154714.196 8 107928013.65508  83944210.04507
  20154718.282 7

  22797719.635 6 121524726.97806


  23411753.123 8 123029814.74508
                  23411753.845 8  91873043.19608  23411755.301 8  99861965.25808
  23411752.299 8  94269710.93708  23411753.067 8  93071380.13908
  19380443.225 8 103672421.64608


  24770721.088 6 130171229.72506 101432241.52005  24770724.512 5  24770720.838 5
  24770724.438 5  24770723.601 6  97205922.93606

  21356111.944 7 114160834.48907


  22706217.421 7 121548648.19707  94538090.21707
  22706223.638 7

  28190816.245 6 148143772.35106
                  28190826.077 6 110626898.31906  28190822.564 6 120246546.86106
  28190823.860 6 113512803.55006  28190824.649 6 112069851.00906
  23971525.938 7 125971567.01307
                  23971527.396 8  94069890.73608  23971529.138 8 102249808.04908
  23971525.626 8  96523857.94008  23971526.421 8  95296879.91008
  22072029.322 7 115989595.20107  90381643.24005  22072030.520 5  22072029.077 5
  22072030.930 7  22072034.077 7  86615804.99107

  23487325.991 6 123426801.61306  96176780.92904  23487329.856 4  23487325.419 4
  23487330.244 6  23487327.719 7  92169415.26107

  37105964.561 7 194993196.02107
                  37105962.787 6 145611772.92806

  36826734.461 7 193525862.17907
                  36826745.727 7 144516068.29007

  25662968.913 7 134860321.02907
                  25662972.883 7 100707700.19707  25662970.889 7 109464323.24607
  25662970.819 7 103334817.03907  25662971.715 8 102021259.69308
  36983171.627 7 194347899.17207
                  36983170.212 6 145129916.66906

  23024810.931 7 122951265.13007  95628832.72307
  23024816.183 7

  27559947.576 6 144828543.72106
                  27559949.575 6 108151212.32606  27559948.973 6 117555641.06406
  27559947.628 6 110972542.25206  27559948.752 6 109561877.37006
  20582401.225 8 108161717.39808  84282053.83107  20582402.939 7  20582401.087 7
  20582403.556 8  20582400.262 8  80770387.56608

  24921999.330 6 130966003.37906 102051451.33203  24922001.498 3  24921999.201 3
  24922002.509 5  24922005.553 6  97799319.57506

  21590340.078 8 115453297.30908  89797083.14407
  21590345.301 7

  23674294.921 6 124409333.42206  96942392.18004  23674298.888 4  23674294.309 4
  23674299.249 6  23674297.787 7  92903130.90407

  23839002.121 6 125275036.80806  97617040.05304  23839003.694 4  23839001.777 4
  23839005.062 6

  24287215.266 6 129783507.00706 100942771.15906
  24287224.950 6

  22859407.885 7 120127078.76507  93605541.41605  22859405.856 5  22859406.781 5


 25  4 11  4 13 45.0000000  0 30G18E19E29G23R22G10R08R10E33R23G24R01
                                R07E13E26G28G08S33S31E07S35R09E12G32
                                G01R24G27G31R11G02
  24769174.812 6 130163157.82906 101425977.41703  24769179.595 3  24769174.652 3
  24769179.952 6  24769183.569 7  97199951.55807

  24430036.261 6 128380902.95206
                  24430038.437 7  95869002.67407  24430038.439 6 104205149.84106
  24430036.425 6  98369875.99906  24430037.190 7  97119456.91207
  23182777.384 8 121826819.87808
                  23182778.423 8  90974867.83308  23182780.270 8  98885619.22608
  23182777.010 8  93348087.16308  23182777.514 8  92161372.57208
  22921921.022 7 120455962.99107  93862064.52905  22921923.299 5  22921920.803 5
  22921923.167 7  22921926.416 7  89951165.34007

  21557707.817 7 115076626.07607  89504122.65006
  21557712.848 6

  21090409.445 8 110831211.41408  86362193.74807  21090411.447 7  21090409.128 7
  21090411.325 7  21090408.415 8  82763786.92208

  20158105.459 8 107946173.37508  83958334.27207
  20158109.456 7

  22790413.544 6 121485780.16506


  23409041.301 8 123015564.74708
                  23409042.220 8  91862401.97008  23409043.696 8  99850398.70508
  23409040.607 8  94258792.11508  23409041.381 8  93060600.11508
  19384129.213 8 103692138.15508


  24780321.726 6 130221682.55906 101471555.49005  24780325.121 5  24780321.467 5
  24780325.796 5  24780324.575 6  97243598.83706

  21351689.912 7 114137197.39307


  22713933.482 7 121589952.63007  94570215.88007
  22713940.049 7

  28199003.169 6 148186792.47406
                  28199012.465 6 110659023.70606  28199009.240 6 120281465.75906
  28199010.431 6 113545766.98106  28199010.956 6 112102395.41406
  23976228.547 7 125996279.24107
                  23976229.915 8  94088344.65908  23976231.805 8 102269866.66908
  23976228.202 8  96542793.27708  23976229.020 8  95315574.54008
  22063580.066 7 115945192.84007  90347044.04605  22063580.951 5  22063579.816 5
  22063581.333 7  22063584.534 7  86582647.43507

  23491064.981 6 123446452.93806  96192093.65204  23491069.617 4  23491064.418 4
  23491070.091 6  23491067.231 7  92184089.96507

  37105962.633 7 194993195.26307
                  37105962.783 6 145611772.11906

  36826735.507 7 193525851.70207
                  36826743.768 7 144516060.63207

  25669474.577 7 134894510.40207
                  25669478.850 7 100733231.21207  25669477.303 7 109492074.35907
  25669476.844 7 103361014.08607  25669477.733 8 102047123.72408
  36983178.854 7 194347938.89507
                  36983177.639 6 145129946.53806

  23024242.136 7 122948228.66607  95626471.08607
  23024248.307 7

  27552118.551 6 144787403.75206
                  27552120.723 6 108120490.98206  27552120.468 6 117522248.27506
  27552119.000 6 110941019.47706  27552119.997 6 109530755.30706
  20583942.995 8 108169820.14008  84288367.67107  20583944.831 7  20583942.857 7
  20583945.288 8  20583942.122 8  80776438.33408

  24912026.134 6 130913597.52106 102010615.66003  24912029.355 3  24912026.009 3
  24912029.947 6  24912032.813 6  97760185.41806

  21581586.476 8 115406486.93308  89760675.11207
  21581591.836 7

  23681873.472 6 124449162.54606  96973427.85804  23681877.913 4  23681872.860 4
  23681878.741 6  23681877.211 7  92932873.45807

  23828044.256 6 125217451.81506  97572168.71804  23828045.956 4  23828043.939 4
  23828046.401 6

  24277299.068 6 129730520.83406 100901559.79706
  24277309.625 6

  22852284.292 7 120089642.96107  93576370.68605  22852282.110 5  22852283.201 5


 25  4 11  4 14  0.0000000  0 30G18E19E29G23R22G10R08R10E33R23G24R01
                                R07E13E26G28G08S33S31E07S35R09E12G32
                                G01R24G27G31R11G02
  24779808.039 6 130219039.22106 101469521.29803  24779813.234 3  24779807.865 3
  24779814.058 6  24779817.431 7  97241681.09407

  24425092.447 6 128354922.80306
                  24425094.481 7  95849601.96807  24425094.760 6 104184062.10506
  24425092.481 6  98349969.17706  24425093.280 7  97099803.14907
  23183549.103 8 121830875.07708
                  23183550.101 8  90977896.08208  23183551.844 8  98888910.79608
  23183548.716 8  93351194.40708  23183549.177 8  92164440.31908
  22927638.384 7 120486007.80207  93885476.04505  22927640.501 5  22927638.152 5
  22927640.779 7  22927643.589 7  89973601.37607

  21569043.961 7 115137134.64207  89551184.84407
  21569049.176 7

  21091159.681 8 110835153.90208  86365265.82007  21091161.665 7  21091159.364 7
  21091161.619 7  21091158.571 8  82766731.00108

  20161504.666 8 107964373.98308  83972490.30607
  20161508.457 7

  22783124.696 6 121446923.37706


  23406344.648 8 123001393.18008
                  23406345.442 8  91851819.31208  23406346.930 8  99838895.81308
  23406343.818 8  94247933.38208  23406344.613 8  93049879.42008
  19387850.956 8 103712050.40008


  24789934.809 6 130272200.89606 101510920.49405  24789938.533 5  24789934.541 5
  24789938.806 5  24789937.788 6  97281323.63706

  21347279.423 7 114113620.44007


  22721645.339 7 121631235.60407  94602324.82807
  22721651.528 7

  28207192.829 6 148229830.32806
                  28207202.432 6 110691162.32506  28207198.915 6 120316399.04606
  28207200.096 6 113578743.99306  28207200.693 6 112134953.23606
  23980945.643 7 126021068.17507
                  23980947.088 8  94106855.87808  23980948.944 7 102289987.55707
  23980945.400 8  96561787.38908  23980946.202 8  95334327.20708
  22055144.399 7 115900862.90407  90312501.28005  22055145.253 5  22055144.158 5
  22055145.213 7  22055148.772 7  86549543.95407

  23494821.716 6 123466193.95006  96207476.26004  23494826.057 4  23494821.162 4
  23494826.750 6  23494823.644 7  92198831.62407

  37105962.951 7 194993190.55307
                  37105961.853 6 145611768.79506

  36826733.638 7 193525836.95207
                  36826740.781 7 144516049.67707

  25675982.772 7 134928709.63507
                  25675986.830 7 100758769.59707  25675985.191 7 109519833.47607
  25675984.790 7 103387218.69307  25675985.661 8 102072995.22108
  36983180.785 7 194347973.22207
                  36983184.136 6 145129971.98706

  23023704.044 7 122945353.83007  95624235.11907
  23023709.994 7

  27544292.146 6 144746272.35206
                  27544293.787 6 108089776.02706  27544293.013 6 117488862.44306
  27544291.865 6 110909503.26806  27544292.922 6 109499639.72206
  20585499.658 8 108178000.43408  84294741.93807  20585501.496 7  20585499.524 7
  20585501.985 8  20585498.804 8  80782547.00508

  24902055.444 6 130861197.97606 101969784.90303  24902058.240 3  24902055.315 3
  24902058.236 6  24902061.464 6  97721055.95806

  21572855.646 8 115359802.58008  89724365.09607
  21572861.707 7

  23689458.288 6 124489018.32806  97004484.31804  23689462.366 4  23689457.689 4
  23689462.812 6  23689461.465 7  92962635.87207

  23817086.589 6 125159868.62706  97527298.78704  23817088.178 4  23817086.285 4
  23817089.200 6

  24267375.382 6 129677485.89906 100860310.42706
  24267384.336 6

  22845172.896 7 120052273.15107  93547251.39005  22845170.956 5  22845171.801 5


 25  4 11  4 14 15.0000000  0 31G18E19E29G23R22G10R08R10E33R23G24R01
                                R07E13E26G28G08S33S31E07S35G25R09E12
                                G32G01R24G27G31R11G02
  24790448.088 6 130274949.16006 101513087.42303  24790452.641 3  24790447.910 3
  24790453.122 6  24790456.543 7  97283431.95007

  24420160.383 6 128329004.89906
                  24420162.442 7  95830247.72907  24420162.503 6 104163024.86906
  24420160.312 6  98330110.04006  24420161.219 7  97080196.46107
  23184333.869 8 121834998.83808
                  23184334.785 8  90980975.52908  23184336.562 8  98892258.01308
  23184333.396 8  93354354.18908  23184333.885 8  92167559.93308
  22933364.146 7 120516094.26007  93908920.02605  22933365.747 5  22933363.918 5
  22933366.016 7  22933369.015 7  89996068.51307

  21580393.785 7 115197726.39307  89598311.73006
  21580399.681 6

  21091918.707 8 110839143.16008  86368374.34207  21091920.799 7  21091918.390 7
  21091920.859 7  21091917.686 8  82769710.00308

  20164912.001 8 107982621.94108  83986683.17707
  20164915.952 7

  22775852.798 6 121408163.91406


  23403663.894 8 122987306.73108
                  23403664.865 8  91841300.23008  23403666.372 8  99827462.02208
  23403663.327 8  94237139.89008  23403664.054 8  93039223.13208
  19391611.132 8 103732164.47208


  24799561.751 6 130322790.90306 101550341.33405  24799565.824 5  24799561.479 5
  24799566.354 6  24799564.924 6  97319101.96606

  21342881.203 7 114090110.22907


  22729354.336 7 121672503.76307  94634422.29107
  22729360.795 7

  28215387.671 6 148272892.24906
                  28215396.787 6 110723318.92106  28215393.554 6 120351351.89606
  28215394.484 6 113611739.46506  28215395.102 6 112167529.26806
  23985678.483 7 126045940.25107
                  23985680.131 8  94125429.17708  23985682.094 8 102310175.92908
  23985678.431 8  96580845.20908  23985679.222 8  95353142.76608
  22046723.590 7 115856612.27207  90278020.30705  22046724.611 5  22046723.349 5
  22046724.588 7  22046728.180 7  86516499.70607

  23498595.950 6 123486030.82206  96222933.56304  23498600.657 4  23498595.392 4
  23498601.324 6  23498598.606 7  92213644.88107

  37105961.681 7 194993187.96007
                  37105961.338 6 145611766.94706

  36826728.424 7 193525823.85507
                  36826738.344 7 144516039.67407

  25682493.625 7 134962925.07007
                  25682497.871 7 100784320.07907  25682495.912 7 109547605.73907
  25682495.871 7 103413435.70207  25682496.634 8 102098878.96808
  36983188.517 7 194348010.40207
                  36983191.112 6 145129999.96806

  25385968.069 5 133404163.49915
                  25385975.312 6  99620019.13316

  23023196.201 7 122942647.12107  95622129.92607
  23023202.140 7

  27536467.655 6 144705156.22506
                  27536469.631 6 108059072.50006  27536469.362 6 117455489.02206
  27536467.808 6 110877998.77606  27536468.701 6 109468535.70906
  20587072.327 8 108186264.61508  84301181.57307  20587074.112 7  20587072.193 7
  20587074.507 8  20587071.392 8  80788718.33108

  24892086.376 6 130808811.54606 101928964.37403  24892089.326 3  24892086.247 3
  24892089.369 6  24892092.984 7  97681936.29807

  21564151.144 8 115313251.20508  89688158.48807
  21564155.580 7

  23697048.759 7 124528906.80907  97035566.25604  23697052.990 4  23697048.151 4
  23697053.902 7  23697051.821 7  92992422.73907

  23806130.553 6 125102294.06606  97482435.58004  23806131.643 4  23806130.245 4
  23806132.288 6

  24257442.196 6 129624409.19606 100819028.64606
  24257451.591 6

  22838075.435 7 120014976.05207  93518188.74305  22838073.462 5  22838074.349 5


 25  4 11  4 14 30.0000000  0 31G18E19E29G23R22G10R08R10E33R23G24R01
                                R07E13E26G28G08S33S31E07S35G25R09E12
                                G32G01R24G27G31R11G02
  24801092.377 6 130330887.67106 101556675.82103  24801097.433 3  24801092.212 3
  24801097.815 6  24801101.371 7  97325204.14607

  24415239.803 6 128303149.55206
                  24415242.518 7  95810940.20207  24415242.386 6 104142038.40906
  24415240.241 6  98310298.84406  24415241.079 7  97060637.09907
  23185131.619 8 121839191.31008
                  23185132.607 8  90984106.28408  23185134.371 8  98895661.00608
  23185131.192 8  93357566.61408  23185131.671 8  92170731.52208
  22939097.533 7 120546222.67707  93932396.69605  22939098.926 5  22939097.305 5
  22939099.112 6  22939102.314 7  90018566.99707

  21591760.015 7 115258401.12007  89645503.15206
  21591766.425 6

  21092687.067 8 110843179.58508  86371519.61707  21092688.889 7  21092686.750 7
  21092689.002 7  21092685.805 8  82772724.22508

  20168328.544 8 108000917.14708  84000912.77607
  20168332.416 7

  22768599.129 6 121369502.30606


  23400999.729 8 122973305.85508
                  23401000.630 8  91830845.03708  23401001.973 8  99816097.68208
  23400999.021 8  94226411.96008  23400999.785 8  93028631.57108
  19395409.031 8 103752480.60108


  24809202.374 6 130373452.53506 101589817.98304  24809206.334 4  24809202.097 4
  24809206.148 5  24809205.300 6  97356933.77806

  21338495.435 7 114066666.74907


  22737062.270 7 121713757.22107  94666508.28507
  22737067.424 7

  28223586.462 6 148315978.38006
                  28223596.210 6 110755493.59306  28223592.158 6 120386324.37406
  28223593.518 6 113644753.48706  28223594.251 7 112200123.61407
  23990427.487 7 126070895.69307
                  23990429.043 8  94144064.73208  23990430.868 8 102330431.97108
  23990427.291 8  96599966.91308  23990428.103 8  95372021.39508
  22038318.319 7 115812441.57807  90243601.62505  22038319.083 5  22038318.078 5
  22038319.199 7  22038322.694 7  86483515.13807

  23502389.172 6 123505963.58206  96238465.59104  23502393.858 4  23502388.627 4
  23502394.050 6  23502391.557 7  92228529.73007

  37105965.012 7 194993187.84407
                  37105961.213 6 145611766.76506

  36826726.206 7 193525813.40307
                  36826736.305 7 144516032.20607

  25689007.759 7 134997156.81307
                  25689011.825 7 100809882.74707  25689009.833 7 109575391.25007
  25689009.891 7 103439665.22207  25689010.747 8 102124775.05908
  36983194.053 7 194348049.66807
                  36983198.607 6 145130029.44906

  25379707.753 5 133371264.96205
  25379716.226 5  25379715.004 6  99595452.06306

  23022720.747 7 122940108.80007  95620155.71307
  23022727.914 7

  27528646.648 6 144664055.84606
                  27528648.548 6 108028380.74606  27528647.673 6 117422128.37706
  27528646.830 6 110846506.34306  27528647.511 6 109437443.61606
  20588661.046 8 108194612.74308  84307686.62007  20588662.688 7  20588660.917 7
  20588663.166 8  20588660.029 8  80794952.33708

  24882120.041 6 130756438.77806 101888154.48703  24882123.013 3  24882119.903 3
  24882123.110 6  24882126.719 7  97642826.82507

  21555470.391 8 115266833.72308  89652056.04407
  21555475.788 7

  23704645.352 7 124568827.88807  97066673.56904  23704649.838 4  23704644.722 4
  23704650.098 6  23704648.801 7  93022233.91807

  23795175.445 6 125044728.78706  97437579.60604  23795177.361 4  23795175.106 4
  23795177.999 6

  24247500.619 6 129571291.62306 100777715.10506
  24247511.960 6

  22830991.887 7 119977752.18807  93489183.16205  22830989.853 5  22830990.801 5


 25  4 11  4 14 45.0000000  0 31G18E19E29G23R22G10R08R10E33R23G24R01
                                R07E13E26G28G08S33S31E07S35G25R09E12
                                G32G01R24G27G31R11G02
  24811742.095 6 130386850.31106 101600283.01803  24811747.152 3  24811741.948 3
  24811747.666 6  24811750.857 7  97366994.37807

  24410331.006 6 128277352.74706
                  24410333.413 7  95791676.40807  24410333.391 6 104121099.48806
  24410331.335 6  98290532.50406  24410332.078 7  97041122.03107
  23185941.655 8 121843448.21608
                  23185942.673 8  90987285.15808  23185944.413 8  98899116.29808
  23185941.249 8  93360828.41308  23185941.715 8  92173951.85808
  22944838.474 7 120576388.96907  93955902.88505  22944839.573 5  22944838.251 5
  22944839.868 7  22944842.614 7  90041093.75707

  21603141.000 7 115319154.13707  89692755.49606
  21603147.431 6

  21093463.186 8 110847259.10508  86374698.46907  21093465.172 7  21093462.873 7
  21093464.939 7  21093462.086 8  82775770.62108

  20171752.857 8 108019255.13108  84015175.66107
  20171757.316 7

  22761364.874 6 121330935.41506


  23398350.862 8 122959386.56108
                  23398351.837 8  91820450.76808  23398353.338 8  99804799.55908
  23398350.248 8  94215746.53308  23398351.015 8  93018101.72308
  19399243.629 8 103772994.37708


  24818855.687 6 130424181.23706 101629346.89604  24818859.556 4  24818855.419 4
  24818859.541 5  24818858.814 6  97394815.66206

  21334122.263 7 114043286.07507


  22744764.733 7 121754991.67307  94698579.52807
  22744769.989 7

  28231789.379 6 148359084.40306
                  28231798.395 6 110787683.14006  28231795.652 6 120421313.01306
  28231795.846 6 113677782.75506  28231797.224 6 112232733.01306
  23995191.379 7 126095930.31407
                  23995192.957 8  94162759.40408  23995194.895 8 102350752.27208
  23995191.279 8  96619149.27008  23995192.054 8  95390959.91008
  22029927.036 7 115768347.03907  90209242.28605  22029928.218 5  22029926.800 5
  22029928.405 7  22029931.790 7  86450587.44807

  23506199.722 6 123525987.75206  96254068.84204  23506204.606 4  23506199.159 4
  23506204.987 6  23506202.096 7  92243482.85607

  37105962.781 7 194993184.94707
                  37105960.806 6 145611764.47006

  36826726.121 7 193525801.12507
                  36826734.025 7 144516022.95907

  25695524.057 7 135031400.58507
                  25695528.152 7 100835454.38307  25695526.462 7 109603186.51007
  25695526.161 7 103465903.95407  25695527.108 8 102150680.24208
  36983203.354 7 194348087.06907
                  36983205.806 6 145130057.16806

  25373447.765 5 133338370.12305 103900056.55312  25373455.065 2  25373447.502 2
  25373456.185 5  25373455.257 6  99570887.79206

  23022275.954 7 122937734.82607  95618309.31507
  23022282.923 7

  27520827.999 6 144622967.27206
                  27520829.551 6 107997697.80006  27520828.479 6 117388777.33206
  27520827.777 6 110815022.96606  27520828.593 6 109406360.45306
  20590264.627 8 108203040.50608  84314253.72007  20590266.440 7  20590264.498 7
  20590266.975 8  20590263.744 8  80801245.81208

  24872156.010 6 130704075.75606 101847352.18803  24872158.311 3  24872155.854 3
  24872158.752 6  24872162.085 7  97603724.62607

  21546814.921 8 115220546.20008  89616054.67407
  21546819.657 7

  23712246.822 6 124608777.06006  97097802.78004  23712251.879 4  23712246.174 4
  23712252.618 6  23712250.808 7  93052066.06407

  23784221.711 6 124987169.03906  97392727.93304  23784224.010 4  23784221.367 4
  23784224.761 6

  24237553.054 6 129518129.35806 100736366.71306
  24237562.798 6

  22823921.642 7 119940597.83807  93460231.74905  22823919.538 5  22823920.556 5


 25  4 11  4 15  0.0000000  0 31G18E19E29G23R22G10R08R10E33R23G24R01
                                R07E13E26G28G08S33S31E07S35G25R09E12
                                G32G01R24G27G31R11G02
  24822396.768 6 130442839.50206 101643910.88903  24822401.879 3  24822396.603 3
  24822401.656 6  24822405.351 7  97408804.40607

  24405433.701 6 128251616.97306
                  24405435.858 7  95772458.16707  24405436.061 6 104100210.07406
  24405433.817 6  98270812.91506  24405434.663 7  97021653.11607
  23186764.488 8 121847772.08608
                  23186765.422 8  90990514.03308  23186767.315 8  98902625.94008
  23186764.010 8  93364141.51908  23186764.520 8  92177222.84908
  22950586.318 7 120606595.80407  93979440.65405  22950587.826 5  22950586.090 5
  22950587.953 7  22950590.784 7  90063650.79507

  21614538.548 7 115379987.63707  89740070.39106
  21614542.680 6

  21094248.326 8 110851384.51708  86377913.07907  21094250.219 7  21094248.013 7
  21094250.084 7  21094247.093 8  82778851.29508

  20175186.071 8 108037638.43808  84029473.79507
  20175190.034 7

  22754146.495 6 121292466.13306


  23395718.280 8 122945551.67508
                  23395719.148 8  91810119.53708  23395720.580 8  99793569.95608
  23395717.563 8  94205145.79208  23395718.325 8  93007635.73708
  19403116.209 8 103793708.41508


  24828522.524 6 130474979.34306 101668929.91204  24828525.993 4  24828522.270 4
  24828525.558 5  24828525.022 6  97432749.39806

  21329760.150 7 114019970.35307


  22752462.465 7 121796209.50607  94730637.84907
  22752470.509 7

  28239996.159 6 148402212.85106
                  28240005.643 6 110819889.42606  28240002.794 6 120456319.85306
  28240003.648 6 113710829.20306  28240004.216 6 112265359.38806
  23999970.971 7 126121046.71007
                  23999972.444 8  94181515.14308  23999974.196 8 102371138.94208
  23999970.703 8  96638394.29308  23999971.557 8  95409960.29008
  22021551.718 7 115724331.66107  90174944.63205  22021552.341 5  22021551.499 5
  22021552.616 7  22021555.883 7  86417718.87707

  23510027.916 6 123546105.74706  96269745.20704  23510032.704 4  23510027.349 4
  23510033.146 6  23510030.424 7  92258506.03207

  37105961.954 7 194993184.09907
                  37105960.533 6 145611764.04006

  36826723.139 7 193525789.77107
                  36826731.842 7 144516014.46307

  25702043.309 7 135065658.85707
                  25702047.394 7 100861036.85407  25702045.653 7 109630993.54007
  25702045.351 7 103492153.79107  25702046.246 8 102176596.39608
  36983213.267 7 194348125.47907
                  36983212.907 6 145130085.86606

  25367189.253 5 133305482.00605 103874429.50502  25367197.123 2  25367188.985 2
  25367197.845 6  25367197.048 6  99546328.54806

  23021864.087 7 122935528.00507  95616592.92807
  23021869.374 7

  27513011.912 6 144581893.39206
                  27513013.314 6 107967025.80806  27513012.500 6 117355438.17206
  27513011.577 6 110783550.83706  27513012.474 6 109375288.39706
  20591883.935 8 108211550.36808  84320884.79007  20591885.824 7  20591883.801 7
  20591886.279 8  20591883.069 8  80807600.59208

  24862194.128 6 130651725.44206 101806559.78403  24862196.819 3  24862193.976 3
  24862197.498 6  24862200.013 6  97564631.92606

  21538183.483 8 115174392.00708  89580156.99007
  21538188.614 7

  23719855.318 6 124648756.61806  97128955.65704  23719859.812 4  23719854.675 4
  23719860.792 6  23719858.830 7  93081920.90507

  23773270.635 6 124929617.73706  97347882.84704  23773272.188 4  23773270.287 4
  23773273.876 6

  24227596.522 6 129464925.47606 100694985.97906
  24227606.002 6

  22816865.402 7 119903515.95907  93431336.80905  22816863.049 5  22816864.320 5


 25  4 11  4 15 15.0000000  0 31G18E19E29G23R22G10R08R10E33R23G24R01
                                R07E13E26G28G08S33S31E07S35G25R09E12
                                G32G01R24G27G31R11G02
  24833055.037 6 130498851.13006 101687556.25403  24833060.797 3  24833054.854 3
  24833060.943 6  24833064.489 7  97450631.21507

  24400547.250 6 128225938.55806
                  24400549.455 7  95753282.75707  24400549.463 6 104079367.23206
  24400547.348 6  98251137.26806  24400548.177 7  97002227.58807
  23187599.354 8 121852159.00008
                  23187600.238 8  90993789.99008  23187602.173 8  98906186.75708
  23187598.766 8  93367502.93708  23187599.300 8  92180541.53708
  22956340.987 7 120636839.49407  94003007.15705  22956342.970 5  22956340.742 5
  22956343.335 7  22956346.048 7  90086235.34007

  21625948.119 7 115440897.27807  89787444.52707
  21625954.328 7

  21095041.474 8 110855552.16508  86381160.60607  21095043.257 7  21095041.161 7
  21095043.419 7  21095040.190 8  82781963.51208

  20178626.346 8 108056062.84508  84043803.89607
  20178630.183 7

  22746949.308 6 121254091.25706


  23393100.931 8 122931797.57908
                  23393101.802 8  91799848.63608  23393103.207 8  99782405.92008
  23393100.171 8  94194606.94608  23393101.004 8  92997230.86308
  19407025.117 8 103814618.35508


  24838201.530 6 130525842.65806 101708563.72604  24838204.815 4  24838201.258 4
  24838205.390 5  24838203.797 6  97470731.82106

  21325409.889 7 113996715.87007


  22760159.747 7 121837407.23807  94762680.50007
  22760165.527 7

  28248206.890 6 148445359.79406
                  28248216.384 6 110852109.49506  28248212.790 6 120491341.68806
  28248213.903 6 113743889.82106  28248214.723 7 112297999.73107
  24004765.105 7 126146240.99507
                  24004766.807 8  94200329.06008  24004768.668 8 102391588.86008
  24004765.065 8  96657699.00908  24004765.883 8  95429019.60808
  22013190.176 7 115680392.03307  90140706.00205  22013190.885 5  22013189.962 5
  22013191.433 7  22013194.363 7  86384906.86807

  23513873.866 6 123566313.45506  96285491.48604  23513877.763 4  23513873.299 4
  23513878.809 6  23513875.823 7  92273596.21407

  37105961.717 7 194993180.69207
                  37105959.742 6 145611761.60906

  36826721.605 7 193525775.80507
                  36826729.115 7 144516003.99707

  25708564.481 7 135099927.70807
                  25708568.581 7 100886627.22707  25708566.872 7 109658809.16907
  25708566.773 7 103518411.73507  25708567.419 8 102202520.55708
  36983219.022 7 194348160.75307
                  36983219.780 6 145130112.21906

  25360931.414 5 133272597.20705 103848805.02502  25360939.029 2  25360930.909 2
  25360939.833 5  25360939.269 6  99521771.77106

  23021481.987 7 122933485.08307  95615004.01607
  23021487.288 7

  27505197.311 6 144540830.53706
                  27505199.311 6 107936362.06706  27505198.500 6 117322107.99506
  27505197.529 6 110752087.15706  27505198.376 6 109344224.69006
  20593518.247 8 108220138.35008  84327576.73707  20593520.077 7  20593518.113 7
  20593520.472 8  20593517.296 8  80814013.70708

  24852233.503 6 130599384.36606 101765774.58903  24852236.848 3  24852233.347 3
  24852236.847 6  24852240.059 7  97525546.10807

  21529576.256 8 115128367.67108  89544360.33707
  21529581.717 7

  23727468.497 6 124688762.37006  97160128.95504  23727472.598 4  23727467.876 4
  23727473.250 7  23727471.428 7  93111795.31307

  23762320.284 6 124872071.56306  97303041.76404  23762321.726 4  23762319.949 4
  23762321.993 6

  24217631.288 6 129411676.62206 100653570.29906
  24217641.468 6

  22809821.781 7 119866502.92107  93402495.50205  22809819.663 5  22809820.690 5


 25  4 11  4 15 30.0000000  0 31G18E19E29G23R22G10R08R10E33R23G24R01
                                R07E13E26G28G08S33S31E07S35G25R09E12
                                G32G01R24G27G31R11G02
  24843718.190 6 130554888.07106 101731221.34903  24843724.235 3  24843718.043 3
  24843724.186 6  24843727.590 7  97492476.89607

  24395671.978 6 128200320.45206
                  24395674.495 7  95734152.41207  24395674.692 6 104058573.35606
  24395672.339 6  98231507.86906  24395673.200 7  96982847.71507
  23188446.658 8 121856611.92708
                  23188447.592 8  90997115.24308  23188449.415 8  98909801.15808
  23188446.176 8  93370914.92708  23188446.646 8  92183910.15808
  22962104.378 7 120667123.12207  94026604.77305  22962105.836 5  22962104.124 5
  22962105.817 7  22962108.823 7  90108849.71907

  21637374.023 7 115501885.64607  89834879.89507
  21637378.403 7

  21095843.067 8 110859765.21908  86384443.51207  21095844.996 7  21095842.759 7
  21095844.920 8  21095841.865 8  82785109.63308

  20182075.204 8 108074531.52608  84058168.43907
  20182079.459 7

  22739767.542 6 121215814.43006


  23390499.693 8 122918127.49708
                  23390500.478 8  91789640.46708  23390501.860 8  99771310.08708
  23390498.861 8  94184132.47808  23390499.664 8  92986889.54508
  19410970.617 8 103835727.41408


  24847893.001 6 130576773.96506 101748250.50504  24847896.726 4  24847892.720 4
  24847897.630 5  24847895.714 6  97508765.00306

  21321071.102 7 113973525.48307


  22767852.838 7 121878587.51207  94794709.60507
  22767859.381 7

  28256421.871 6 148488528.12206
                  28256431.111 6 110884345.56606  28256426.834 6 120526380.90306
  28256428.190 6 113776966.82206  28256429.488 6 112330656.26606
  24009574.863 7 126171516.24807
                  24009576.530 8  94219203.42008  24009578.378 8 102412104.47708
  24009574.753 8  96677065.75008  24009575.605 8  95448140.15808
  22004843.463 7 115636531.60207  90106529.08905  22004844.548 5  22004843.244 5
  22004844.751 7  22004847.941 7  86352153.99807

  23517737.315 6 123586613.67006  96301309.82604  23517740.539 4  23517736.770 4
  23517742.104 6  23517738.856 7  92288755.47007

  37105961.292 7 194993176.19607
                  37105959.103 6 145611757.93506

  36826717.285 7 193525761.78207
                  36826726.463 7 144515993.53107

  25715088.209 7 135134210.07607
                  25715092.307 7 100912227.68207  25715090.209 7 109686635.75607
  25715090.302 7 103544680.03507  25715091.163 8 102228454.93408
  36983226.145 7 194348196.65307
                  36983226.505 6 145130138.97306

  25354674.500 5 133239719.18305 103823185.85602  25354682.608 2  25354673.919 2
  25354683.310 6  25354682.672 6  99497220.05106

  23021129.953 7 122931609.07307  95613544.94507
  23021135.638 7

  27497386.255 6 144499781.98106
                  27497388.051 6 107905709.00706  27497387.209 6 117288789.41106
  27497386.115 6 110720634.44706  27497386.988 6 109313171.80306
  20595167.788 8 108228807.35808  84334331.82107  20595169.712 7  20595167.654 7
  20595170.085 8  20595166.948 8  80820487.33408

  24842275.470 6 130547055.81706 101724999.14503  24842278.446 3  24842275.310 3
  24842278.536 6  24842282.036 7  97486469.65707

  21520994.549 8 115082476.87708  89508667.50907
  21520999.506 7

  23735086.887 6 124728797.04106  97191324.78004  23735091.142 4  23735086.270 4
  23735091.882 7  23735089.888 7  93141691.30007

  23751370.650 6 124814533.95606  97258207.35304  23751372.698 4  23751370.346 4
  23751373.476 6

  24207659.681 6 129358386.52606 100612122.45606
  24207668.526 6

  22802791.950 7 119829562.01507  93373710.41005  22802789.995 5  22802790.855 5


 25  4 11  4 15 45.0000000  0 31G18E19E29G23R22G10R08R10E33R23G24R01
                                R07E13E26G28G08S33S31E07S35G25R09E12
                                G32G01R24G27G31R11G02
  24854388.451 6 130610956.61506 101774911.06903  24854393.705 3  24854388.353 3
  24854394.314 6  24854397.031 7  97534346.18707

  24390809.782 6 128174769.43606
                  24390812.204 7  95715072.14307  24390812.214 6 104037833.92406
  24390810.092 6  98211929.85906  24390810.928 7  96963518.57607
  23189307.689 8 121861137.32708
                  23189308.821 8  91000494.61408  23189310.694 8  98913474.38108
  23189307.249 8  93374382.45408  23189307.787 8  92187333.60808
  22967875.823 7 120697453.33907  94050238.69105  22967877.489 5  22967875.573 5
  22967877.576 7  22967880.482 7  90131498.88007

  21648814.982 7 115562959.02307  89882381.36406
  21648820.132 6

  21096654.675 8 110864030.39608  86387767.03407  21096656.618 7  21096654.362 7
  21096656.357 7  21096653.538 8  82788294.67608

  20185533.708 8 108093050.65508  84072572.20607
  20185537.770 7

  22732607.217 6 121177643.02606


  23387915.416 8 122904548.22508
                  23387916.440 8  91779500.11908  23387917.781 8  99760287.96008
  23387914.777 8  94173727.59508  23387915.612 8  92976616.93008
  19414955.611 8 103857042.11208


  24857599.134 6 130627779.42606 101787995.06204  24857602.768 4  24857598.853 4
  24857603.172 5  24857601.567 6  97546853.55406

  21316747.098 7 113950405.99607


  22775543.535 7 121919757.01807  94826730.31407
  22775550.018 7

  28264641.641 6 148531724.31506
                  28264651.029 6 110916602.43706  28264647.387 6 120561442.72606
  28264648.311 6 113810065.17306  28264649.515 6 112363333.88406
  24014401.253 7 126196878.95507
                  24014402.892 8  94238143.11008  24014404.731 8 102432691.09508
  24014401.180 8  96696499.51508  24014401.988 8  95467326.88508
  21996513.644 7 115592757.32307  90072419.30005  21996514.604 5  21996513.425 5
  21996514.796 7  21996517.919 7  86319465.46107

  23521619.187 6 123607012.73006  96317205.20404  23521622.336 4  23521618.633 4
  23521623.302 6  23521620.754 7  92303988.53207

  37105962.428 7 194993179.21607
                  37105959.563 6 145611760.32306

  36826716.570 7 193525754.49407
                  36826725.081 7 144515988.06507

  25721615.589 7 135168512.35607
                  25721619.703 7 100937843.02607  25721618.182 7 109714478.52407
  25721617.650 7 103570963.61007  25721618.663 8 102254404.39108
  36983234.436 7 194348238.95607
                  36983234.496 6 145130170.66206

  25348421.126 5 133206854.83305 103797577.31602  25348428.480 2  25348420.536 2
  25348429.718 5  25348428.564 6  99472678.53606

  23020811.534 7 122929906.59007  95612220.79707
  23020816.224 7

  27489578.804 6 144458754.61506
                  27489580.512 6 107875071.75506  27489580.045 6 117255488.03806
  27489578.868 6 110689197.96406  27489579.602 6 109282134.93206
  20596833.930 8 108237563.80108  84341155.03707  20596836.040 7  20596833.796 7
  20596836.632 8  20596833.259 8  80827026.24908

  24832321.776 6 130494746.71006 101684238.85403  24832324.194 3  24832321.575 3
  24832324.066 6  24832327.812 6  97447407.74106

  21512439.273 8 115036726.96208  89473084.26607
  21512444.096 7

  23742711.733 6 124768866.84106  97222547.97504  23742716.292 4  23742711.107 4
  23742716.665 6  23742714.911 7  93171613.54307

  23740424.408 6 124757011.92106  97213385.05704  23740426.211 4  23740424.118 4
  23740427.499 6

  24197680.275 6 129305062.05406 100570647.96606
  24197689.448 6

  22795777.705 7 119792700.27307  93344987.00805  22795775.356 5  22795776.614 5


 25  4 11  4 16  0.0000000  0 31G18E19E29G23R22G10R08R10E33R23G24R01
                                R07E13E26G28G08S33S31E07S35G25R09E12
                                G32G01R24G27G31R11G02
  24865061.402 6 130667041.50706 101818613.52003  24865066.699 3  24865061.309 3
  24865066.449 6  24865069.868 7  97576227.69107

  24385957.906 6 128149270.49706
                  24385959.898 7  95696030.78107  24385960.015 6 104017136.75506
  24385957.905 6  98192391.74706  24385958.592 7  96944228.83807
  23190179.796 8 121865720.10008
                  23190180.860 8  91003916.83408  23190182.679 8  98917194.17808
  23190179.366 8  93377893.94508  23190179.852 8  92190800.46308
  22973653.301 7 120727815.20707  94073897.26805  22973655.263 5  22973653.051 5
  22973654.881 7  22973658.228 7  90154171.69007

  21660268.826 7 115624101.68707  89929936.73406
  21660274.356 6

  21097473.389 8 110868332.83708  86391119.58907  21097475.350 7  21097473.076 7
  21097475.062 7  21097472.239 8  82791507.54408

  20188998.300 8 108111605.12408  84087003.45807
  20189002.571 7

  22725462.896 6 121139562.10006


  23385345.823 8 122891044.96808
                  23385346.810 8  91769416.52708  23385348.297 8  99749327.53308
  23385345.159 8  94163380.95508  23385346.017 8  92966401.81408
  19418975.779 8 103878546.79908


  24867315.702 6 130678843.88606 101827785.64604  24867319.635 4  24867315.412 4
  24867320.025 5  24867318.917 6  97584986.21406

  21312431.664 7 113927342.04207


  22783230.332 7 121960900.38607  94858730.70407
  22783235.582 7

  28272864.275 6 148574933.24906
                  28272873.849 6 110948868.80706  28272869.805 6 120596514.89206
  28272871.317 6 113843173.28706  28272871.984 7 112396021.12307
  24019241.432 7 126222314.12307
                  24019242.997 8  94257136.89108  24019244.829 8 102453336.51608
  24019241.326 8  96715988.79208  24019242.144 8  95486568.41408
  21988197.427 7 115549054.58507  90038365.26205  21988198.160 5  21988197.217 5
  21988198.706 7  21988201.593 7  86286830.35007

  23525516.364 7 123627495.32507  96333165.66804  23525520.209 4  23525515.797 4
  23525521.080 6  23525518.413 7  92319283.99107

  37105958.971 7 194993174.41607
                  37105958.517 6 145611756.97206

  36826711.222 7 193525739.31007
                  36826722.117 7 144515976.75907

  25728144.069 7 135202819.47107
                  25728148.210 7 100963461.96607  25728146.396 7 109742325.19407
  25728146.202 7 103597250.86707  25728147.107 8 102280357.49208
  36983240.620 7 194348272.95107
                  36983240.895 6 145130196.02806

  25342167.847 5 133173989.59405 103771968.05301  25342174.272 1  25342167.226 1
  25342175.287 5  25342174.829 6  99448136.36206

  23020522.388 7 122928362.68807  95611020.00807
  23020526.970 7

  27481772.468 6 144417733.59406
                  27481774.441 6 107844439.27606  27481773.739 6 117222191.82506
  27481772.589 6 110657766.34306  27481773.468 6 109251102.88406
  20598514.058 8 108246392.53108  84348034.57707  20598516.087 7  20598513.924 7
  20598516.596 8  20598513.235 8  80833619.14608

  24822369.128 6 130442442.37806 101643482.29003  24822370.917 3  24822368.959 3
  24822371.453 6  24822374.814 7  97408349.37607

  21503907.585 8 114991102.97108  89437598.97407
  21503912.517 7

  23750340.368 6 124808956.49206  97253786.66204  23750345.059 4  23750339.747 4
  23750345.106 6  23750343.744 7  93201550.60907

  23729478.609 6 124699490.76606  97168563.47104  23729480.202 4  23729478.292 4
  23729481.371 6

  24187691.716 6 129251688.80406 100529135.50306
  24187700.871 6

  22788775.349 7 119755902.98507  93316313.82105  22788773.148 5  22788774.249 5


 25  4 11  4 16 15.0000000  0 31G18E19E29G23R22G10R08R10E33R23G24R01
                                R07E13E26G28G08S33S31E07S35G25R09E12
                                G32G01R24G27G31R11G02
  24875738.701 6 130723155.31506 101862338.50803  24875744.486 3  24875738.576 3
  24875744.302 6  24875748.001 7  97618130.80407

  24381117.864 6 128123836.41306
                  24381119.838 7  95677037.83707  24381120.232 6 103996492.23706
  24381117.924 6  98172903.33606  24381118.606 7  96924988.16207
  23191065.334 8 121870372.93808
                  23191066.222 8  91007391.36808  23191068.079 8  98920970.83808
  23191064.785 8  93381459.12008  23191065.246 8  92194320.31708
  22979439.462 7 120758221.60307  94097590.54405  22979441.512 5  22979439.212 5
  22979441.500 7  22979444.403 7  90176877.75007

  21671738.543 7 115685326.11507  89977555.72606
  21671743.838 6

  21098301.462 8 110872685.47508  86394511.25807  21098303.557 7  21098301.145 7
  21098303.658 7  21098300.547 8  82794757.89108

  20192472.696 8 108130207.39108  84101471.88907
  20192476.351 7

  22718338.368 6 121101585.35206


  23382793.225 8 122877630.68508
                  23382794.183 8  91759399.37508  23382795.536 8  99738439.31408
  23382792.537 8  94153102.48208  23382793.364 8  92956254.00108
  19423033.837 8 103900254.45908


  24877046.663 6 130729979.60706 101867631.75404  24877050.154 4  24877046.382 4
  24877050.402 5  24877049.652 6  97623172.06906

  21308129.321 7 113904346.38207


  22790913.454 7 122002031.09707  94890721.26407
  22790919.185 7

  28281091.519 6 148618167.58906
                  28281100.994 6 110981154.14106  28281097.111 6 120631607.68006
  28281098.103 6 113876300.86206  28281099.384 6 112428727.57306
  24024097.589 7 126247834.49307
                  24024099.366 8  94276194.31608  24024101.286 8 102474051.09808
  24024097.685 8  96735543.36308  24024098.527 8  95505874.41208
  21979896.969 7 115505436.56407  90004377.23405  21979897.894 5  21979896.755 5
  21979898.117 7  21979901.312 7  86254258.49607

  23529432.085 6 123648074.02606  96349201.01904  23529436.291 4  23529431.482 4
  23529437.211 6  23529434.322 7  92334651.20907

  37105959.575 7 194993173.48507
                  37105958.485 6 145611756.03006

  36826710.314 7 193525729.02307
                  36826720.122 7 144515969.14607

  25734676.030 7 135237144.07207
                  25734680.006 7 100989093.96607  25734678.252 7 109770186.07907
  25734678.089 7 103623551.53307  25734678.878 8 102306323.82508
  36983247.412 7 194348311.93607
                  36983248.376 6 145130225.22206

  25335914.845 5 133141136.79905 103746368.53102  25335922.675 2  25335914.202 2
  25335923.380 5  25335922.838 6  99423603.49006

  23020265.856 7 122926990.55807  95609952.84107
  23020270.571 7

  27473970.322 6 144376732.00706
                  27473971.782 6 107813821.26906  27473971.225 6 117188911.34406
  27473970.030 6 110626349.60406  27473971.081 6 109220085.51106
  20600210.417 8 108255306.15308  84354980.26807  20600212.290 7  20600210.279 7
  20600212.670 8  20600209.459 8  80840275.43608

  24812418.667 6 130390155.86006 101602739.60503  24812421.190 3  24812418.493 3
  24812421.215 6  24812424.827 6  97369304.31906

  21495401.746 8 114945618.41308  89402222.14407
  21495406.643 7

  23757975.532 6 124849078.34806  97285050.44504  23757979.885 4  23757974.920 4
  23757980.506 6  23757978.555 7  93231511.73207

  23718534.659 6 124641983.68606  97123752.83404  23718537.328 4  23718534.333 4
  23718537.870 6

  24177696.874 6 129198280.07106 100487595.42706
  24177706.887 6

  22781788.083 7 119719183.37307  93287701.16505  22781785.670 5  22781786.983 5


 25  4 11  4 16 30.0000000  0 31G18E19E29G23R22G10R08R10E33R23G24R01
                                R07E13E26G28G08S33S31E07S35G25R09E12
                                G32G01R24G27G31R11G02
  24886421.593 6 130779292.27006 101906081.50703  24886427.161 3  24886421.455 3
  24886427.300 6  24886430.243 7  97660051.18407

  24376288.964 6 128098461.78406
                  24376291.268 7  95658089.28707  24376291.329 6 103975895.97306
  24376289.183 6  98153460.45606  24376289.915 7  96905792.44807
  23191962.657 8 121875090.19808
                  23191963.902 8  91010914.00708  23191965.730 8  98924799.78808
  23191962.392 8  93385073.65408  23191962.893 8  92197888.90408
  22985233.115 7 120788667.07007  94121314.26405  22985234.897 5  22985232.856 5
  22985235.326 7  22985238.117 7  90199612.97107

  21683221.557 7 115746626.29307  90025233.60307
  21683227.300 7

  21099138.347 8 110877082.92808  86397937.84607  21099140.336 7  21099138.034 7
  21099140.519 7  21099137.297 8  82798041.70908

  20195954.317 8 108148851.87608  84115973.15907
  20195958.087 7

  22711232.151 6 121063707.94906


  23380256.235 8 122864300.01108
                  23380257.411 8  91749444.66508  23380258.830 8  99727618.97508
  23380255.779 8  94142888.08808  23380256.595 8  92946169.44908
  19427129.064 8 103922159.05008


  24886790.144 6 130781180.76706 101907528.82104  24886793.775 4  24886789.876 4
  24886794.180 5  24886793.096 6  97661406.78206

  21303838.982 7 113881413.31407


  22798592.693 7 122043142.85107  94922697.05907
  22798599.803 7

  28289322.298 6 148661421.63806
                  28289331.263 6 111013454.25606  28289328.447 6 120666716.48806
  28289329.078 6 113909443.58406  28289330.340 6 112461448.99106
  24028969.183 7 126273434.49807
                  24028970.925 8  94295311.19608  24028972.699 8 102494830.31908
  24028969.142 8  96755158.94708  24028970.065 8  95525240.64408
  21971612.037 7 115461898.10507  89970451.20305  21971612.728 5  21971611.832 5
  21971613.064 7  21971616.287 7  86221746.06307

  23533365.516 6 123668743.02406  96365306.73704  23533369.718 4  23533364.926 4
  23533370.731 6  23533367.342 7  92350085.84107

  37105959.476 7 194993171.91207
                  37105958.316 6 145611754.84006

  36826710.283 7 193525717.24107
                  36826717.797 7 144515960.31107

  25741209.908 7 135271480.49007
                  25741213.973 7 101014734.78607  25741212.322 7 109798056.53107
  25741211.946 7 103649861.24307  25741212.889 8 102332299.09008
  36983254.290 7 194348349.94507
                  36983255.669 6 145130253.57806

  25329665.017 5 133108291.25305 103720774.62102  25329672.358 2  25329664.347 2
  25329672.902 5  25329672.716 6  99399076.02106

  23020039.249 7 122925784.96007  95609015.18407
  23020044.622 7

  27466170.502 6 144335744.43406
                  27466172.255 6 107783213.71606  27466171.355 6 117155642.26606
  27466170.439 6 110594943.60306  27466171.413 6 109189078.73106
  20601921.548 8 108264298.99208  84361987.68607  20601923.557 7  20601921.414 7
  20601923.946 8  20601920.719 8  80846990.87408

  24802471.432 6 130337881.90706 101562006.71403  24802474.061 3  24802471.249 3
  24802474.996 6  24802477.127 6  97330268.66106

  21486920.366 8 114900268.22808  89366949.80407
  21486925.973 7

  23765615.630 6 124889226.54806  97316334.75304  23765619.907 4  23765615.022 4
  23765620.123 6  23765618.688 7  93261492.52407

  23707593.845 6 124584485.62506  97078949.22904  23707595.710 4  23707593.528 4
  23707596.019 6

  24167694.257 6 129144830.72206 100446023.73606
  24167703.266 6

  22774813.796 7 119682535.98907  93259144.78505  22774811.956 5  22774812.696 5


 25  4 11  4 16 45.0000000  0 31G18E19E29G23R22G10R08R10E33R23G24R01
                                R07E13E26G28G08S33S31E07S35G25R09E12
                                G32G01R24G27G31R11G02
  24897107.930 6 130835452.51906 101949842.68703  24897113.937 3  24897107.796 3
  24897114.250 6  24897118.085 7  97701988.95807

  24371471.721 6 128073146.97806
                  24371473.971 7  95639185.42007  24371474.050 6 103955348.28106
  24371471.939 6  98134063.45206  24371472.636 7  96886642.01307
  23192872.812 8 121879872.20408
                  23192873.891 8  91014484.99908  23192875.769 8  98928681.30108
  23192872.326 8  93388737.80008  23192872.877 8  92201506.47308
  22991034.770 7 120819152.06107  94145068.78105  22991036.201 5  22991034.520 5
  22991036.358 7  22991039.085 7  90222377.71607

  21694720.455 7 115808002.14607  90072970.35406
  21694724.606 6

  21099983.814 8 110881525.73108  86401399.77407  21099985.804 7  21099983.506 7
  21099985.934 7  21099982.732 8  82801359.39208

  20199443.858 8 108167538.82108  84130507.46207
  20199448.152 7

  22704145.400 6 121025930.47306


  23377735.655 8 122851053.60708
                  23377736.727 8  91739552.88208  23377738.193 8  99716867.03408
  23377735.039 8  94132738.25308  23377735.883 8  92936148.64008
  19431260.181 8 103944260.86708


  24896545.472 6 130832447.54506 101947477.03704  24896549.545 4  24896545.204 4
  24896549.371 5  24896548.409 6  97699690.50406

  21299561.593 7 113858543.20907


  22806270.190 7 122084236.22207  94954658.56207
  22806276.230 7

  28297557.456 6 148704695.76806
                  28297566.759 6 111045769.31406  28297563.216 6 120701841.55806
  28297564.160 6 113942601.63706  28297565.146 6 112494185.55106
  24033856.006 7 126299114.51407
                  24033857.659 8  94314487.82508  24033859.510 8 102515674.48308
  24033855.948 8  96774835.83508  24033856.815 8  95544667.40208
  21963341.635 7 115418440.01907  89936587.79505  21963342.999 5  21963341.416 5
  21963342.966 7  21963346.408 7  86189293.63707

  23537315.893 7 123689502.44607  96381482.91604  23537320.254 4  23537315.299 4
  23537320.875 6  23537317.662 7  92365588.01407

  37105958.806 7 194993170.38907
                  37105957.694 6 145611753.92506

  36826706.352 7 193525705.46407
                  36826715.593 7 144515951.58907

  25747746.484 7 135305828.99307
                  25747750.258 7 101040384.63907  25747748.488 7 109825936.81607
  25747748.304 7 103676180.22707  25747749.198 8 102358283.50608
  36983262.925 7 194348387.25907
                  36983262.689 6 145130281.48806

  25323415.846 5 133075453.72205 103695187.01302  25323423.279 2  25323415.189 2
  25323424.652 5  25323423.828 6  99374554.54506

  23019844.864 7 122924746.19107  95608207.29107
  23019849.869 7

  27458373.500 6 144294771.55106
                  27458375.567 6 107752617.16506  27458374.598 6 117122385.09106
  27458373.554 6 110563548.86106  27458374.491 6 109158083.08306
  20603648.179 8 108273371.29408  84369057.01907  20603649.957 7  20603648.045 7
  20603650.538 8  20603647.148 8  80853765.66008

  24792526.184 6 130285621.33106 101521284.24103  24792529.454 3  24792525.992 3
  24792529.171 6  24792532.411 6  97291242.95006

  21478464.676 8 114855053.35808  89331782.72407
  21478470.365 7

  23773260.228 6 124929401.05806  97347639.56104  23773264.892 4  23773259.607 4
  23773265.549 6  23773263.811 7  93291492.95107

  23696653.678 6 124526997.29606  97034153.21304  23696656.185 4  23696653.365 4
  23696656.189 6

  24157685.015 6 129091341.54906 100404421.13206
  24157694.226 6

  22767854.275 7 119645961.68407  93230645.35505  22767852.166 5  22767853.189 5


 25  4 11  4 17  0.0000000  0 31G18E19E29G23R22G10R08R10E33R23G24R01
                                R07E13E26G28G08S33S31E07S35G25R09E12
                                G32G01R24G27G31R11G02
  24907800.450 6 130891636.13306 101993622.06703  24907805.443 3  24907800.321 3
  24907805.845 6  24907809.150 7  97743944.18307

  24366666.094 6 128047892.38406
                  24366668.114 7  95620326.51107  24366668.478 6 103934849.44606
  24366665.988 6  98114712.55106  24366666.791 7  96867537.10607
  23193795.129 8 121884719.12308
                  23193796.190 8  91018104.46608  23193798.033 8  98932615.49608
  23193794.683 8  93392451.68708  23193795.212 8  92205173.15008
  22996843.345 7 120849676.97807  94168854.41505  22996844.776 5  22996843.086 5
  22996844.777 6  22996847.691 7  90245172.27207

  21706231.509 7 115869453.51607  90120765.83606
  21706237.046 6

  21100837.961 8 110886014.33008  86404897.38907  21100839.942 7  21100837.657 7
  21100839.914 7  21100836.977 8  82804711.27408

  20202941.223 8 108186267.98608  84145074.59907
  20202945.514 7

  22697079.174 6 120988254.06006


  23375231.020 8 122837891.93408
                  23375232.134 8  91729724.36808  23375233.537 8  99706183.86108
  23375230.457 8  94122653.34408  23375231.287 8  92926191.92908
  19435428.767 8 103966560.32808


  24906313.248 6 130883779.82406 101987476.29004  24906317.576 4  24906312.989 4
  24906318.147 5  24906316.248 6  97738023.14106

  21295294.514 7 113835736.39607


  22813942.990 7 122125311.50807  94986605.99107
  22813949.300 7

  28305795.626 6 148747990.09806
                  28305805.139 6 111078099.46706  28305802.110 6 120736983.05606
  28305802.348 6 113975775.20906  28305803.860 6 112526937.41406
  24038758.080 7 126324874.77907
                  24038759.721 8  94333724.38208  24038761.622 8 102536583.79408
  24038757.956 8  96794574.22308  24038758.845 8  95564154.87508
  21955087.687 7 115375062.98207  89902787.55205  21955088.697 5  21955087.473 5
  21955088.773 7  21955091.942 7  86156901.74907

  23541283.447 7 123710352.30607  96397729.56204  23541287.616 4  23541282.866 4
  23541288.365 6  23541285.501 7  92381157.72307

  37105957.746 7 194993168.44007
                  37105957.345 6 145611752.41206

  36826706.621 7 193525693.63307
                  36826713.312 7 144515942.84707

  25754284.850 7 135340189.77407
                  25754288.899 7 101066043.66307  25754287.282 7 109853827.05207
  25754286.832 7 103702508.61107  25754287.850 8 102384277.21008
  36983268.715 7 194348424.86607
                  36983269.755 6 145130309.63306

  25317169.085 5 133042624.85805 103669606.09602  25317175.899 2  25317168.419 2
  25317178.102 5  25317176.496 6  99350039.55606

  23019681.812 7 122923874.70707  95607529.49307
  23019686.837 7

  27450579.349 6 144253813.91406
                  27450581.473 6 107722032.00806  27450580.537 6 117089140.32306
  27450579.334 6 110532165.80706  27450580.395 6 109127098.98106
  20605389.450 8 108282523.19808  84376188.38607  20605391.506 7  20605389.321 7
  20605391.967 8  20605388.660 8  80860599.89008

  24782583.902 6 130233374.63606 101480572.60003  24782587.320 3  24782583.706 3
  24782586.706 6  24782590.293 6  97252227.62206

  21470035.550 8 114809974.82408  89296721.67407
  21470040.970 7

  23780910.698 6 124969601.98406  97378964.95704  23780914.922 4  23780910.064 4
  23780915.718 6  23780913.437 7  93321513.12307

  23685716.781 6 124469519.45906  96989365.36704  23685718.498 4  23685716.460 4
  23685718.600 6

  24147666.709 6 129037813.69206 100362788.42206
  24147678.202 6

  22760908.528 7 119609460.92807  93202203.23205  22760906.216 5  22760907.442 5


 25  4 11  4 17 15.0000000  0 31G18E19E29G23R22G10R08R10E33R23G24R01
                                R07E13E26G28G08S33S31E07S35G25R09E12
                                G32G01R24G27G31R11G02
  24918494.709 6 130947840.91406 102037417.94903  24918500.840 3  24918494.562 3
  24918501.527 6  24918504.861 7  97785915.21007

  24361871.476 6 128022696.11106
                  24361873.357 7  95601511.15207  24361873.590 6 103914397.96006
  24361871.450 6  98095406.36006  24361872.045 7  96848476.33007
  23194729.332 8 121889628.94108
                  23194730.539 8  91021770.90108  23194732.335 8  98936600.74508
  23194728.956 8  93396213.76308  23194729.513 8  92208887.40508
  23002658.907 7 120880239.92407  94192669.68005  23002660.644 5  23002658.644 5
  23002661.245 7  23002663.661 7  90267995.23207

  21717756.883 7 115930977.90407  90168618.11707
  21717762.603 7

  21101700.510 8 110890546.93408  86408429.29307  21101702.478 7  21101700.211 7
  21101702.283 7  21101699.407 8  82808096.01808

  20206446.262 8 108205037.60608  84159673.19107
  20206450.509 7

  22690029.217 6 120950677.10006


  23372742.426 8 122824813.20808
                  23372743.334 8  91719957.80208  23372744.760 8  99695568.02308
  23372741.579 8  94112631.99608  23372742.480 8  92916297.97208
  19439634.434 8 103989054.83508


  24916093.916 6 130935175.31306 102027524.82504  24916097.735 4  24916093.644 4
  24916097.858 5  24916096.554 6  97776403.00106

  21291040.376 7 113812990.92007


  22821612.687 7 122166366.62307  95018537.74307
  22821618.906 7

  28314038.187 6 148791302.59806
                  28314047.419 6 111110443.16706  28314044.054 6 120772139.25906
  28314044.907 6 114008962.67006  28314046.004 6 112559702.99206
  24043674.949 7 126350713.35407
                  24043676.707 8  94353019.41308  24043678.301 8 102557556.65608
  24043674.810 8  96814372.60008  24043675.760 8  95583701.57908
  21946848.217 7 115331765.44707  89869049.25305  21946849.450 5  21946848.007 5
  21946849.722 7  21946852.637 8  86124569.22508

  23545267.879 7 123731290.42807  96414044.98604  23545272.265 4  23545267.294 4
  23545273.190 6  23545269.927 7  92396793.33307

  37105959.078 7 194993164.05307
                  37105956.554 6 145611749.01706

  36826701.349 7 193525679.37707
                  36826710.669 7 144515932.10907

  25760825.427 7 135374560.77607
                  25760829.612 7 101091710.30407  25760827.495 7 109881725.58407
  25760827.632 7 103728844.82107  25760828.453 8 102410278.63708
  36983277.176 7 194348460.23607
                  36983276.659 6 145130336.06406

  25310923.024 5 133009803.18505 103644030.80302  25310930.146 2  25310922.412 2
  25310931.069 6  25310930.650 6  99325529.89106

  23019549.081 7 122923168.76507  95606980.44507
  23019555.002 7

  27442788.060 6 144212869.78206
                  27442789.863 6 107691456.91406  27442789.336 6 117055906.50706
  27442787.773 6 110500793.10106  27442788.888 6 109096125.08206
  20607145.900 8 108291752.58808  84383380.12607  20607147.785 7  20607145.771 7
  20607148.265 8  20607144.928 8  80867491.97808

  24772644.199 6 130181140.24306 101439870.52203  24772646.952 3  24772643.989 3
  24772647.369 6  24772650.572 7  97213221.49207

  21461630.157 8 114765030.72808  89261765.17007
  21461635.414 7

  23788564.898 6 125009826.98506  97410309.09904  23788569.325 4  23788564.259 4
  23788569.988 6  23788568.212 7  93351551.26307

  23674780.865 6 124412050.50206  96944584.43604  23674781.884 4  23674780.548 4
  23674782.856 6

  24137643.173 6 128984245.04806 100321123.96406
  24137652.671 6

  22753976.068 7 119573032.12407  93173817.18205  22753974.002 5  22753974.986 5


 25  4 11  4 17 30.0000000  0 31G18E19E29G23R22G10R08R10E33R23G24R01
                                R07E13E26G28G08S33S31E07S35G25R09E12
                                G32G01R24G27G31R11G02
  24929194.762 6 131004068.99206 102081231.96803  24929201.317 3  24929194.588 3
  24929200.876 6  24929204.794 7  97827903.64007

  24357088.095 6 127997560.38606
                  24357090.133 7  95582741.02207  24357090.417 6 103893995.61606
  24357087.987 6  98076146.55506  24357088.853 7  96829461.36307
  23195676.083 8 121894603.92608
                  23195677.195 8  91025486.00208  23195679.050 8  98940638.89208
  23195675.629 8  93400025.78008  23195676.209 8  92212650.96408
  23008482.665 7 120910843.34107  94216516.47605  23008484.284 5  23008482.406 5
  23008484.789 7  23008487.426 7  90290848.41707

  21729297.284 7 115992577.35807  90216528.73506
  21729302.454 6

  21102571.988 8 110895126.05108  86411997.43807  21102573.872 7  21102571.698 7
  21102573.800 7  21102570.767 8  82811515.49108

  20209959.036 8 108223849.71308  84174304.83107
  20209963.459 7

  22682997.802 6 120913202.80806


  23370269.867 8 122811820.05608
                  23370270.812 8  91710255.13008  23370272.257 8  99685021.63708
  23370269.062 8  94102676.21208  23370269.955 8  92906468.74408
  19443876.368 8 104011746.77608


  24925886.296 6 130986636.10406 102067624.23204  24925890.539 4  24925886.028 4
  24925890.761 5  24925889.364 6  97814831.63706

  21286795.892 7 113790308.93807


  22829278.073 7 122207403.99807  95050455.69307
  22829284.428 7

  28322283.936 6 148834635.46906
                  28322293.355 6 111142802.10906  28322289.680 6 120807312.02606
  28322290.441 6 114042165.75806  28322291.998 6 112592484.00506
  24048607.162 7 126376632.53807
                  24048608.971 8  94372374.65008  24048610.686 8 102578594.95308
  24048607.094 8  96834232.75608  24048608.041 8  95603309.27608
  21938623.979 7 115288550.18007  89835375.05505  21938625.877 5  21938623.743 5
  21938626.211 7  21938629.029 7  86092298.12307

  23549269.839 6 123752318.93706  96430430.84104  23549273.585 4  23549269.263 4
  23549274.298 6  23549271.404 7  92412496.43207

  37105958.350 7 194993160.77107
                  37105955.905 6 145611746.89806

  36826700.392 7 193525665.64307
                  36826708.103 7 144515921.82407

  25767368.655 7 135408944.22007
                  25767372.600 7 101117386.24207  25767370.833 7 109909634.22507
  25767370.592 7 103755190.57807  25767371.407 8 102436289.48408
  36983281.218 7 194348495.99007
                  36983283.375 6 145130362.59106

  25304679.275 5 132976991.42605 103618463.24802  25304686.263 2  25304678.654 2
  25304687.227 5  25304687.307 6  99301027.62506

  23019447.370 7 122922630.94507  95606562.17807
  23019453.894 7

  27435000.004 6 144171941.77006
                  27435001.352 6 107660893.85906  27435000.821 6 117022685.78406
  27434999.602 6 110469432.74306  27435000.515 6 109065163.37006
  20608917.310 8 108301061.71208  84390633.99907  20608919.236 7  20608917.181 7
  20608919.680 8  20608916.372 8  80874443.60808

  24762707.035 6 130128920.83806 101399180.14303  24762709.791 3  24762706.839 3
  24762709.940 6  24762713.177 7  97174226.55607

  21453251.328 8 114720224.45008  89226915.86807
  21453256.934 7

  23796224.672 6 125050078.07306  97441673.58104  23796228.995 4  23796224.024 4
  23796229.421 6  23796227.682 7  93381608.88507

  23663846.707 6 124354593.18406  96899812.57104  23663847.779 4  23663846.399 4
  23663848.950 6

  24127611.692 6 128930639.24106 100279430.59706
  24127620.877 6

  22747058.205 7 119536678.01407  93145489.32805  22747056.183 5  22747057.128 5


 25  4 11  4 17 45.0000000  0 31G18E19E29G23R22G10R08R10E33R23G24R01
                                R07E13E26G28G08S33S31E07S35G25R09E12
                                G32G01R24G27G31R11G02
  24939898.302 6 131060319.07506 102125063.15903  24939905.084 3  24939898.124 3
  24939904.677 6  24939909.050 7  97869908.52907

  24352316.268 6 127972484.38506
                  24352318.226 7  95564015.46607  24352318.544 6 103873641.75406
  24352316.199 6  98056932.51506  24352317.015 7  96810491.56507
  23196635.043 8 121899642.97508
                  23196636.080 8  91029248.93608  23196637.931 8  98944729.03508
  23196634.537 8  93403886.87508  23196635.095 8  92216462.97908
  23014313.760 7 120941486.31507  94240394.10705  23014315.875 5  23014313.506 5
  23014315.884 7  23014318.521 7  90313731.13407

  21740850.404 7 116054250.30307  90264496.55606
  21740855.926 6

  21103451.747 8 110899750.81308  86415601.15607  21103453.959 7  21103451.457 7
  21103453.699 7  21103450.844 8  82814969.05608

  20213480.528 8 108242703.06408  84188968.54907
  20213484.319 7

  22675987.274 6 120875830.45606


  23367813.416 8 122798911.61808
                  23367814.402 8  91700615.72708  23367815.845 8  99674544.02108
  23367812.692 8  94092785.34208  23367813.554 8  92896703.60808
  19448154.790 8 104034634.82708


  24935691.175 5 131038160.79305 102107773.41204  24935695.238 4  24935690.903 4
  24935694.857 5  24935693.457 6  97853307.95606

  21282565.630 7 113767689.32707


  22836941.246 7 122248422.20607  95082358.72807
  22836947.948 7

  28330533.532 6 148877987.61706
                  28330542.902 6 111175175.44706  28330539.280 6 120842500.44106
  28330540.181 6 114075383.61406  28330541.713 6 112625279.60606
  24053554.712 7 126402631.33107
                  24053556.410 8  94391789.32508  24053558.194 8 102599697.86008
  24053554.491 8  96854153.90108  24053555.439 8  95622977.18608
  21930416.422 7 115245416.55007  89801764.47505  21930417.812 5  21930416.168 5
  21930417.800 7  21930420.985 8  86060087.99608

  23553288.520 6 123773436.52406  96446886.11004  23553292.102 4  23553287.939 4
  23553293.198 6  23553290.007 7  92428266.07607

  37105956.391 7 194993156.76607
                  37105955.069 6 145611743.87106

  36826695.992 7 193525652.00707
                  36826705.473 7 144515911.96407

  25773913.693 7 135443338.99707
                  25773917.605 7 101143070.64707  25773915.717 7 109937552.04807
  25773915.644 7 103781545.00507  25773916.525 8 102462308.90008
  36983290.300 7 194348531.75707
                  36983290.038 6 145130389.57906

  25298436.845 5 132944188.88605 103592902.84502  25298444.071 2  25298436.219 2
  25298445.622 5  25298444.954 6  99276532.31006

  23019379.419 7 122922260.49807  95606274.06707
  23019384.867 7

  27427214.306 6 144131029.14506
                  27427215.996 6 107630342.28306  27427215.521 6 116989477.49906
  27427214.087 6 110438084.15406  27427215.054 7 109034213.29007
  20610703.720 8 108310449.36608  84397949.06407  20610705.632 7  20610703.591 7
  20610706.244 8  20610702.800 8  80881453.87608

  24752772.189 6 130076715.73206 101358500.89303  24752775.039 3  24752771.988 3
  24752775.628 6  24752778.361 6  97135242.29406

  21444897.985 8 114675555.13508  89192173.10107
  21444903.678 7

  23803888.917 6 125090353.90606  97473057.34404  23803893.584 4  23803888.278 4
  23803893.527 7  23803891.588 7  93411684.99207

  23652914.503 6 124297146.93906  96855049.34904  23652916.303 4  23652914.168 4
  23652917.148 6

  24117572.072 6 128876995.45206 100237707.68606
  24117582.501 6

  22740153.962 7 119500397.88307  93117219.12305  22740152.231 5  22740152.903 5


 25  4 11  4 18  0.0000000  0 31G18E19E29G23R22G10R08R10E33R23G24R01
                                R07E13E26G28G08S33S31E07S35G25R09E12
                                G32G01R24G27G31R11G02
  24950607.906 6 131116594.80706 102168914.32703  24950613.914 3  24950607.674 3
  24950614.070 6  24950617.365 7  97911932.53807

  24347556.536 6 127947472.02906
                  24347558.658 7  95545337.44307  24347558.945 6 103853339.53506
  24347556.496 6  98037767.23206  24347557.259 7  96791569.91307
  23197606.855 8 121904749.76008
                  23197607.913 8  91033062.45908  23197609.670 8  98948874.16408
  23197606.324 8  93407799.88408  23197606.881 8  92220326.24508
  23020153.362 7 120972172.73607  94264305.58205  23020155.461 5  23020153.103 5
  23020155.169 7  23020157.986 7  90336646.29307

  21752417.824 7 116116000.12907  90312524.16706
  21752423.942 6

  21104341.441 8 110904425.18408  86419243.52607  21104343.467 7  21104341.155 7
  21104343.288 7  21104340.322 8  82818459.66008

  20217009.432 8 108261601.45008  84203667.29607
  20217013.719 7

  22668996.912 6 120838564.41906


  23365373.937 8 122786091.91308
                  23365374.893 8  91691042.57908  23365376.349 8  99664138.42508
  23365373.193 8  94082962.46208  23365374.024 8  92887005.59408
  19452470.584 8 104057722.74308


  24945509.012 5 131089752.92105 102147975.15604  24945512.274 4  24945508.722 4
  24945513.336 5  24945511.026 6  97891834.65706

  21278345.602 7 113745135.79307


  22844601.069 7 122289425.51507  95114250.20207
  22844606.844 7

  28338787.799 6 148921362.71906
                  28338797.155 6 111207565.92606  28338793.597 6 120877707.50906
  28338794.523 6 114108619.07606  28338795.715 6 112658092.58106
  24058518.065 7 126428713.45307
                  24058519.700 8  94411266.23008  24058521.390 8 102620868.41308
  24058517.739 8  96874138.89908  24058518.703 8  95642708.13808
  21922224.684 7 115202368.74407  89768220.77505  21922226.058 5  21922224.430 5
  21922225.920 7  21922229.189 8  86027941.95508

  23557324.415 6 123794646.71906  96463413.53504  23557328.104 4  23557323.830 4
  23557329.770 6  23557326.049 7  92444104.85507

  37105959.454 7 194993155.65007
                  37105954.962 6 145611742.82506

  36826693.358 7 193525640.72207
                  36826703.349 7 144515903.37507

  25780461.513 7 135477748.76707
                  25780465.631 7 101168766.25607  25780463.719 7 109965482.05707
  25780463.602 7 103807910.93407  25780464.496 8 102488339.66908
  36983295.961 7 194348570.11807
                  36983297.443 6 145130418.09606

  25292198.180 5 132911399.99205 103567353.12502  25292204.699 2  25292197.532 2
  25292205.256 5  25292205.539 6  99252047.11306

  23019341.696 7 122922061.04807  95606118.97607
  23019348.148 7

  27419432.596 6 144090135.82906
                  27419434.205 6 107599805.14406  27419433.419 6 116956284.92806
  27419432.476 6 110406750.39406  27419433.281 6 109003277.84406
  20612505.695 8 108319919.20008  84405328.16407  20612507.714 7  20612505.561 7
  20612508.081 8  20612504.852 8  80888525.51908

  24742842.032 6 130024528.96206 101317835.93503  24742844.250 3  24742841.809 3
  24742844.976 6  24742847.503 6  97096271.74106

  21436570.883 8 114631027.27708  89157540.36207
  21436576.237 7

  23811558.727 6 125130657.91306  97504463.06304  23811563.258 4  23811558.093 4
  23811563.215 6  23811561.548 7  93441782.13507

  23641985.911 6 124239715.94306  96810297.99704  23641987.550 4  23641985.576 4
  23641988.760 6

  24107527.152 6 128823317.86006 100195958.61206
  24107537.544 6

  22733265.011 7 119464195.75007  93089009.69305  22733263.191 5  22733263.943 5


 25  4 11  4 18 15.0000000  0 31G18E19E29G23R22G10R08R10E33R23G24R01
                                R07E13E26G28G08S33S31E07S35G25R09E12
                                G32G01R24G27G31R11G02
  24961321.216 6 131172891.70806 102212781.97203  24961326.754 3  24961320.984 3
  24961327.227 6  24961330.621 7  97953972.35507

  24342808.068 6 127922519.06206
                  24342810.203 7  95526703.77507  24342810.318 6 103833085.52506
  24342807.934 6  98018647.46506  24342808.811 7  96772693.19507
  23198590.554 8 121909919.99508
                  23198591.733 8  91036923.35808  23198593.491 8  98953070.79308
  23198590.125 8  93411761.49908  23198590.732 8  92224237.50208
  23025999.949 7 121002898.40607  94288247.65205  23026002.206 5  23025999.695 5
  23026002.367 7  23026004.724 7  90359590.78007

  21763999.211 7 116177822.15307  90360607.94806
  21764004.690 6

  21105239.653 8 110909145.10008  86422921.38307  21105241.628 7  21105239.372 7
  21105241.526 7  21105238.463 8  82821984.27608

  20220545.884 8 108280540.42008  84218397.60007
  20220550.080 7

  22662024.188 6 120801401.57306


  23362950.487 8 122773356.90908
                  23362951.510 8  91681532.69108  23362952.928 8  99653801.57808
  23362949.740 8  94073204.48108  23362950.615 8  92877371.66008
  19456823.545 8 104081006.02808


  24955338.968 5 131141407.94105 102188225.90704  24955341.531 4  24955338.691 4
  24955342.410 5  24955340.698 6  97930408.30006

  21274138.498 7 113722643.97507


  22852257.281 7 122330409.49107  95146126.60907
  22852263.339 7

  28347045.200 6 148964756.43406
                  28347054.860 6 111239970.30006  28347052.027 6 120912929.64606
  28347052.551 6 114141868.76106  28347053.273 6 112690919.60906
  24063496.062 7 126454874.69207
                  24063497.993 8  94430802.21108  24063499.842 8 102642103.18408
  24063496.111 8  96894184.51908  24063497.037 8  95662498.93808
  21914048.452 7 115159402.96507  89734740.98505  21914049.934 5  21914048.189 5
  21914050.012 7  21914053.033 8  85995857.16408

  23561377.079 6 123815945.04206  96480009.64404  23561381.192 4  23561376.498 4
  23561382.191 6  23561379.059 7  92460009.45707

  37105954.419 7 194993154.10007
                  37105954.479 6 145611741.97606

  36826690.742 7 193525629.50007
                  36826700.997 7 144515895.09707

  25787011.632 7 135512169.21807
                  25787015.647 7 101194469.83007  25787013.791 7 109993420.72907
  25787013.762 7 103834285.02907  25787014.502 8 102514378.50508
  36983302.878 7 194348607.54807
                  36983304.463 6 145130446.13706

  25285960.110 5 132878620.69205 103541810.86502  25285966.875 2  25285959.480 2
  25285968.880 5  25285967.778 6  99227569.14306

  23019335.682 7 122922028.66207  95606093.81507
  23019341.186 7

  27411653.419 6 144049257.89206
                  27411655.117 6 107569279.48806  27411654.475 6 116923104.84706
  27411653.458 6 110375428.40306  27411654.370 7 108972354.02007
  20614322.524 8 108329466.86308  84412767.91007  20614324.583 7  20614322.386 7
  20614325.141 8  20614321.651 8  80895655.28008

  24732913.547 6 129972356.72206 101277182.30603  24732916.076 3  24732913.319 3
  24732916.516 6  24732919.716 6  97057312.01306

  21428269.993 8 114586637.03208  89123014.63307
  21428275.146 7

  23819232.891 6 125170985.54406  97535887.18804  23819237.335 4  23819232.261 4
  23819237.584 7  23819235.641 7  93471896.93107

  23631059.178 6 124182296.26806  96765555.46804  23631060.787 4  23631058.839 4
  23631061.694 6

  24097477.437 6 128769602.95506 100154180.36906
  24097484.712 6

  22726390.229 7 119428067.78907  93060858.06305  22726388.456 5  22726389.156 5


 25  4 11  4 18 30.0000000  0 31G18E19E29G23R22G10R08R10E33R23G24R01
                                R07E13E26G28G08S33S31E07S35G25R09E12
                                G32G01R24G27G31R11G02
  24972038.205 5 131229209.57705 102256665.97703  24972043.485 3  24972037.942 3
  24972043.795 6  24972047.598 7  97996027.84807

  24338070.885 6 127897625.67406
                  24338073.216 7  95508114.60007  24338073.470 6 103812879.88006
  24338070.925 6  97999573.34906  24338071.735 7  96753861.54907
  23199586.563 8 121915153.66808
                  23199587.641 8  91040831.63508  23199589.458 8  98957318.91008
  23199586.037 8  93415771.73108  23199586.666 8  92228196.75608
  23031854.454 7 121033663.53107  94312220.45505  23031856.686 5  23031854.195 5
  23031857.121 7  23031859.204 7  90382564.71007

  21775595.117 7 116239716.01307  90408747.57807
  21775599.712 7

  21106146.419 8 110913910.76908  86426634.89907  21106148.469 7  21106146.138 7
  21106148.357 7  21106145.391 8  82825543.06708

  20224090.814 8 108299519.70408  84233159.26908
  20224094.438 8

  22655073.081 6 120764341.99206


  23360543.387 8 122760706.90408
                  23360544.217 8  91672086.27108  23360545.689 8  99643533.72508
  23360542.486 8  94063511.63308  23360543.380 8  92867802.02708
  19461212.139 8 104104484.65608


  24965180.117 6 131193125.58906 102228525.45104  24965182.579 4  24965179.836 4
  24965183.929 5  24965182.536 6  97969028.72006

  21269942.794 7 113700213.93107


  22859909.444 7 122371373.90607  95177987.79507
  22859916.081 7

  28355306.463 6 149008168.71406
                  28355316.112 6 111272388.52906  28355312.802 6 120948166.90306
  28355313.340 6 114175132.71606  28355314.493 6 112723760.69606
  24068489.547 7 126481115.09607
                  24068491.428 8  94450397.31808  24068492.997 8 102663402.20708
  24068489.443 8  96914290.80008  24068490.417 8  95682349.63208
  21905888.481 7 115116519.66107  89701325.46105  21905889.468 5  21905888.222 5
  21905889.489 7  21905892.546 8  85963833.96708

  23565447.208 6 123837331.36106  96496674.31004  23565451.160 4  23565446.641 4
  23565451.464 6  23565448.818 7  92475979.76307

  37105958.130 7 194993151.85207
                  37105954.112 6 145611740.35806

  36826691.994 7 193525617.10507
                  36826698.650 7 144515885.88507

  25793563.610 7 135546600.30607
                  25793567.597 7 101220181.35507  25793565.990 7 110021368.04307
  25793565.677 7 103860667.29107  25793566.534 8 102540425.39808
  36983311.576 7 194348644.38207
                  36983311.421 6 145130473.82406

  25279724.429 5 132845851.59505 103516276.52502  25279731.376 2  25279723.812 2
  25279731.659 6  25279731.949 6  99203098.77706

  23019360.909 7 122922163.77007  95606198.92707
  23019366.202 7

  27403877.998 6 144008395.73306
                  27403879.582 6 107538765.58206  27403878.847 6 116889937.53806
  27403877.423 6 110344118.48406  27403878.478 7 108941442.10607
  20616154.230 8 108339092.27808  84420268.24407  20616156.222 7  20616154.092 7
  20616156.773 8  20616153.353 8  80902843.10408

  24722988.145 6 129920199.39106 101236540.30103  24722990.840 3  24722987.913 3
  24722991.752 6  24722994.598 7  97018363.44507

  21419994.616 8 114542385.13908  89088596.52807
  21419999.636 7

  23826911.173 6 125211336.56406  97567329.53804  23826915.822 4  23826910.556 4
  23826915.685 7  23826913.937 7  93502029.18907

  23620134.750 6 124124888.67606  96720822.35004  23620136.720 4  23620134.402 4
  23620137.786 6

  24087415.794 6 128715850.99806 100112373.37706
  24087425.731 6

  22719529.336 7 119392014.47807  93032764.59805  22719527.752 5  22719528.250 5


 25  4 11  4 18 45.0000000  0 31G18E19E29G23R22G10R08R10E33R23G24R01
                                R07E13E26G28G08S33S31E07S35G25R09E12
                                G32G01R24G27G31R11G02
  24982759.781 5 131285549.95505 102300567.49303  24982765.242 3  24982759.504 3
  24982765.183 6  24982769.242 7  98038100.12607

  24333345.831 6 127872793.35106
                  24333347.730 7  95489571.04007  24333347.793 6 103792723.81706
  24333345.588 6  97980546.01706  24333346.259 7  96735076.10407
  23200594.818 8 121920452.38008
                  23200595.949 8  91044788.47208  23200597.799 8  98961619.81808
  23200594.398 8  93419831.78908  23200594.963 8  92232205.20408
  23037716.584 7 121064469.87007  94336225.37705  23037718.894 5  23037716.312 5
  23037719.021 7  23037721.655 7  90405569.41807

  21787203.335 7 116301682.93507  90456944.05106
  21787208.168 6

  21107062.399 8 110918724.07808  86430385.53607  21107064.418 7  21107062.118 7
  21107064.076 7  21107061.284 8  82829137.43108

  20227642.117 8 108318541.08608  84247953.68107
  20227646.439 7

  22648141.011 6 120727388.26406


  23358152.865 8 122748143.77808
                  23358153.604 8  91662704.73108  23358154.994 8  99633336.39208
  23358151.814 8  94053885.35308  23358152.685 8  92858298.11608
  19465638.395 8 104128159.98608


  24975033.374 6 131244907.28406 102268874.92104  24975036.224 4  24975033.084 4
  24975037.402 5  24975035.936 6  98007696.97506

  21265758.217 7 113677847.44807


  22867558.956 7 122412320.64907  95209835.26207
  22867565.472 7

  28363571.251 6 149051601.20906
                  28363580.666 6 111304821.84606  28363577.726 6 120983420.51706
  28363578.109 6 114208412.12406  28363579.464 6 112756617.05306
  24073498.373 7 126507436.33607
                  24073500.144 8  94470052.78108  24073501.845 8 102684766.84508
  24073498.196 8  96934459.02008  24073499.180 8  95702261.47308
  21897743.946 7 115073720.93907  89667975.84705  21897745.070 5  21897743.692 5
  21897745.231 7  21897748.284 8  85931873.92408

  23569533.877 7 123858807.03107  96513408.60704  23569538.107 4  23569533.314 4
  23569538.173 6  23569535.478 7  92492016.80407

  37105955.519 7 194993149.33507
                  37105953.848 6 145611738.00606

  36826690.085 7 193525605.12107
                  36826696.521 7 144515876.69607

  25800117.738 7 135581043.62407
                  25800121.903 7 101245902.00607  25800120.100 7 110049325.27807
  25800119.919 7 103887058.91907  25800120.882 8 102566481.53608
  36983319.173 7 194348681.98307
                  36983318.755 6 145130501.73906

  25273490.828 5 132813094.78005 103490751.83002  25273497.872 2  25273490.144 2
  25273499.139 5  25273498.477 6  99178637.63006

  23019417.708 7 122922468.06407  95606435.63707
  23019423.496 7

  27396105.115 6 143967551.16706
                  27396106.989 6 107508264.81606  27396106.250 6 116856784.53206
  27396105.311 6 110312822.06306  27396105.958 7 108910543.51107
  20618001.009 8 108348796.99808  84427830.37207  20618002.958 7  20618000.875 7
  20618003.346 8  20618000.046 8  80910090.14108

  24713066.292 6 129868058.98506 101195911.50103  24713069.312 3  24713066.064 3
  24713069.250 6  24713072.441 6  96979427.51606

  21411745.448 8 114498273.73108  89054287.68307
  21411750.704 7

  23834593.993 6 125251712.29606  97598791.13604  23834599.022 4  23834593.367 4
  23834598.788 6  23834597.310 7  93532179.86707

  23609213.617 6 124067495.03606  96676100.10604  23609214.899 4  23609213.296 4
  23609215.291 6

  24077352.557 6 128662064.52706 100070539.47306
  24077360.359 6

  22712683.213 7 119356037.78907  93004730.84005  22712681.444 5  22712682.127 5


 25  4 11  4 19  0.0000000  0 31G18E19E29G23R22G10R08R10E33R23G24R01
                                R07E13E26G28G08S33S31E07S35G25R09E12
                                G32G01R24G27G31R11G02
  24993484.224 6 131341910.67906 102344484.88303  24993490.152 3  24993483.952 3
  24993489.849 6  24993494.097 7  98080187.60207

  24328631.509 6 127848020.74706
                  24328633.573 7  95471072.03407  24328633.814 6 103772616.19206
  24328631.371 6  97961564.45206  24328632.136 7  96716335.81807
  23201615.232 8 121925814.14208
                  23201616.255 8  91048792.39508  23201618.128 8  98965971.90808
  23201614.664 8  93423940.16408  23201615.266 8  92236261.35308
  23043586.472 7 121095315.60507  94360260.99705  23043588.578 5  23043586.204 5
  23043588.814 7  23043591.260 7  90428603.55107

  21798824.965 7 116363720.52807  90505195.46606
  21798829.583 6

  21107987.056 8 110923583.26208  86434171.91907  21107989.101 7  21107986.766 7
  21107989.213 7  21107985.964 8  82832766.04908

  20231201.686 8 108337602.26208  84262779.04007
  20231206.042 7

  22641226.713 6 120690538.85206


  23355778.071 8 122735665.83808
                  23355779.127 8  91653386.79608  23355780.476 8  99623208.20608
  23355777.297 8  94044324.34408  23355778.191 8  92848858.64408
  19470100.292 8 104152030.02808


  24984899.034 6 131296750.76906 102309272.53904  24984901.983 4  24984898.726 4
  24984902.981 5  24984901.238 6  98046411.37306

  21261585.762 7 113655542.29907


  22875204.026 7 122453247.78807  95241667.46607
  22875210.362 7

  28371840.003 6 149095051.84706
                  28371849.174 6 111337268.75006  28371845.770 6 121018688.86506
  28371846.237 6 114241705.44506  28371847.897 6 112789487.16906
  24078522.314 7 126533836.47207
                  24078523.926 8  94489767.16608  24078525.603 8 102706195.52608
  24078521.941 8  96954687.68808  24078522.959 8  95722233.00008
  21889615.356 7 115031005.31107  89634690.97705  21889616.469 5  21889615.097 5
  21889616.573 7  21889619.678 8  85899975.93108

  23573636.509 7 123880370.01107  96530210.93504  23573641.469 4  23573635.933 4
  23573641.975 6  23573638.761 7  92508119.02907

  37105954.133 7 194993147.12707
                  37105953.227 6 145611736.60806

  36826683.628 7 193525592.68107
                  36826694.097 7 144515867.46707

  25806674.104 7 135615497.16507
                  25806678.329 7 101271630.29407  25806676.588 7 110077290.81707
  25806676.090 7 103913458.39007  25806677.166 8 102592545.41608
  36983324.463 7 194348718.43507
                  36983325.605 6 145130528.85306

  25267258.687 5 132780348.90305 103465235.60102  25267266.264 2  25267257.972 2
  25267266.820 5  25267267.059 6  99154184.57306

  23019506.152 7 122922939.70007  95606802.48207
  23019511.113 7

  27388336.338 6 143926722.57406
                  27388337.521 6 107477776.01706  27388336.674 6 116823644.48806
  27388335.592 6 110281537.85406  27388336.504 6 108879657.01006
  20619862.498 8 108358578.96908  84435452.69807  20619864.396 7  20619862.360 7
  20619864.812 8  20619861.458 8  80917394.87608

  24703146.720 6 129815933.90406 101155294.65303  24703150.372 3  24703146.488 3
  24703150.412 6  24703153.153 7  96940503.05607

  21403523.034 8 114454301.53008  89020087.09807
  21403527.526 7

  23842281.937 6 125292110.52606  97630270.27104  23842286.479 4  23842281.316 4
  23842286.534 6  23842284.694 7  93562347.38207

  23598293.715 6 124010113.93606  96631387.63104  23598295.710 4  23598293.349 4
  23598295.715 6

  24067280.292 6 128608241.97906 100028677.58106
  24067288.699 6

  22705851.223 7 119320136.13207  92976755.54805  22705849.515 5  22705850.141 5


 25  4 11  4 19 15.0000000  0 31G18E19E29G23R22G10R08R10E33R23G24R01
                                R07E13E26G28G08S33S31E07S35G25R09E12
                                G32G01R24G27G31R11G02
  25004212.581 5 131398292.22205 102388418.51303  25004218.652 3  25004212.295 3
  25004220.210 6  25004223.137 7  98122290.63407

  24323928.645 6 127823308.16506
                  24323930.986 7  95452617.88007  24323931.119 6 103752557.31906
  24323928.739 6  97942628.87206  24323929.442 7  96697640.95107
  23202647.524 8 121931239.60108
                  23202648.669 8  91052843.88408  23202650.448 8  98970375.69208
  23202647.065 8  93428097.34208  23202647.701 8  92240365.68608
  23049464.144 7 121126201.57407  94384327.96705  23049466.146 5  23049463.876 5
  23049466.341 7  23049468.827 7  90451667.72907

  21810460.109 7 116425829.08707  90553502.10206
  21810465.204 6

  21108920.715 8 110928489.22408  86437994.75207  21108922.677 7  21108920.429 7
  21108922.514 7  21108919.527 8  82836429.59608

  20234768.980 8 108356703.85408  84277635.83907
  20234773.257 7

  22634333.675 6 120653795.18506


  23353420.109 8 122723274.01608
                  23353420.980 8  91644133.17508  23353422.380 8  99613149.91508
  23353419.151 8  94034829.32208  23353420.081 8  92839484.32208
  19474599.446 8 104176094.94008


  24994776.544 6 131348656.45706 102349718.62204  24994779.323 4  24994776.249 4
  24994779.507 5  24994778.807 6  98085172.23506

  21257424.574 7 113633299.33007


  22882846.186 7 122494156.10307  95273485.04707
  22882852.494 7

  28380111.824 6 149138521.26306
                  28380121.049 6 111369729.67306  28380117.503 6 121053972.49106
  28380118.720 6 114275013.19006  28380119.790 6 112822371.50406
  24083561.105 7 126560316.20407
                  24083562.869 8  94509540.99008  24083564.566 8 102727688.81308
  24083560.909 8  96974977.35008  24083561.874 8  95742264.74308
  21881502.959 7 114988373.87407  89601471.72005  21881503.935 5  21881502.709 5
  21881504.228 7  21881507.115 8  85868140.82408

  23577756.633 6 123902020.65606  96547081.57704  23577761.501 4  23577756.048 4
  23577761.587 6  23577758.779 7  92524286.73107

  37105955.407 7 194993144.67407
                  37105952.713 6 145611734.97106

  36826684.146 7 193525580.50407
                  36826691.714 7 144515858.65007

  25813232.642 7 135649961.55807
                  25813236.667 7 101297366.68907  25813234.583 7 110105265.16007
  25813234.615 7 103939866.15607  25813235.525 8 102618617.49808
  36983330.723 7 194348755.16007
                  36983332.541 6 145130556.47206

  25261030.241 5 132747614.98405 103439728.70802  25261037.123 2  25261029.522 2
  25261038.237 5  25261037.666 6  99129740.44206

  23019625.801 7 122923579.68207  95607300.28807
  23019631.395 7

  27380569.732 6 143885910.97806
                  27380571.103 6 107447299.87406  27380570.655 6 116790518.23406
  27380569.284 6 110250266.68306  27380570.244 7 108848783.35307
  20621738.610 8 108368438.78008  84443135.67607  20621740.640 7  20621738.472 7
  20621741.140 8  20621737.734 8  80924757.73008

  24693231.595 6 129763825.24506 101114690.58003  24693234.155 3  24693231.376 3
  24693233.413 6  24693237.482 7  96901590.83507

  21395325.474 8 114410469.74008  88985995.73007
  21395331.133 7

  23849974.118 6 125332531.67506  97661767.26504  23849977.956 4  23849973.488 4
  23849978.924 6  23849976.776 7  93592531.99907

  23587377.161 6 123952746.57306  96586685.86804  23587379.107 4  23587376.799 4
  23587379.467 6

  24057201.084 6 128554384.44506  99986788.45206
  24057209.726 6

  22699034.003 7 119284310.57107  92948839.55906  22699032.209 6  22699032.921 6


 25  4 11  4 19 30.0000000  0 31G18E19E29G23R22G10R08R10E33R23G24R01
                                R07E13E26G28G08S33S31E07S35G25R09E12
                                G32G01R24G27G31R11G02
  25014946.743 6 131454693.50906 102432367.48403  25014951.812 3  25014946.462 3
  25014952.266 6  25014956.075 7  98164408.41907

  24319237.521 6 127798654.99006
                  24319239.504 7  95434208.08207  24319239.883 6 103732546.65006
  24319237.339 6  97923738.81406  24319238.071 7  96678991.02207
  23203692.063 8 121936727.79608
                  23203693.035 8  91056942.22808  23203694.805 8  98974830.40908
  23203691.442 8  93432302.59608  23203692.067 8  92244517.48508
  23055348.875 7 121157126.96607  94408425.65405  23055351.338 5  23055348.612 5
  23055351.083 7  23055353.668 7  90474761.34307

  21822108.296 7 116488007.35507  90601862.95607
  21822113.232 7

  21109863.012 8 110933441.24508  86441853.47107  21109864.991 7  21109862.726 7
  21109865.108 7  21109861.839 8  82840127.53508

  20238343.536 8 108375844.80108  84292523.25107
  20238347.590 7

  22627460.358 6 120617156.85206


  23351078.153 8 122710967.66308
                  23351079.201 8  91634943.38208  23351080.610 8  99603161.00808
  23351077.352 8  94025399.79008  23351078.243 8  92830174.66008
  19479134.565 8 104200353.90008


  25004665.501 5 131400623.20605 102390212.28104  25004668.379 4  25004665.211 4
  25004668.977 5  25004667.636 6  98123978.66906

  21253274.494 7 113611117.54407


  22890484.833 7 122535044.43107  95305287.06607
  22890490.782 7

  28388387.097 6 149182008.49206
                  28388396.650 6 111402203.87306  28388393.302 6 121089270.53306
  28388394.088 6 114308334.53806  28388395.065 6 112855269.28106
  24088615.004 7 126586874.66707
                  24088616.837 8  94529373.59408  24088618.374 8 102749245.99608
  24088614.757 8  96995327.32708  24088615.782 8  95762356.03408
  21873406.132 7 114945826.21107  89568317.73605  21873407.370 5  21873405.869 5
  21873407.632 7  21873410.545 8  85836368.25608

  23581893.622 6 123923757.91206  96564019.71004  23581897.832 4  23581893.037 4
  23581898.083 6  23581895.153 7  92540519.11007

  37105954.025 7 194993140.61307
                  37105952.069 6 145611731.60106

  36826679.035 7 193525566.57407
                  36826689.036 7 144515847.93207

  25819792.979 7 135684435.82707
                  25819796.820 7 101323110.44907  25819795.036 7 110133247.50707
  25819794.860 7 103966281.50007  25819795.775 8 102644697.04808
  36983338.499 7 194348790.45407
                  36983339.320 6 145130582.73506

  25254803.207 5 132714892.54405 103414230.72902  25254810.080 2  25254802.461 2
  25254811.382 5  25254810.582 6  99105304.93506

  23019776.561 7 122924387.41907  95607928.54607
  23019782.396 7

  27372806.901 6 143845115.78206
                  27372808.047 6 107416835.99406  27372807.455 6 116757405.28306
  27372806.114 6 110219008.09406  27372807.132 7 108817922.11807
  20623629.350 8 108378375.40208  84450878.51007  20623631.479 7  20623629.212 7
  20623631.955 8  20623628.646 8  80932177.95008

  24683318.014 6 129711732.44006 101074098.85903  24683320.667 3  24683317.764 3
  24683321.106 6  24683324.249 7  96862690.46207

  21387155.190 8 114366777.90808  88952013.21507
  21387160.297 7

  23857669.340 6 125372974.53906  97693281.18904  23857674.048 4  23857668.706 4
  23857674.383 6  23857672.720 7  93622732.83007

  23576463.379 6 123895392.49506  96541994.44104  23576464.413 4  23576463.022 4
  23576465.231 6

  24047115.450 6 128500491.81406  99944872.01706
  24047124.158 6

  22692230.884 7 119248560.76607  92920982.59006  22692229.293 6  22692229.784 6


 25  4 11  4 19 45.0000000  0 31G18E19E29G23R22G10R08R10E33R23G24R01
                                R07E13E26G28G08S33S31E07S35G25R09E12
                                G32G01R24G27G31R11G02
  25025683.198 5 131511116.54805 102476333.44403  25025688.651 3  25025682.948 3
  25025689.375 6  25025693.520 7  98206542.41807

  24314557.630 6 127774063.35706
                  24314559.894 7  95415844.25207  24314560.092 6 103712585.94906
  24314557.637 6  97904895.92506  24314558.424 7  96660387.66207
  23204748.598 8 121942280.84708
                  23204749.722 8  91061089.00008  23204751.493 8  98979337.76408
  23204748.160 8  93436557.54408  23204748.756 8  92248718.34608
  23061241.931 7 121188094.10507  94432555.87105  23061244.069 5  23061241.659 5
  23061244.163 7  23061246.541 7  90497886.12307

  21833768.267 7 116550257.00407  90650279.30706
  21833774.390 6

  21110814.495 8 110938441.66808  86445749.91007  21110816.575 7  21110814.209 7
  21110816.548 7  21110813.415 8  82843861.62608

  20241925.476 8 108395027.24108  84307442.93807
  20241929.770 7

  22620608.015 7 120580626.57507


  23348753.083 8 122698749.17308
                  23348754.087 8  91625819.19408  23348755.565 8  99593243.40408
  23348752.236 8  94016037.58108  23348753.120 8  92820931.46208
  19483705.501 8 104224809.13208


  25014565.854 5 131452652.90205 102430754.98003  25014568.825 3  25014565.564 3
  25014569.764 5  25014568.873 6  98162832.11406

  21249137.812 7 113588999.17607


  22898119.389 7 122575915.13607  95337075.36407
  22898125.457 7

  28396666.267 6 149225515.66206
                  28396675.640 6 111434692.94406  28396672.036 6 121124584.76706
  28396672.746 6 114341671.16706  28396674.336 6 112888182.13006
  24093684.578 7 126613513.99507
                  24093686.072 8  94549266.59708  24093687.748 8 102770868.82708
  24093684.120 8  97015739.27808  24093685.073 8  95782508.51008
  21865325.788 7 114903364.86407  89535231.01405  21865327.161 5  21865325.520 5
  21865327.457 7  21865330.360 8  85804660.16308

  23586047.049 6 123945583.72406  96581026.83604  23586051.026 4  23586046.450 4
  23586051.407 6  23586048.574 7  92556817.59807

  37105953.985 7 194993138.23407
                  37105951.501 6 145611729.89106

  36826678.342 7 193525554.61307
                  36826686.818 7 144515839.11107

  25826355.321 7 135718922.06407
                  25826359.262 7 101348863.15107  25826357.754 7 110161239.57407
  25826357.221 7 103992706.01207  25826358.297 8 102670785.65208
  36983345.310 7 194348827.31407
                  36983346.201 6 145130610.29306

  25248578.918 5 132682184.28205 103388743.81202  25248585.712 2  25248578.127 2
  25248586.474 5  25248586.645 6  99080880.00606

  23019959.916 7 122925365.07907  95608688.99906
  23019965.494 6

  27365047.216 6 143804339.37906
                  27365048.706 6 107386386.15506  27365047.855 6 116724307.61306
  27365046.779 6 110187763.91306  27365047.614 7 108787075.10307
  20625535.352 8 108388390.92008  84458682.81707  20625537.356 7  20625535.205 7
  20625537.697 8  20625534.559 8  80939657.07508

  24673408.844 6 129659657.97506 101033521.43103  24673411.175 3  24673408.567 3
  24673411.569 6  24673414.051 6  96823803.78106

  21379011.037 8 114323228.83108  88918141.74507
  21379016.003 7

  23865370.368 6 125413440.95406  97724813.45804  23865374.647 4  23865369.725 4
  23865375.166 6  23865373.170 7  93652951.26507

  23565551.880 6 123838054.26006  96497315.37304  23565553.099 4  23565551.527 4
  23565553.943 6

  24037022.998 6 128446566.81306  99902930.43106
  24037033.184 6

  22685442.725 7 119212888.87207  92893186.33606  22685440.949 6  22685441.612 6


 25  4 11  4 20  0.0000000  0 31G18E19E29G23R22G10R08R10E33R23G24R01
                                R07E13E26G28G08S33S31E07S35G25R09E12
                                G32G01R24G27G31R11G02
  25036425.568 5 131567560.13105 102520315.39503  25036429.896 3  25036425.340 3
  25036430.236 6  25036433.696 7  98248691.78107

  24309889.631 6 127749532.48706
                  24309891.753 7  95397525.76807  24309891.892 6 103692674.54206
  24309889.468 6  97886099.56606  24309890.300 7  96641830.24207
  23205817.441 8 121947897.72908
                  23205818.605 8  91065283.43308  23205820.401 8  98983896.92708
  23205817.004 8  93440861.39608  23205817.617 8  92252967.48808
  23067142.442 7 121219102.11607  94456717.93805  23067144.509 5  23067142.161 5
  23067144.173 6  23067147.185 7  90521041.42707

  21845443.938 7 116612576.70807  90698750.14706
  21845449.034 6

  21111775.089 8 110943489.78608  86449683.50907  21111777.191 7  21111774.808 7
  21111777.178 7  21111774.033 8  82847631.32708

  20245515.115 8 108414250.07008  84322394.02607
  20245519.562 7

  22613774.837 7 120544204.04907


  23346444.723 8 122686617.82108
                  23346445.507 8  91616760.08008  23346447.046 8  99583396.54308
  23346443.659 8  94006742.13808  23346444.573 8  92811754.18308
  19488314.747 8 104249459.23608


  25024478.458 5 131504744.23405 102471345.74203  25024481.553 3  25024478.163 3
  25024482.097 5  25024480.953 6  98201731.59406

  21245010.654 7 113566942.98907


  22905751.280 7 122616767.33707  95368849.30207
  22905757.521 7

  28404949.143 6 149269041.61706
                  28404958.288 6 111467196.08306  28404954.698 6 121159914.29306
  28404956.308 6 114375022.22706  28404957.177 6 112921109.23006
  24098769.105 7 126640233.25407
                  24098770.642 8  94569219.29008  24098772.138 8 102792556.53608
  24098768.586 8  97036212.47308  24098769.576 8  95802721.45408
  21857261.722 7 114860989.34107  89502211.15705  21857263.332 5  21857261.441 5
  21857263.794 7  21857266.602 8  85773016.14208

  23590216.717 6 123967496.84206  96598101.99504  23590221.092 4  23590216.132 4
  23590221.469 6  23590218.413 7  92573181.28907

  37105951.423 7 194993136.76007
                  37105951.116 6 145611729.04306

  36826678.485 7 193525543.05907
                  36826684.622 7 144515830.62607

  25832919.911 7 135753419.23007
                  25832924.019 7 101374624.00807  25832922.125 7 110189240.52007
  25832921.914 7 104019138.90107  25832922.907 8 102696882.52808
  36983353.819 7 194348864.63107
                  36983353.356 6 145130638.30406

  25242357.566 5 132649489.65805 103363267.56502  25242363.820 2  25242356.797 2
  25242365.225 5  25242364.817 6  99056465.25006

  23020175.771 7 122926511.85507  95609580.95207
  23020181.060 7

  27357290.810 6 143763581.03106
                  27357292.513 6 107355949.79506  27357291.665 6 116691224.58906
  27357290.791 6 110156533.55006  27357291.509 7 108756241.74407
  20627456.083 8 108398484.22508  84466547.73907  20627458.038 7  20627455.931 7
  20627458.498 8  20627455.176 8  80947194.29408

  24663502.706 6 129607601.31206 100992957.86903  24663505.020 3  24663502.452 3
  24663505.343 6  24663508.377 6  96784930.36706

  21370893.651 8 114279822.16508  88884381.03007
  21370899.033 7

  23873074.782 6 125453929.67906  97756363.10804  23873079.387 4  23873074.134 4
  23873079.777 6  23873077.973 7  93683186.34707

  23554643.429 7 123780731.28907  96452648.18504  23554645.381 4  23554643.036 4
  23554646.080 6

  24026925.827 6 128392608.90806  99860963.24706
  24026934.941 6

  22678669.314 7 119177294.32607  92865450.34605  22678667.667 5  22678668.206 5


 25  4 11  4 20 15.0000000  0 31G18E19E29G23R22G10R08R10E33R23G24R01
                                R07E13E26G28G08S33S31E07S35G25R09E12
                                G32G01R24G27G31R11G02
  25047168.768 6 131624022.51206 102564311.98303  25047174.614 3  25047168.549 3
  25047174.206 6  25047178.634 7  98290855.19007

  24305233.046 6 127725060.78706
                  24305234.968 7  95379251.49007  24305234.975 6 103672811.18406
  24305232.682 6  97867348.56106  24305233.463 7  96623317.59907
  23206898.150 8 121953576.82308
                  23206899.272 8  91069524.32408  23206901.103 8  98988506.58808
  23206897.643 8  93445212.91808  23206898.310 8  92257263.69408
  23073050.462 7 121250149.55307  94480910.72905  23073052.520 5  23073050.181 5
  23073052.985 7  23073055.431 7  90544226.18307

  21857131.652 7 116674964.44407  90747273.91106
  21857136.620 6

  21112744.490 8 110948584.17408  86453653.17107  21112746.612 7  21112744.204 7
  21112746.519 7  21112743.454 8  82851435.58608

  20249112.439 8 108433511.36808  84337375.03707
  20249116.176 7

  22606962.481 6 120507888.58206


  23344152.472 8 122674572.27308
                  23344153.341 8  91607765.03808  23344154.795 8  99573619.31608
  23344151.492 8  93997512.44208  23344152.366 8  92802641.81508
  19492958.051 8 104274302.52908


  25034402.272 5 131556895.41505 102511983.13403  25034405.801 3  25034401.995 3
  25034406.223 5  25034404.879 6  98240675.78306

  21240896.445 7 113544947.69007


  22913378.976 7 122657599.07007  95400607.30407
  22913385.668 7

  28413234.827 6 149312584.82606
                  28413244.435 6 111499712.09406  28413241.330 6 121195257.79506
  28413241.977 6 114408386.49706  28413243.098 6 112954049.36906
  24103868.484 7 126667030.88507
                  24103870.027 8  94589230.49408  24103871.645 8 102814307.84908
  24103868.022 8  97056745.71308  24103868.996 8  95822993.67608
  21849214.461 7 114818698.46407  89469257.26905  21849215.601 5  21849214.175 5
  21849216.095 7  21849218.835 8  85741435.34608

  23594403.195 6 123989495.52806  96615243.83504  23594407.000 4  23594402.614 4
  23594407.474 6  23594404.595 7  92589608.88907

  37105953.990 7 194993133.77707
                  37105950.624 6 145611726.74306

  36826672.990 7 193525530.40307
                  36826682.122 7 144515820.93107

  25839486.197 7 135787925.69407
                  25839490.245 7 101400391.82007  25839488.422 7 110217249.00807
  25839488.412 7 104045578.90407  25839489.284 8 102722986.43608
  36983358.711 7 194348900.88507
                  36983360.139 6 145130665.27806

  25236137.341 5 132616807.56005 103337801.04102  25236144.696 2  25236136.554 2
  25236146.401 5  25236145.652 6  99032059.84706

  23020421.198 7 122927826.19107  95610603.22507
  23020426.519 7

  27349538.038 6 143722839.53806
                  27349539.424 6 107325526.03006  27349538.749 6 116658155.24506
  27349537.626 6 110125316.10406  27349538.592 7 108725421.14207
  20629391.238 8 108408653.66008  84474471.98607  20629393.164 7  20629391.091 7
  20629393.745 8  20629390.355 8  80954788.37108

  24653599.461 6 129555561.23006 100952407.22803  24653602.223 3  24653599.211 3
  24653602.618 6  24653605.566 6  96746069.33106

  21362803.052 8 114236556.70008  88850730.12507
  21362808.110 7

  23880783.108 6 125494438.86006  97787928.70304  23880787.879 4  23880782.456 4
  23880788.593 6  23880787.002 7  93713436.69507

  23543738.320 6 123723422.49306  96407992.04904  23543739.496 4  23543737.900 4
  23543741.037 6

  24016823.233 6 128338617.04006  99818969.63206
  24016831.387 6

  22671910.920 7 119141776.04207  92837773.79206  22671908.867 6  22671909.816 6


 25  4 11  4 20 30.0000000  0 31G18E19E29G23R22G10R08R10E33R23G24R01
                                R07E13E26G28G08S33S31E07S35G25R09E12
                                G32G01R24G27G31R11G02
  25057917.632 6 131680505.75906 102608324.85603  25057923.223 3  25057917.387 3
  25057923.125 6  25057927.239 7  98333034.14707

  24300587.838 6 127700650.73406
                  24300589.919 7  95361023.24307  24300589.971 6 103652997.84806
  24300587.402 6  97848644.79106  24300588.368 7  96604851.59207
  23207991.081 8 121959320.32908
                  23207992.214 8  91073813.32008  23207993.989 8  98993168.53208
  23207990.625 8  93449613.79608  23207991.246 8  92261608.63108
  23078966.385 7 121281238.78807  94505136.09105  23078968.825 5  23078966.108 5
  23078968.805 7  23078971.533 7  90567442.15807

  21868831.561 7 116737422.03807  90795851.99806
  21868837.189 6

  21113723.281 8 110953727.33208  86457660.83007  21113725.334 7  21113722.995 7
  21113725.339 7  21113722.154 8  82855276.26008

  20252716.641 8 108452813.40408  84352387.73007
  20252720.792 7

  22600170.885 7 120471682.58007


  23341877.020 8 122662615.01008
                  23341877.989 8  91598835.92408  23341879.358 8  99563913.75208
  23341876.087 8  93988350.39308  23341876.958 8  92793596.23208
  19497639.276 8 104299341.03208


  25044337.633 5 131609108.40105 102552668.67603  25044341.572 3  25044337.343 3
  25044343.057 5  25044340.769 6  98279666.11106

  21236793.587 7 113523015.11207


  22921003.134 7 122698413.08307  95432351.51107
  22921009.356 7

  28421524.479 6 149356147.41606
                  28421534.086 6 111532242.58006  28421531.334 6 121230617.01706
  28421531.687 6 114441765.57506  28421532.788 6 112987004.15106
  24108982.989 7 126693909.12007
                  24108984.793 8  94609301.90408  24108986.607 8 102836124.59908
  24108982.733 8  97077340.72408  24108983.741 8  95843326.88708
  21841183.256 7 114776494.94107  89436371.44305  21841184.576 5  21841182.961 5
  21841184.602 7  21841187.745 8  85709919.76808

  23598605.870 6 124011581.77806  96632453.90904  23598609.623 4  23598605.289 4
  23598610.559 6  23598607.404 7  92606101.87507

  37105953.547 7 194993131.47107
                  37105950.325 6 145611724.88706

  36826672.551 7 193525518.59707
                  36826679.927 7 144515812.05207

  25846054.721 7 135822443.61407
                  25846058.801 7 101426168.18007  25846057.065 7 110245266.79607
  25846057.046 7 104072027.69507  25846057.829 8 102749099.01208
  36983366.876 7 194348937.93007
                  36983367.325 6 145130692.87406

  25229922.076 5 132584140.64805 103312346.36602  25229928.484 2  25229921.285 2
  25229929.801 5  25229929.577 6  99007665.80106

  23020699.467 7 122929310.97907  95611758.10207
  23020704.425 7

  27341788.626 6 143682117.38306
                  27341790.080 6 107295116.68206  27341789.550 6 116625101.59006
  27341788.311 6 110094113.46006  27341789.333 7 108694615.14507
  20631341.293 8 108418901.35008  84482457.20907  20631343.252 7  20631341.141 7
  20631343.779 8  20631340.421 8  80962440.87808

  24643700.667 6 129503540.29006 100911871.49103  24643703.486 3  24643700.426 3
  24643703.353 6  24643706.255 7  96707222.61507

  21354739.371 8 114193435.42308  88817191.38307
  21354744.056 7

  23888496.820 6 125534970.40606  97819511.73304  23888500.703 4  23888496.168 4
  23888501.202 6  23888499.406 7  93743703.77107

  23532836.357 6 123666130.61606  96363349.09104  23532837.251 4  23532835.946 4
  23532838.358 6

  24006712.656 6 128284594.20106  99776951.93006
  24006721.930 6

  22665166.347 7 119106336.56607  92810158.63906  22665164.820 6  22665165.239 6


