     2.11           OBSERVATION DATA    M                   RINEX VERSION / TYPE
ssrcrin-13.7.0x                         11-APR-25 03:00     PGM / RUN BY / DATE 
(000000000000583293750002) Septentrio proprietary           COMMENT             
SEPT                                                        MARKER NAME         
Unknown                                                     MARKER NUMBER       
Unknown             Unknown                                 OBSERVER / AGENCY   
3083514             SEPT POLARX5E       5.4.0               REC # / TYPE / VERS 
Unknown             Unknown                                 ANT # / TYPE        
 -1908062.8814 -5042726.7856  3400841.7551                  APPROX POSITION XYZ 
        0.0000        0.0000        0.0000                  ANTENNA: DELTA H/E/N
     1     1                                                WAVELENGTH FACT L1/2
    14    C1    L1    L2    P2    P1    C2    C5    L5    C6# / TYPES OF OBSERV 
          L6    C7    L7    C8    L8                        # / TYPES OF OBSERV 
For GPS, L2 corresponds to the L2P carrier phase.           COMMENT             
For GLONASS, L2 corresponds to the L2CA carrier phase.      COMMENT             
  2025     4    11     3     0    0.0000000     GPS         TIME OF FIRST OBS   
                                                            END OF HEADER       
 25  4 11  3  0  0.0000000  0 29G18E19G15E29G23R22R21G10R08R06E33R23
                                G24R01R07E13E26G28G08S33S31E07S35R09
                                E08G32G27R16G02
  22058164.812 7 115916747.33807  90324888.80405  22058167.297 5  22058164.549 5
  22058167.257 7  22058170.212 8  86561410.57108

  26348462.587 5 138462239.20205
                  26348470.897 6 103397253.83806  26348469.105 5 112388281.88905
  26348467.984 6 106094518.58106  26348468.651 6 104745903.78106
  25021589.079 6 131489820.18406 102459850.09705  25021591.974 5  25021588.847 5
  25021592.507 5

  23587882.090 7 123955637.80907
                  23587885.017 8  92564563.02208  23587885.995 8 100613551.23608
  23587883.229 8  94979253.42608  23587883.924 8  93771803.29808
  21524887.096 8 113114505.45108  88141450.29706  21524888.190 6  21524886.891 6
  21524888.629 7  21524891.257 8  84468910.46708

  19231572.492 8 102659574.64608  79846420.56008
  19231576.678 8

  23016320.273 7 123165198.35807  95795304.62507
  23016330.944 7

  21168897.591 8 111243655.56608  86683575.17807  21168900.516 7  21168897.261 7
  21168900.745 7  21168897.494 8  83071776.68208

  19730424.621 8 105655946.58308  82177042.41508
  19730430.093 8

  24043850.781 5 128302646.57805


  24739746.108 7 130008442.28907
                  24739748.689 7  97084349.15207  24739749.538 7 105526430.83407
  24739746.925 7  99616964.80107  24739747.755 8  98350660.05008
  19911626.731 8 106513886.10408


  22795562.411 7 119791692.17207  93344287.20705  22795567.242 5  22795562.148 5
  22795567.500 7  22795566.647 7  89454966.14007

  23236418.374 6 124212077.22206


  20434523.104 8 109388098.36708  85079886.75108
  20434529.243 8

  26070784.907 6 137002964.36406
                  26070791.847 7 102307473.61007  26070789.375 7 111203746.19107
  26070789.850 7 104976349.23107  26070790.846 7 103641911.49407
  23264786.803 8 122257626.16408
                  23264788.604 8  91296492.67408  23264790.222 8  99235245.19308
  23264786.771 8  93678110.44308  23264787.630 8  92487307.13208
  24888103.011 6 130788073.66606 101912902.24503  24888110.619 3  24888102.698 3
  24888110.715 6  24888114.682 6  97666589.94806

  23335262.808 7 122627689.51807  95554092.09204  23335267.418 4  23335262.241 4
  23335268.513 6  23335266.078 7  91572670.97607

  37105927.545 7 194992976.40207
                  37105925.422 6 145611628.97906

  36827388.150 7 193529266.15507
                  36827397.273 7 144518624.21307

  24012462.554 8 126186847.97008
                  24012466.700 8  94230754.94208  24012464.980 8 102424165.78108
  24012464.722 8  96688908.12408  24012465.636 8  95459832.60708
  36980837.503 7 194335620.80507
                  36980837.670 6 145120757.24406

  24307109.624 6 129798605.56306 100954525.77106
  24307118.574 6

  28285682.789 6 148642575.66906
                  28285687.687 6 110999530.38006  28285686.427 6 120651588.70506
  28285685.681 6 113895145.70606  28285686.732 7 112447335.61907
  20927135.277 8 109973286.09008  85693660.00907  20927138.775 7  20927135.130 7
  20927139.433 7  20927136.404 8  82123175.51808

  22005168.828 7 115638024.75107  90107607.72706  22005172.754 6  22005168.278 6
  22005173.386 7  22005171.920 8  86353129.52308

  24551936.559 6 131152039.25406 102007169.46806
  24551942.658 6

  25311214.628 6 133011354.91106 103645222.67703  25311216.174 3  25311213.591 3


 25  4 11  3  0 15.0000000  0 29G18E19G15E29G23R22R21G10R08R06E33R23
                                G24R01R07E13E26G28G08S33S31E07S35R09
                                E08G32G27R16G02
  22065317.799 7 115954336.05807  90354178.69705  22065320.190 5  22065317.545 5
  22065320.342 7  22065323.155 8  86589480.05408

  26340637.217 5 138421113.45005
                  26340644.495 6 103366543.14806  26340642.203 5 112354900.65005
  26340641.449 6 106063006.73006  26340642.694 6 104714792.51306
  25032059.920 6 131544843.01906 102502725.10405  25032062.591 5  25032059.679 5
  25032062.611 5

  23584210.182 7 123936341.42307
                  23584212.999 8  92550153.42208  23584213.956 8 100597888.61608
  23584211.237 8  94964467.92608  23584211.926 8  93757205.74708
  21528763.862 7 113134878.22007  88157325.18106  21528765.055 6  21528763.648 6
  21528765.512 7  21528768.078 8  84484123.89608

  19235088.733 8 102678343.38308  79861018.45907
  19235092.827 7

  23028042.717 7 123227928.00107  95844094.28006
  23028052.840 6

  21167776.343 8 111237763.98508  86678984.35507  21167779.368 7  21167776.017 7
  21167779.305 7  21167776.389 8  83067377.14808

  19729233.009 8 105649564.47408  82172078.57708
  19729238.348 8

  24053618.624 5 128354785.13805


  24733970.752 7 129978093.24307
                  24733973.482 7  97061685.94007  24733974.200 7 105501796.88607
  24733971.677 7  99593710.36607  24733972.502 8  98327701.22708
  19904904.354 8 106477924.07308


  22798661.128 7 119807974.25207  93356974.55405  22798665.388 5  22798660.883 5
  22798665.956 7  22798665.070 7  89467124.84907

  23228015.905 6 124167160.56206


  20441622.591 8 109426103.19608  85109446.05807
  20441628.385 7

  26076749.935 6 137034310.07306
                  26076756.868 7 102330881.09607  26076754.107 7 111229189.12407
  26076754.718 7 105000367.34707  26076755.736 7 103665624.29507
  23265013.673 8 122258817.39508
                  23265015.308 8  91297382.24008  23265016.925 8  99236212.11108
  23265013.484 8  93679023.21908  23265014.305 8  92488208.30308
  24878396.214 6 130737065.58006 101873155.80903  24878403.639 3  24878395.884 3
  24878403.782 6  24878408.293 6  97628499.61006

  23332253.218 7 122611874.89807  95541769.03704  23332258.043 4  23332252.651 4
  23332258.970 6  23332256.547 7  91560861.38507

  37105928.354 7 194992979.43707
                  37105926.334 6 145611630.99406

  36827386.169 7 193529255.68407
                  36827395.400 7 144518616.43607

  24016672.309 8 126208971.52508
                  24016676.659 8  94247275.78708  24016674.744 8 102442123.21708
  24016674.648 8  96705859.94308  24016675.610 8  95476568.94008
  36980843.508 7 194335666.37607
                  36980846.372 6 145120791.22906

  24300045.883 6 129760886.11006 100925188.45806
  24300054.804 6

  28293662.538 6 148684510.20106
                  28293667.453 6 111030845.16606  28293666.917 6 120685626.50506
  28293665.733 6 113927277.39406  28293666.544 7 112479058.85407
  20922999.008 8 109951549.47108  85676722.41907  20923002.458 7  20922998.852 7
  20923003.006 7  20923000.044 8  82106943.67208

  22008019.082 7 115653001.12307  90119277.62506  22008022.707 6  22008018.537 6
  22008023.231 7  22008021.852 8  86364313.17208

  24549822.835 6 131140750.93406 101998389.67506
  24549829.052 6

  25302370.210 6 132964873.99806 103609003.84303  25302371.586 3  25302369.160 3


 25  4 11  3  0 30.0000000  0 29G18E19G15E29G23R22R21G10R08R06E33R23
                                G24R01R07E13E26G28G08S33S31E07S35R09
                                E08G32G27R16G02
  22072488.038 7 115992016.06307  90383539.72505  22072490.455 5  22072487.779 5
  22072490.480 7  22072493.499 8  86617617.70908

  26332817.724 5 138380025.19505
                  26332825.607 6 103335860.45506  26332823.365 5 112321549.87305
  26332822.828 6 106031523.61706  26332823.785 6 104683709.60906
  25042528.592 6 131599857.66706 102545593.74405  25042531.438 5  25042528.360 5
  25042531.618 5

  23580554.477 7 123917130.25707
                  23580557.262 8  92535807.44708  23580558.196 8 100582295.15408
  23580555.477 8  94949747.69808  23580556.151 8  93742672.64608
  21532646.094 7 113155280.09807  88173222.74506  21532647.416 6  21532645.884 6
  21532647.823 7  21532650.388 8  84499359.05508

  19238638.579 8 102697293.87308  79875757.71907
  19238642.868 7

  23039777.703 7 123290716.34607  95892929.57206
  23039787.555 6

  21166661.010 8 111231902.02708  86674416.61107  21166663.873 7  21166660.689 7
  21166663.794 7  21166660.861 8  83062999.73108

  19728064.097 8 105643303.35908  82167208.84008
  19728069.415 8

  24063384.315 5 128406891.81105


  24728200.709 7 129947771.83707
                  24728203.490 7  97039043.36107  24728204.294 7 105477185.38507
  24728201.587 7  99570477.11007  24728202.513 8  98304763.31008
  19898208.957 8 106442107.74708


  22801787.911 6 119824406.61206  93369779.00605  22801792.541 5  22801787.670 5
  22801792.931 7  22801791.981 7  89479395.78507

  23219628.408 6 124122314.47006


  20448732.452 8 109464162.13808  85139047.45507
  20448738.331 7

  26082724.871 6 137065708.72706
                  26082731.910 7 102354328.12107  26082728.937 7 111254675.02907
  26082729.600 7 105024426.03907  26082730.713 7 103689377.15407
  23265253.896 8 122260080.17608
                  23265255.605 8  91298325.24208  23265257.207 8  99237237.10508
  23265253.732 8  93679990.81508  23265254.592 8  92489163.60108
  24868684.636 6 130686029.98606 101833387.89303  24868691.185 3  24868684.270 3
  24868692.745 6  24868696.609 6  97590388.72106

  23329268.397 7 122596190.03507  95529547.08904  23329273.360 4  23329267.843 4
  23329274.006 6  23329271.869 7  91549148.69307

  37105927.871 7 194992985.02907
                  37105927.063 6 145611635.18906

  36827384.894 7 193529247.08707
                  36827393.620 7 144518609.83707

  24020895.678 8 126231165.53908
                  24020900.024 8  94263849.24308  24020898.275 8 102460137.84408
  24020898.031 8  96722865.75508  24020898.995 8  95493358.57308
  36980853.592 7 194335713.45107
                  36980855.230 6 145120826.38406

  24292992.846 6 129723220.96706 100895893.41206
  24293002.583 6

  28301643.063 6 148726448.19706
                  28301647.974 6 111062162.55906  28301647.320 6 120719667.12906
  28301646.182 6 113959411.76306  28301646.959 7 112510784.73507
  20918883.976 8 109929923.84808  85659871.31607  20918887.259 7  20918883.820 7
  20918887.873 7  20918884.801 8  82090794.70408

  22010894.057 7 115668108.63107  90131049.71006  22010897.669 6  22010893.516 6
  22010898.153 7  22010896.706 8  86375594.75908

  24547737.225 6 131129612.65706 101989726.64106
  24547745.147 6

  25293524.435 6 132918390.08306 103572782.67904  25293526.345 4  25293523.403 4


 25  4 11  3  0 45.0000000  0 29G18E19G15E29G23R22R21G10R08R06E33R23
                                G24R01R07E13E26G28G08S33S31E07S35R09
                                E08G32G27R16G02
  22079674.957 7 116029784.21107  90412969.43005  22079677.479 5  22079674.698 5
  22079677.594 7  22079680.498 8  86645821.16808

  26325006.001 5 138338971.69405
                  26325013.368 6 103305203.69106  26325011.737 5 112288227.25805
  26325010.563 6 106000067.09906  26325011.476 6 104652652.96706
  25052994.975 6 131654860.89606 102588453.47405  25052998.209 5  25052994.739 5
  25052998.114 5

  23576914.133 7 123898001.28707
                  23576917.099 8  92521522.86408  23576917.997 8 100566768.41608
  23576915.331 8  94935090.47008  23576916.004 8  93728201.74008
  21536533.596 8 113175708.04108  88189140.62306  21536534.701 6  21536533.382 6
  21536535.068 7  21536537.629 8  84514613.69408

  19242222.092 8 102716423.02208  79890635.96507
  19242226.343 7

  23051521.679 7 123353560.04207  95941807.92407
  23051531.755 7

  21165550.530 8 111226066.61008  86669869.55107  21165553.435 7  21165550.217 7
  21165553.371 7  21165550.438 8  83058642.13308

  19726916.742 8 105637160.09308  82162430.76008
  19726921.788 8

  24073142.715 5 128458963.52505


  24722435.616 7 129917475.22607
                  24722438.210 7  97016419.30207  24722439.140 7 105452594.00407
  24722436.344 7  99547262.85907  24722437.219 8  98281844.15508
  19891540.293 8 106406434.62908


  22804942.653 6 119840986.13506  93382698.13305  22804947.607 5  22804942.390 5
  22804947.651 7  22804946.868 7  89491776.61607

  23211249.691 6 124077535.65106


  20455852.159 8 109502271.68908  85168688.21307
  20455857.393 7

  26088709.384 6 137097157.26506
                  26088716.198 7 102377812.39407  26088713.813 7 111280201.42707
  26088714.187 7 105048522.94807  26088715.206 7 103713167.74507
  23265507.153 8 122261411.59408
                  23265508.979 8  91299319.49108  23265510.609 8  99238317.81008
  23265507.102 8  93681011.00208  23265507.946 8  92490170.81908
  24858967.242 6 130634964.14206 101793596.40603  24858973.643 3  24858966.867 3
  24858974.619 6  24858979.093 6  97552255.25406

  23326307.883 7 122580631.98407  95517423.95804  23326312.913 4  23326307.338 4
  23326313.725 6  23326311.255 7  91537530.69707

  37105929.660 7 194992989.10407
                  37105927.667 6 145611638.65506

  36827382.538 7 193529236.62307
                  36827391.478 7 144518602.08607

  24025132.081 8 126253426.81108
                  24025136.204 8  94280472.92708  24025134.229 8 102478207.06408
  24025134.202 8  96739923.09508  24025135.178 8  95510199.08608
  36980863.376 7 194335758.65807
                  36980863.968 6 145120860.30906

  24285948.407 6 129685607.27606 100866638.35306
  24285957.483 6

  28309623.622 6 148768386.42806
                  28309628.512 6 111093480.14406  28309627.764 6 120753707.95906
  28309626.634 6 113991546.31106  28309627.513 7 112542510.80207
  20914789.337 8 109908406.22008  85643104.36507  20914792.576 7  20914789.177 7
  20914792.934 7  20914790.143 8  82074726.38208

  22013793.057 7 115683344.05807  90142921.46606  22013796.850 6  22013792.521 6
  22013797.403 7  22013795.974 8  86386971.86208

  24545680.146 6 131118621.41906 101981177.94006
  24545687.245 6

  25284677.192 6 132871900.37106 103536556.99404  25284679.857 4  25284676.164 4


 25  4 11  3  1  0.0000000  0 30G18E19G15E29G23R22R21G10R08R06E33R23
                                G24R01R07E13E26G28G08S33S31E07S35R09
                                E08G32R24G27R16G02
  22086879.463 7 116067641.90507  90442468.92005  22086881.509 5  22086879.204 5
  22086881.537 7  22086884.648 8  86674091.50408

  26317200.410 5 138297954.38905
                  26317207.794 6 103274573.95806  26317206.205 5 112254934.05705
  26317204.973 6 105968638.32306  26317206.107 6 104621623.71506
  25063459.505 6 131709853.97706 102631305.30404  25063462.812 4  25063459.264 4
  25063463.064 5

  23573289.904 7 123878956.05307
                  23573292.867 8  92507300.80408  23573293.814 8 100551309.64608
  23573291.089 8  94920497.39708  23573291.794 8  93713794.17508
  21540425.749 7 113196163.59007  88205080.01406  21540427.230 6  21540425.517 6
  21540427.712 7  21540430.246 8  84529888.94508

  19245839.422 8 102735732.33308  79905654.30907
  19245843.490 7

  23063275.357 7 123416460.04707  95990730.08006
  23063285.794 6

  21164445.419 8 111220259.26908  86665344.36907  21164448.327 7  21164445.106 7
  21164448.282 7  21164445.277 8  83054305.50508

  19725791.599 8 105631135.75808  82157745.20908
  19725797.309 8

  24082896.892 5 128511001.60105


  24716675.222 7 129887205.12807
                  24716677.872 7  96993815.03107  24716678.708 7 105428024.13407
  24716676.187 7  99524068.91407  24716676.977 8  98258945.04708
  19884898.740 8 106370906.71608


  22808126.166 6 119857714.25406  93395733.04105  22808130.610 5  22808125.907 5
  22808131.276 7  22808130.251 7  89504268.40407

  23202887.162 6 124032826.15606


  20462980.338 8 109540432.65808  85198368.96907
  20462986.194 7

  26094703.708 6 137128657.16306
                  26094710.654 7 102401335.02407  26094707.686 7 111305769.50607
  26094708.587 7 105072659.21507  26094709.466 7 103736997.19407
  23265773.727 8 122262813.25008
                  23265775.621 8  91300366.19908  23265777.340 8  99239455.52808
  23265773.791 8  93682085.01608  23265774.660 8  92491231.18108
  24849244.656 6 130583869.88706 101753782.80703  24849251.240 3  24849244.290 3
  24849251.428 6  24849255.590 6  97514100.55406

  23323371.783 7 122565202.38007  95505400.91504  23323376.783 4  23323371.247 4
  23323377.621 6  23323375.036 7  91526008.61807

  37105929.253 7 194992991.68007
                  37105928.400 6 145611640.28006

  36827379.103 7 193529225.42307
                  36827389.462 7 144518593.62807

  24029381.092 8 126275756.65108
                  24029385.431 8  94297147.81908  24029383.620 8 102496331.94008
  24029383.530 8  96757032.98708  24029384.409 8  95527091.47808
  36980870.978 7 194335803.81807
                  36980872.366 6 145120894.08606

  24278914.669 6 129648047.31206 100837425.10706
  24278924.890 6

  28317604.279 6 148810326.24906
                  28317609.247 6 111124798.91306  28317608.656 6 120787750.06206
  28317607.773 6 114023682.09206  28317608.322 7 112574238.07607
  20910715.461 8 109886998.14208  85626422.78207  20910718.758 7  20910715.309 7
  20910719.254 7  20910716.331 8  82058739.87908

  24772823.305 5 132471430.64615 103033369.01115
  24772836.173 5

  22016717.215 7 115698708.65907  90154893.88206  22016720.598 6  22016716.692 6
  22016721.165 7  22016719.730 8  86398445.42908

  24543650.183 6 131107779.24106 101972745.17906
  24543656.945 6

  25275830.246 6 132825406.57406 103500328.12004  25275832.099 4  25275829.218 4


 25  4 11  3  1 15.0000000  0 30G18E19G15E29G23R22R21G10R08R06E33R23
                                G24R01R07E13E26G28G08S33S31E07S35R09
                                E08G32R24G27R16G02
  22094100.265 7 116105588.94707  90472038.02805  22094102.482 5  22094100.002 5
  22094102.686 7  22094105.806 8  86702428.55908

  26309401.383 5 138256973.39805
                  26309409.442 6 103243971.38606  26309407.434 5 112221670.34005
  26309406.308 6 105937237.40406  26309407.561 6 104590621.97106
  25073922.629 6 131764836.64206 102674149.01905  25073925.649 5  25073922.384 5
  25073925.708 5

  23569681.633 7 123859994.52907
                  23569684.594 8  92493141.26008  23569685.581 8 100535918.82308
  23569682.864 8  94905968.46908  23569683.517 8  93699449.93708
  21544323.706 8 113216646.68608  88221040.86706  21544325.036 6  21544323.478 6
  21544325.416 7  21544328.048 8  84545184.76208

  19249490.221 8 102755221.62608  79920812.63807
  19249494.545 7

  23075040.613 7 123479415.85807  96039695.66206
  23075050.370 6

  21163345.418 8 111214479.91308  86660840.99307  21163348.554 7  21163345.101 7
  21163348.432 7  21163345.507 8  83049989.77008

  19724688.141 8 105625230.06708  82153151.92608
  19724694.192 8

  24092639.262 5 128563005.69005


  24710920.103 7 129856961.62607
                  24710922.645 7  96971230.63507  24710923.556 7 105403475.86107
  24710920.885 7  99500895.34707  24710921.807 8  98236066.06408
  19878283.916 8 106335524.27008


  22811338.119 7 119874590.78407  93408883.59805  22811342.237 5  22811337.878 5
  22811342.505 7  22811341.848 7  89516871.03407

  23194534.634 6 123988185.58606


  20470119.070 8 109578644.77108  85228089.49907
  20470124.325 7

  26100707.531 6 137160208.30806
                  26100714.620 7 102424895.91407  26100711.720 7 111331379.17407
  26100712.329 7 105096834.73907  26100713.464 7 103760865.40107
  23266054.066 8 122264285.22908
                  23266055.778 8  91301465.41208  23266057.268 8  99240650.32208
  23266053.937 8  93683212.90308  23266054.753 8  92492344.73108
  24839515.776 6 130532747.48506 101713947.26203  24839523.033 3  24839515.410 3
  24839523.142 6  24839527.399 6  97475924.84406

  23320459.696 7 122549901.21107  95493477.94604  23320465.086 4  23320459.160 4
  23320465.481 6  23320463.254 7  91514582.45207

  37105930.080 7 194992994.43607
                  37105928.901 6 145611642.31106

  36827378.053 7 193529214.09607
                  36827387.324 7 144518584.95907

  24033643.663 8 126298154.81808
                  24033647.699 8  94313873.72708  24033645.731 8 102514512.27608
  24033645.755 8  96774195.22608  24033646.643 8  95544035.55108
  36980880.726 7 194335848.16607
                  36980880.893 6 145120927.18006

  24271891.076 6 129610541.57406 100808254.05706
  24271900.893 6

  28325585.403 6 148852267.39306
                  28325590.594 6 111156118.63406  28325589.736 6 120821793.22706
  28325588.767 6 114055818.84106  28325589.372 7 112605966.31107
  20906662.392 8 109865699.58108  85609826.53207  20906665.769 7  20906662.240 7
  20906666.494 7  20906663.261 8  82042835.14008

                                 102983776.63205
  24760911.078 5

  22019665.251 7 115714202.18907  90166966.75906  22019668.900 6  22019664.728 6
  22019669.321 7  22019668.144 8  86410015.27108

  24541647.788 6 131097086.05006 101964428.29206
  24541652.881 6

  25266981.772 6 132778908.72106 103464096.07303  25266983.500 3  25266980.757 3


 25  4 11  3  1 30.0000000  0 29G18E19G15E29G23R22R21G10R08R06E33R23
                                G24R01R07E13E26G28G08S33S31E07S35R09
                                E08G32G27R16G02
  22101338.531 7 116143626.67907  90501677.80105  22101340.845 5  22101338.277 5
  22101341.002 7  22101344.048 8  86730833.33908

  26301610.440 5 138216030.30505
                  26301618.151 6 103213397.06706  26301616.270 5 112188437.38005
  26301615.370 6 105905865.50406  26301616.349 6 104559648.86206
  25084383.914 6 131819810.25006 102716985.69404  25084386.867 4  25084383.678 4
  25084387.033 5

  23566089.502 7 123841118.20707
                  23566092.520 8  92479045.33608  23566093.461 8 100520597.15908
  23566090.814 8  94891504.82408  23566091.449 8  93685170.15308
  21548227.126 8 113237158.80008  88237024.33106  21548228.414 6  21548226.894 6
  21548228.587 7  21548231.496 8  84560502.25008

  19253175.120 8 102774892.23108  79936111.99407
  19253179.789 7

  23086814.851 7 123542428.74007  96088705.60406
  23086826.034 6

  21162251.666 8 111208730.02008  86656360.57707  21162254.383 7  21162251.358 7
  21162254.440 7  21162251.322 8  83045696.04508

  19723608.430 8 105619444.68308  82148652.20307
  19723613.472 7

  24102379.844 5 128614977.28005


  24705170.406 7 129826746.41007
                  24705172.956 7  96948667.35007  24705173.869 7 105378950.54507
  24705171.112 7  99477743.45307  24705172.011 8  98213208.47608
  19871697.538 8 106300289.50008


  22814577.474 6 119891617.09806  93422150.87205  22814582.366 5  22814577.224 5
  22814582.466 7  22814581.902 7  89529585.50507

  23186198.191 6 123943615.97206


  20477266.685 8 109616909.29108  85257850.78507
  20477271.998 7

  26106721.280 6 137191812.11306
                  26106728.667 7 102448496.15507  26106725.780 7 111357031.60807
  26106726.546 7 105121050.63707  26106727.492 7 103784773.46907
  23266347.816 8 122265829.08608
                  23266349.547 8  91302618.30608  23266351.152 8  99241903.46708
  23266347.670 8  93684395.86608  23266348.526 8  92493512.65908
  24829783.003 6 130481598.68906 101674091.15603  24829789.607 3  24829782.650 3
  24829789.182 6  24829794.152 6  97437729.43406

  23317572.612 7 122534730.00507  95481656.26004  23317578.086 4  23317572.062 4
  23317578.526 6  23317576.298 7  91503253.33407

  37105930.612 7 194992998.84807
                  37105929.559 6 145611645.95406

  36827377.042 7 193529204.74507
                  36827385.339 7 144518578.32107

  24037919.105 8 126320622.59608
                  24037923.134 8  94330651.61708  24037921.418 8 102532749.10908
  24037921.171 8  96791410.79908  24037922.109 8  95561032.28308
  36980888.918 7 194335893.66707
                  36980889.724 6 145120961.02506

  24264877.719 6 129573092.00506 100779126.63206
  24264887.277 6

  28333567.094 6 148894211.18706
                  28333572.233 6 111187440.36306  28333571.481 6 120855838.54406
  28333570.046 6 114087957.65606  28333570.915 7 112637696.58407
  20902630.437 8 109844512.04008  85593316.79307  20902633.882 7  20902630.281 7
  20902634.542 7  20902631.341 8  82027013.32108

  22022638.222 7 115729825.86707  90179141.05406  22022641.997 6  22022637.699 6
  22022642.148 7  22022641.235 8  86421682.30108

  24539674.934 6 131086543.61706 101956228.66406
  24539681.063 6

  25258133.373 6 132732408.53406 103427862.20603  25258134.557 3  25258132.367 3


 25  4 11  3  1 45.0000000  0 29G18E19G15E29G23R22R21G10R08R06E33R23
                                G24R01R07E13E26G28G08S33S31E07S35R09
                                E08G32G27R16G02
  22108594.236 7 116181755.07607  90531388.22605  22108596.468 5  22108593.982 5
  22108596.744 7  22108599.739 8  86759305.82708

  26293827.175 5 138175125.48005
                  26293834.196 6 103182851.35506  26293832.424 5 112155235.46905
  26293831.179 6 105874522.92206  26293832.323 6 104528704.71106
  25094842.958 6 131874774.45706 102759815.02205  25094845.951 5  25094842.713 5
  25094846.524 5

  23562513.830 8 123822327.22208
                  23562516.604 8  92465013.14108  23562517.643 8 100505344.76208
  23562514.934 8  94877106.57008  23562515.618 8  93670954.92908
  21552136.144 8 113257700.07108  88253030.52006  21552137.359 6  21552135.908 6
  21552137.623 7  21552140.321 8  84575841.51408

  19256894.120 8 102794744.26508  79951552.46707
  19256898.525 7

  23098603.453 7 123605498.19107  96137759.52506
  23098611.282 6

  21161162.914 8 111203009.65908  86651903.16707  21161165.847 7  21161162.606 7
  21161165.856 7  21161162.749 8  83041424.36708

  19722550.333 8 105613779.09208  82144245.66707
  19722555.603 7

  24112114.534 5 128666916.25905


  24699425.979 7 129796559.72907
                  24699428.608 7  96926125.37707  24699429.388 7 105354448.39507
  24699426.765 7  99454613.43307  24699427.653 8  98190372.47908
  19865138.298 8 106265202.91308


  22817846.482 6 119908793.21706  93435534.87505  22817850.554 5  22817846.223 5
  22817851.545 6  22817850.196 7  89542411.83807

  23177873.070 6 123899117.32006


  20484424.910 8 109655225.92608  85287652.62707
  20484430.756 7

  26112745.409 6 137223468.70206
                  26112752.691 7 102472135.77507  26112750.024 7 111382726.86507
  26112750.469 7 105145306.95207  26112751.550 7 103808721.43507
  23266655.415 8 122267445.07608
                  23266657.042 8  91303825.06108  23266658.648 8  99243215.14908
  23266655.140 8  93685634.10208  23266656.039 8  92494735.15408
  24820044.523 6 130430423.98706 101634214.84803  24820050.722 3  24820044.206 3
  24820051.213 6  24820056.076 6  97399514.64206

  23314710.090 7 122519688.98307  95469936.00204  23314715.921 4  23314709.540 4
  23314716.491 6  23314713.969 7  91492021.42807

  37105932.857 7 194993003.59807
                  37105930.659 6 145611649.29106

  36827375.897 7 193529195.55707
                  36827383.720 7 144518571.28407

  24042207.620 8 126343159.89608
                  24042211.814 8  94347481.43508  24042209.952 8 102551042.38608
  24042209.816 8  96808679.65208  24042210.824 8  95578081.61808
  36980899.390 7 194335940.91107
                  36980898.583 6 145120996.43206

  24257875.100 6 129535699.12906 100750043.38806
  24257885.429 6

  28341549.404 6 148936157.59806
                  28341554.360 6 111218764.04906  28341553.229 6 120889886.00006
  28341552.259 6 114120098.45506  28341553.029 7 112669428.82407
  20898619.695 8 109823435.65908  85576893.66807  20898623.167 7  20898619.539 7
  20898623.850 7  20898620.685 8  82011274.49208

  22025635.950 7 115745579.60207  90191416.69106  22025639.862 6  22025635.432 6
  22025639.919 7  22025639.082 8  86433446.45308

  24537729.276 6 131076152.36506 101948146.60006
  24537735.559 6

  25249284.514 6 132685906.31306 103391626.74903  25249285.601 3  25249283.526 3


 25  4 11  3  2  0.0000000  0 29G18E19G15E29G23R22R21G10R08R06E33R23
                                G24R01R07E13E26G28G08S33S31E07S35R09
                                E08G32G27R16G02
  22115866.596 7 116219971.09107  90561166.92405  22115868.704 5  22115866.342 5
  22115868.871 7  22115872.032 8  86787843.74508

  26286049.243 5 138134256.02605
                  26286056.849 6 103152332.06406  26286054.866 5 112122062.27705
  26286054.005 6 105843207.45106  26286055.071 6 104497787.33306
  25105300.205 6 131929726.35106 102802634.75504  25105303.051 4  25105299.960 4
  25105303.213 5

  23558953.666 8 123803618.70608
                  23558956.513 8  92451042.53008  23558957.461 8 100490159.30308
  23558954.824 8  94862771.50308  23558955.482 8  93656802.08908
  21556049.934 7 113278267.59107  88269057.16206  21556051.227 6  21556049.698 6
  21556051.390 7  21556054.185 8  84591200.37408

  19260646.782 8 102814774.70308  79967131.69007
  19260650.868 7

  23110397.387 7 123668621.02207  96186855.00507
  23110408.085 7

  21160079.452 8 111197315.94608  86647466.52607  21160082.364 7  21160079.148 7
  21160082.490 7  21160079.239 8  83037172.58308

  19721513.817 8 105608230.54208  82139930.14807
  19721518.977 7

  24121839.383 5 128718819.57005


  24693686.697 7 129766398.86207
                  24693689.198 7  96903602.68907  24693689.991 7 105329967.19307
  24693687.269 7  99431503.18607  24693688.196 8  98167556.01208
  19858606.320 8 106230261.81408


  22821142.265 6 119926116.09406  93449033.23405  22821146.905 5  22821142.002 5
  22821147.532 7  22821146.614 7  89555347.77407

  23169560.147 6 123854686.74506


  20491592.205 8 109693591.50908  85317492.50807
  20491597.509 7

  26118779.034 6 137255175.07506
                  26118786.137 7 102495812.59007  26118783.481 7 111408462.55307
  26118784.055 7 105169601.42507  26118785.093 7 103832707.08007
  23266975.971 8 122269130.37908
                  23266977.742 8  91305083.57608  23266979.219 8  99244583.10008
  23266975.880 8  93686925.44708  23266976.722 8  92496010.08408
  24810300.845 6 130379220.67706 101594316.26503  24810307.307 3  24810300.541 3
  24810307.825 6  24810311.689 6  97361278.52206

  23311872.695 6 122504775.28906  95458314.96904  23311877.917 4  23311872.150 4
  23311878.146 6  23311875.922 7  91480884.61207

  37105934.051 7 194993007.14007
                  37105931.195 6 145611651.83306

  36827372.436 7 193529185.20807
                  36827381.744 7 144518563.50707

  24046508.851 8 126365763.63808
                  24046513.091 8  94364360.85508  24046511.396 8 102569389.57908
  24046511.157 8  96825999.40508  24046512.154 8  95595181.20408
  36980906.706 7 194335986.22707
                  36980907.347 6 145121030.37206

  24250881.231 6 129498360.20306 100721002.03906
  24250892.503 6

  28349531.196 6 148978103.49506
                  28349536.125 6 111250087.34606  28349535.097 6 120923933.05006
  28349533.920 6 114152238.88706  28349534.987 6 112701160.68506
  20894629.355 8 109802467.55508  85560554.91907  20894633.027 7  20894629.199 7
  20894633.430 7  20894630.590 8  81995616.53008

  22028658.061 7 115761460.23207  90203791.20506  22028661.807 6  22028657.534 6
  22028662.017 7  22028660.984 8  86445305.36708

  24535812.716 6 131065909.38406 101940179.87706
  24535818.068 6

  25240433.851 6 132639399.33306 103355387.60604  25240435.768 4  25240432.854 4


 25  4 11  3  2 15.0000000  0 29G18E19G15E29G23R22R21G10R08R06E33R23
                                G24R01R07E13E26G28G08S33S31E07S35R09
                                E08G32G27R16G02
  22123155.312 7 116258274.94707  90591014.07105  22123157.703 5  22123155.053 5
  22123158.232 7  22123160.972 8  86816447.25208

  26278278.923 5 138093422.40305
                  26278286.449 6 103121839.51606  26278284.650 5 112088918.18505
  26278283.431 6 105811919.45106  26278284.594 6 104466897.05706
  25115754.525 6 131984666.23906 102845445.14004  25115757.749 4  25115754.280 4
  25115757.036 5

  23555409.187 8 123784992.99208
                  23555412.107 8  92437133.74708  23555413.196 8 100475041.05408
  23555410.448 8  94848499.88108  23555411.099 8  93642711.88708
  21559969.029 8 113298861.70508  88285104.52406  21559970.112 6  21559968.797 6
  21559970.266 7  21559973.063 8  84606579.09908

  19264432.280 8 102834983.77308  79982849.84807
  19264436.874 7

  23122204.396 7 123731797.17707  96235991.95206
  23122214.426 6

  21159001.090 8 111191649.17708  86643050.87807  21159004.006 7  21159000.791 7
  21159003.866 7  21159000.899 8  83032940.92008

  19720499.246 8 105602799.01408  82135705.65407
  19720504.824 7

  24131560.590 4 128770687.42904


  24687952.258 7 129736264.36707
                  24687954.758 7  96881099.68707  24687955.555 7 105305507.39707
  24687952.865 7  99408413.14507  24687953.765 8  98144759.49008
  19852102.491 8 106195467.20108


  22824467.041 6 119943586.00306  93462646.17105  22824471.534 5  22824466.778 5
  22824471.601 7  22824471.042 7  89568393.51507

  23161261.403 6 123810324.70206


  20498767.940 8 109732005.59608  85347370.13607
  20498773.085 7

  26124821.997 6 137286931.54106
                  26124829.315 7 102519526.80207  26124826.312 7 111434238.88107
  26124827.011 7 105193934.27607  26124828.142 7 103856730.61107
  23267309.997 8 122270885.44208
                  23267311.724 8  91306394.19008  23267313.205 8  99246007.67008
  23267309.863 8  93688270.24708  23267310.698 8  92497337.79208
  24800552.000 6 130327989.52506 101554395.95403  24800558.338 3  24800551.714 3
  24800558.886 6  24800563.185 6  97323021.58806

  23309059.162 7 122489989.34607  95446793.46904  23309063.983 4  23309058.621 4
  23309064.530 6  23309062.133 7  91469843.17107

  37105934.247 7 194993009.67207
                  37105931.522 6 145611654.05906

  36827370.522 7 193529173.51607
                  36827379.356 7 144518555.29007

  24050822.961 8 126388433.95408
                  24050827.157 8  94381289.99908  24050825.373 8 102587790.81808
  24050825.263 8  96843370.17908  24050826.179 8  95612331.16408
  36980916.119 7 194336030.47907
                  36980915.539 6 145121063.41606

  24243901.345 6 129461076.58506 100692003.72606
  24243910.474 6

  28357513.192 6 149020049.10706
                  28357518.056 6 111281410.43706  28357517.129 6 120957979.86506
  28357515.783 6 114184379.08106  28357516.838 6 112732892.32806
  20890660.203 8 109781608.10208  85544300.83107  20890663.603 7  20890660.060 7
  20890663.899 7  20890661.092 8  81980039.70808

  22031704.053 7 115777467.87207  90216264.69206  22031707.921 6  22031703.517 6
  22031708.556 7  22031707.163 8  86457259.12108

  24533922.450 6 131055815.42806 101932329.07206
  24533928.219 6

  25231583.207 6 132592888.32506 103319145.30404  25231585.179 4  25231582.219 4


 25  4 11  3  2 30.0000000  0 29G18E19G15E29G23R22R21G10R08R06E33R23
                                G24R01R07E13E26G28G08S33S31E07S35R09
                                E08G32G27R16G02
  22130461.738 7 116296669.05907  90620931.54505  22130463.874 5  22130461.479 5
  22130464.140 7  22130467.136 8  86845118.16808

  26270515.743 5 138052627.53805
                  26270523.459 6 103091375.89206  26270521.006 5 112055805.51205
  26270520.658 6 105780661.12506  26270521.544 6 104436036.07906
  25126207.384 6 132039596.30606 102888247.88604  25126210.404 4  25126207.143 4
  25126210.871 5

  23551881.090 7 123766452.68007
                  23551883.905 8  92423288.73808  23551885.043 8 100459992.11508
  23551882.301 8  94834293.69208  23551882.962 8  93628686.28908
  21563893.406 7 113319484.97507  88301174.60806  21563894.632 6  21563893.170 6
  21563895.045 7  21563897.505 8  84621979.59208

  19268252.513 8 102855373.95208  79998708.87207
  19268256.427 7

  23134020.308 7 123795028.93607  96285172.12307
  23134030.683 7

  21157928.578 8 111186011.90908  86638658.21707  21157931.250 7  21157928.283 7
  21157931.293 7  21157928.156 8  83028731.29508

  19719507.573 8 105597486.94508  82131574.07508
  19719513.283 8

  24141273.478 5 128822522.01905


  24682223.250 7 129706158.94907
                  24682225.836 7  96858618.40107  24682226.733 7 105281071.20207
  24682223.986 7  99385345.38407  24682224.856 8  98121984.96708
  19845625.005 8 106160822.09008


  22827820.031 6 119961205.38506  93476375.56705  22827824.397 5  22827819.763 5
  22827824.841 7  22827823.920 7  89581550.85107

  23152976.905 6 123766034.20706


  20505953.607 8 109770470.78308  85377287.50307
  20505959.228 7

  26130875.103 6 137318740.62606
                  26130882.383 7 102543280.31507  26130879.504 7 111460057.91807
  26130880.134 7 105218307.43707  26130881.199 7 103880793.95007
  23267657.599 8 122272712.94108
                  23267659.503 8  91307758.88708  23267661.002 8  99247491.03208
  23267657.620 8  93689670.54608  23267658.447 8  92498720.28908
  24790797.222 6 130276733.33806 101514456.15703  24790804.030 3  24790796.945 3
  24790804.619 6  24790809.248 6  97284745.95006

  23306269.981 6 122475333.75406  95435373.55304  23306275.045 4  23306269.431 4
  23306276.098 6  23306273.130 7  91458899.09207

  37105935.200 7 194993012.61407
                  37105932.268 6 145611656.08906

  36827368.349 7 193529162.62107
                  36827377.473 7 144518538.86817

  24055150.064 8 126411173.20508
                  24055154.259 8  94398270.61508  24055152.511 8 102606248.00908
  24055152.333 8  96860793.76708  24055153.301 8  95629533.26608
  36980923.720 7 194336075.81107
                  36980924.098 6 145121097.32506

  24236929.305 6 129423851.04006 100663050.61406
  24236940.147 6

  28365495.245 6 149061996.74706
                  28365500.364 6 111312735.01106  28365499.806 6 120992028.29606
  28365498.112 6 114216520.81306  28365499.185 6 112764625.48306
  20886711.841 8 109760859.88408  85528133.41807  20886715.326 7  20886711.689 7
  20886715.854 7  20886712.822 8  81964545.94408

  22034774.859 7 115793604.86907  90228838.97506  22034778.719 6  22034774.305 6
  22034779.190 7  22034777.949 8  86469309.47608

  24532060.757 7 131045873.41407 101924596.44606
  24532067.794 6

  25222732.182 6 132546375.86406 103282901.88004  25222733.973 4  25222731.190 4


 25  4 11  3  2 45.0000000  0 29G18E19G15E29G23R22R21G10R08R06E33R23
                                G24R01R07E13E26G28G08S33S31E07S35R09
                                E08G32G27R16G02
  22137784.529 7 116335152.01707  90650918.24705  22137786.930 5  22137784.275 5
  22137787.239 7  22137790.273 8  86873855.41608

  26262759.964 5 138011870.07205
                  26262767.340 6 103060940.21106  26262765.401 5 112022723.22905
  26262764.385 6 105749431.45506  26262765.555 6 104405203.41206
  25136657.677 6 132094515.12906 102931041.88404  25136660.613 4  25136657.441 4
  25136661.944 5

  23548369.104 7 123747996.48407
                  23548371.808 8  92409506.54708  23548372.969 8 100445011.45708
  23548370.204 8  94820151.96108  23548370.843 8  93614724.32708
  21567823.377 8 113340136.11708  88317266.40706  21567824.419 6  21567823.145 6
  21567824.504 7  21567827.381 8  84637400.90908

  19272106.002 8 102875943.85308  80014707.67907
  19272110.263 7

  23145847.049 7 123858314.20507  96334393.93606
  23145857.497 6

  21156860.880 8 111180402.84208  86634287.53407  21156863.883 7  21156860.581 7
  21156863.919 7  21156860.763 8  83024542.72708

  19718537.924 8 105592292.75608  82127534.18908
  19718542.872 8

  24150980.582 5 128874322.18305


  24676499.769 7 129676081.51807
                  24676502.274 7  96836158.00107  24676503.126 7 105256657.71207
  24676500.466 7  99362299.05907  24676501.282 8  98099231.60408
  19839176.493 8 106126325.66408


  22831200.366 6 119978972.81506  93490220.33505  22831205.332 5  22831200.085 5
  22831205.890 7  22831204.966 7  89594818.76407

  23144703.503 6 123721813.69306


  20513148.353 8 109808985.20408  85407243.16707
  20513153.625 7

  26136937.971 6 137350600.93706
                  26136945.369 7 102567072.09807  26136942.319 7 111485918.57007
  26136943.036 7 105242719.88207  26136944.039 7 103904896.06507
  23268018.977 8 122274611.69808
                  23268020.805 8  91309176.80108  23268022.365 8  99249032.24408
  23268018.975 8  93691125.44908  23268019.759 8  92500156.69808
  24781039.177 6 130225451.13706 101474496.08303  24781045.755 3  24781038.887 3
  24781045.719 6  24781050.344 6  97246450.91106

  23303505.611 6 122460807.29206  95424054.24704  23303510.746 4  23303505.075 4
  23303511.372 6  23303508.905 7  91448051.43807

  37105934.954 7 194993016.12907
                  37105932.952 6 145611658.53206

  36827366.122 7 193529152.24507
                  36827375.394 7 144518531.04707

  24059489.987 8 126433979.91208
                  24059494.297 8  94415301.60808  24059492.389 8 102624759.95208
  24059492.361 8  96878269.04308  24059493.261 8  95646786.39908
  36980931.881 7 194336121.01507
                  36980932.715 6 145121131.01806

  24229969.259 6 129386682.99606 100634142.18206
  24229979.694 6

  28373477.546 5 149103944.95905
                  28373482.856 6 111344060.03506  28373482.332 6 121026077.22206
  28373480.560 6 114248663.00506  28373481.715 6 112796359.09506
  20882784.485 8 109740221.62908  85512051.69007  20882787.976 7  20882784.342 7
  20882788.296 7  20882785.434 8  81949134.29708

  22037870.159 7 115809869.67607  90241512.85206  22037873.802 6  22037869.605 6
  22037874.074 7  22037873.103 8  86481455.28008

  24530227.747 6 131036081.72406 101916980.69906
  24530234.517 6

  25213880.184 6 132499860.90706 103246656.49903  25213881.873 3  25213879.160 3


 25  4 11  3  3  0.0000000  0 29G18E19G15E29G23R22R21G10R08R06E33R23
                                G24R01R07E13E26G28G08S33S31E07S35R09
                                E08G32G27R16G02
  22145125.256 7 116373726.43607  90680976.22305  22145127.416 5  22145125.011 5
  22145127.444 7  22145130.758 8  86902660.97308

  26255011.367 5 137971152.82105
                  26255019.097 6 103030534.59806  26255017.130 5 111989673.58505
  26255016.183 6 105718232.63206  26255017.190 6 104374401.18806
  25147106.804 6 132149425.11306 102973828.99704  25147109.565 4  25147106.568 4
  25147108.690 5

  23544873.572 7 123729627.19407
                  23544876.225 8  92395789.24708  23544877.247 8 100430101.34108
  23544874.651 8  94806076.82008  23544875.259 8  93600828.10508
  21571758.730 7 113360817.90407  88333382.08406  21571760.042 6  21571758.485 6
  21571760.332 7  21571762.987 8  84652845.09408

  19275993.309 8 102896696.20908  80030848.39907
  19275997.632 7

  23157683.585 7 123921655.64607  96383659.45307
  23157694.782 7

  21155799.635 8 111174824.71808  86629940.95807  21155802.400 7  21155799.340 7
  21155802.435 7  21155799.278 8  83020377.26408

  19717590.258 8 105587218.95808  82123587.92707
  19717595.405 7

  24160683.123 5 128926090.36405


  24670782.139 7 129646034.96307
                  24670784.704 7  96813720.67207  24670785.433 7 105232269.30207
  24670782.736 7  99339276.39807  24670783.588 8  98076501.60808
  19832756.349 8 106091981.20508


  22834610.347 6 119996890.98706  93504182.56205  22834615.061 5  22834610.066 5
  22834615.692 7  22834614.584 7  89608199.22907

  23136447.183 6 123677666.26506


  20520353.251 8 109847551.42108  85437239.11707
  20520358.672 7

  26143011.129 6 137382515.26406
                  26143018.543 7 102590904.20107  26143015.454 7 111511823.01807
  26143016.096 7 105267173.68807  26143017.120 7 103929039.01907
  23268394.551 7 122276584.57807
                  23268396.284 8  91310650.06608  23268397.721 8  99250633.61608
  23268394.384 8  93692637.14708  23268395.170 8  92501649.17908
  24771276.192 6 130174146.01406 101434518.14203  24771282.374 3  24771275.893 3
  24771282.931 6  24771287.143 6  97208138.74806

  23300766.529 6 122446412.77906  95412837.77504  23300771.569 4  23300766.006 4
  23300772.484 6  23300769.768 7  91437302.32407

  37105937.288 7 194993022.62207
                  37105934.057 6 145611663.69506

  36827364.490 7 193529144.52707
                  36827373.936 7 144518525.40007

  24063843.370 8 126456856.64508
                  24063847.565 8  94432384.88808  24063845.666 8 102643328.73508
  24063845.657 8  96895797.97408  24063846.547 8  95664092.50608
  36980942.027 7 194336168.64107
                  36980941.828 6 145121166.45606

  24223019.467 6 129349575.88306 100605281.14106
  24223029.332 6

  28381460.879 5 149145896.39305
                  28381465.938 6 111375387.42806  28381465.342 6 121060128.72806
  28381463.759 6 114280807.65106  28381464.943 6 112828095.11506
  20878878.636 8 109719696.12708  85496057.82107  20878882.089 7  20878878.489 7
  20878882.511 7  20878879.588 8  81933806.84608

  22040990.131 7 115826264.82307  90254288.29406  22040993.715 6  22040989.555 6
  22040994.233 7  22040992.888 8  86493698.41008

  24528423.518 6 131026443.92706 101909484.66106
  24528429.633 6

  25205029.179 6 132453346.43106 103210411.48903  25205030.359 3  25205028.151 3


 25  4 11  3  3 15.0000000  0 29G18E19G15E29G23R22R21G10R08R06E33R23
                                G24R01R07E13E26G28G08S33S31E07S35R09
                                E08G32G27R16G02
  22152482.298 7 116412388.05007  90711102.13905  22152484.550 5  22152482.048 5
  22152484.754 7  22152487.831 8  86931531.63908

  26247270.170 5 137930471.94005
                  26247277.668 6 103000156.11406  26247275.615 5 111956653.45105
  26247274.753 6 105687061.66106  26247275.886 6 104343626.46206
  25157553.360 6 132204322.06706 103016605.94004  25157556.071 4  25157553.128 4
  25157555.895 5

  23541393.508 7 123711340.69907
                  23541396.400 8  92382133.77908  23541397.395 8 100415258.42408
  23541394.776 8  94792065.11608  23541395.420 8  93586994.52008
  21575699.167 8 113381526.20308  88349518.42306  21575700.668 6  21575698.908 6
  21575700.589 7  21575703.693 8  84668309.09008

  19279914.190 8 102917626.69708  80047127.65907
  19279918.502 7

  23169531.161 7 123985048.76807  96432965.12406
  23169540.538 6

  21154743.136 8 111169273.40808  86625615.27707  21154746.046 7  21154742.837 7
  21154746.019 7  21154742.814 8  83016231.82008

  19716664.438 8 105582261.20008  82119731.91007
  19716669.464 7

  24170376.227 5 128977822.34505


  24665069.538 7 129616015.36307
                  24665072.111 7  96791303.47107  24665072.823 7 105207902.76307
  24665070.115 7  99316274.40207  24665071.014 8  98053792.00908
  19826363.389 8 106057784.82508


  22838048.295 6 120014955.58406  93518258.88005  22838052.616 5  22838048.014 5
  22838053.115 7  22838052.076 7  89621689.04407

  23128199.626 6 123633587.47606


  20527566.081 8 109886164.98808  85467271.90107
  20527571.819 7

  26149093.991 6 137414479.37506
                  26149101.086 7 102614773.48007  26149097.757 7 111537767.89007
  26149098.750 7 105291665.65007  26149099.698 7 103953219.64007
  23268783.189 7 122278627.54507
                  23268784.999 8  91312175.67108  23268786.434 8  99252291.87608
  23268783.111 8  93694202.54608  23268783.924 8  92503194.68208
  24761507.481 6 130122814.18806 101394519.40703  24761514.960 3  24761507.155 3
  24761514.661 6  24761518.732 6  97169806.60806

  23298051.451 6 122432146.17706  95401720.96004  23298056.722 4  23298050.924 4
  23298057.461 6  23298054.798 7  91426648.72307

  37105937.641 7 194993026.92807
                  37105934.813 6 145611666.78206

  36827363.650 7 193529134.98307
                  36827372.134 7 144518518.16907

  24068209.240 8 126479799.07408
                  24068213.302 8  94449517.23408  24068211.640 8 102661950.84408
  24068211.490 8  96913377.25008  24068212.331 8  95681448.31608
  36980950.519 7 194336215.72107
                  36980950.588 6 145121201.81906

  24216081.914 6 129312525.69106 100576464.39206
  24216092.122 6

  28389443.810 6 149187846.67006
                  28389448.767 6 111406713.99706  28389447.927 6 121094179.33106
  28389446.887 6 114312951.44106  28389447.876 6 112859830.29106
  20874993.499 8 109699279.25808  85480148.60807  20874996.826 7  20874993.352 7
  20874997.322 7  20874994.355 8  81918560.52708

  22044133.598 7 115842785.93807  90267161.88506  22044137.651 6  22044133.013 6
  22044137.906 7  22044136.762 8  86506035.60608

  24526647.487 7 131016955.75707 101902105.03706
  24526653.834 6

  25196177.071 6 132406828.54906 103174163.82904  25196178.188 4  25196176.025 4


 25  4 11  3  3 30.0000000  0 29G18E19G15E29G23R22R21G10R08R06E33R23
                                G24R01R07E13E26G28G08S33S31E07S35R09
                                E08G32G27R16G02
  22159856.280 7 116451136.36507  90741295.61605  22159858.027 5  22159856.039 5
  22159858.240 7  22159861.473 8  86960467.04608

  26239535.780 5 137889827.11505
                  26239542.875 6 102969804.56006  26239540.886 5 111923662.59605
  26239540.389 6 105655918.32306  26239541.352 6 104312879.01106
  25167997.461 6 132259205.54206 103059372.39604  25167999.935 4  25167997.233 4
  25168000.391 5

  23537929.645 7 123693136.63507
                  23537932.190 8  92368539.86908  23537933.391 8 100400482.42508
  23537930.659 8  94778116.57508  23537931.272 8  93573223.29508
  21579645.071 7 113402260.68407  88365675.16806  21579646.226 6  21579644.812 6
  21579646.780 7  21579649.266 8  84683792.63508

  19283868.777 8 102938734.88408  80063545.14007
  19283872.773 7

  23181386.043 7 124048492.56807  96482310.24806
  23181396.497 6

  21153691.619 8 111163748.51508  86621310.18207  21153694.678 7  21153691.320 7
  21153694.669 7  21153691.447 8  83012106.10808

  19715759.976 8 105577418.92608  82115965.71607
  19715765.124 7

  24180064.270 5 129029517.43505


  24659362.039 7 129586022.54507
                  24659364.542 7  96768906.26007  24659365.381 7 105183557.96207
  24659362.648 7  99293292.91207  24659363.561 8  98031102.65908
  19819998.811 8 106023736.67008


  22841512.832 7 120033166.17207  93532448.96705  22841517.891 5  22841512.546 5
  22841518.422 7  22841517.489 7  89635287.87407

  23119966.566 6 123589577.28306


  20534788.276 8 109924824.97408  85497340.77507
  20534793.826 7

  26155186.048 6 137446492.85206
                  26155192.942 7 102638679.64107  26155190.359 7 111563752.85907
  26155190.673 7 105316195.45307  26155191.662 7 103977437.62107
  23269185.199 8 122280740.36708
                  23269187.029 8  91313753.43508  23269188.548 8  99254006.83408
  23269185.178 8  93695821.47208  23269185.967 8  92504793.02708
  24751734.786 6 130071455.51406 101354499.75603  24751741.464 3  24751734.465 3
  24751741.252 6  24751745.566 6  97131454.47906

  23295361.343 6 122418007.21406  95390703.60504  23295365.990 4  23295360.816 4
  23295366.661 6  23295364.299 7  91416090.41407

  37105937.489 7 194993029.94707
                  37105935.524 6 145611668.95506

  36827360.832 7 193529124.34707
                  36827369.992 7 144518510.43007

  24072587.470 8 126502806.63608
                  24072591.494 8  94466698.21308  24072589.697 8 102680625.82208
  24072589.644 8  96931006.42908  24072590.519 8  95698853.39508
  36980959.113 7 194336259.63907
                  36980959.245 6 145121234.42406

  24209155.172 6 129275532.61306 100547692.04606
  24209163.746 6

  28397426.469 6 149229795.29306
                  28397430.944 6 111438039.33206  28397430.636 6 121128228.58406
  28397429.730 6 114345093.93306  28397430.299 6 112891564.20806
  20871128.823 8 109678970.69808  85464323.78807  20871132.177 7  20871128.680 7
  20871132.490 7  20871129.742 8  81903395.08308

  22047301.942 7 115859432.44007  90280133.18406  22047305.429 6  22047301.361 6
  22047305.993 7  22047304.541 8  86518466.43308

  24524899.333 6 131007617.03506 101894841.67906
  24524905.582 6

  25187323.598 6 132360306.99506 103137913.31804  25187325.985 4  25187322.548 4


 25  4 11  3  3 45.0000000  0 29G18E19G15E29G23R22R21G10R08R06E33R23
                                G24R01R07E13E26G28G08S33S31E07S35R09
                                E08G32G27R16G02
  22167246.592 7 116489973.48707  90771558.29305  22167248.573 5  22167246.347 5
  22167248.881 7  22167251.952 8  86989468.78608

  26231808.822 5 137849220.89805
                  26231815.944 6 102939481.83306  26231814.168 5 111890703.07605
  26231812.532 6 105624804.55806  26231814.169 6 104282160.77406
  25178438.879 6 132314077.20106 103102129.60204  25178441.656 4  25178438.660 4
  25178441.950 5

  23534481.514 7 123675017.30207
                  23534484.186 8  92355009.22708  23534485.413 8 100385775.19508
  23534482.637 8  94764232.95308  23534483.244 8  93559516.16208
  21583596.248 7 113423023.61407  88381854.07606  21583597.276 6  21583595.998 6
  21583597.712 7  21583600.332 8  84699297.41808

  19287856.596 8 102960022.96208  80080102.53307
  19287861.132 7

  23193250.546 7 124111989.13507  96531696.40906
  23193262.515 6

  21152645.730 8 111158252.33708  86617027.46007  21152648.775 7  21152645.422 7
  21152648.772 8  21152645.522 8  83008001.83308

  19714878.027 8 105572694.33308  82112291.05307
  19714882.742 7

  24189745.660 5 129081177.74005


  24653659.962 7 129556058.94007
                  24653662.634 8  96746530.87308  24653663.545 7 105159236.87407
  24653660.766 7  99270333.81307  24653661.629 8  98008435.41608
  19813662.230 8 105989839.78008


  22845006.871 7 120051524.89107  93546754.47805  22845011.552 5  22845006.594 5
  22845011.680 7  22845010.975 7  89648997.33007

  23111748.611 6 123545637.84806


  20542019.125 8 109963533.29608  85527447.24507
  20542025.226 7

  26161287.642 6 137478557.95306
                  26161294.643 7 102662624.33907  26161292.021 7 111589779.70907
  26161292.266 7 105340764.79007  26161293.459 7 104001694.63707
  23269601.039 8 122282925.39208
                  23269602.789 8  91315385.12108  23269604.367 8  99255780.40008
  23269600.946 8  93697495.71808  23269601.757 8  92506445.99308
  24741956.743 6 130020072.66306 101314461.24003  24741962.616 3  24741956.466 3
  24741963.400 6  24741967.815 6  97093084.25606

  23292695.042 6 122403998.14506  95379787.46704  23292700.027 4  23292694.497 4
  23292701.303 6  23292698.405 7  91405629.12007

  37105938.138 7 194993033.47607
                  37105936.109 6 145611671.91506

  36827357.738 7 193529113.60007
                  36827368.020 7 144518502.40807

  24076978.369 8 126525881.40308
                  24076982.474 8  94483929.38108  24076980.811 8 102699355.34608
  24076980.566 8  96948687.10008  24076981.491 8  95716309.31408
  36980966.102 7 194336304.97607
                  36980967.795 6 145121268.36106

  24202237.909 6 129238599.59106 100518966.39706
  24202248.123 6

  28405409.123 6 149271744.40206
                  28405413.336 6 111469365.03306  28405413.449 6 121162278.22106
  28405411.969 6 114377236.81206  28405412.678 6 112923298.49406
  20867285.369 8 109658772.70708  85448585.13107  20867288.554 7  20867285.226 7
  20867288.958 7  20867286.110 8  81888312.21008

  22050493.702 7 115876206.35507  90293203.77206  22050497.465 6  22050493.130 6
  22050497.840 7  22050496.579 8  86530992.40608

  24523178.946 6 130998430.39906 101887696.55606
  24523186.015 6

  25178471.224 6 132313784.23206 103101661.86004  25178473.393 4  25178470.178 4


 25  4 11  3  4  0.0000000  0 29G18E19G15E29G23R22R21G10R08R06E33R23
                                G24R01R07E13E26G28G08S33S31E07S35R09
                                E08G32G27R16G02
  22174653.128 7 116528895.95207  90801887.47005  22174655.310 5  22174652.887 5
  22174655.632 7  22174658.608 8  87018534.23708

  26224088.244 5 137808649.92205
                  26224095.189 6 102909185.42506  26224093.070 5 111857772.17505
  26224092.706 6 105593717.79406  26224093.676 6 104251469.18506
  25188877.958 6 132368933.74506 103144875.08404  25188880.623 4  25188877.735 4
  25188880.503 5

  23531048.814 7 123656979.35407
                  23531051.601 8  92341539.36208  23531052.796 8 100371134.01908
  23531050.107 8  94750411.69708  23531050.706 8  93545870.60308
  21587552.127 7 113443811.63907  88398052.54206  21587553.128 6  21587551.877 6
  21587553.525 7  21587556.176 8  84714820.95708

  19291877.422 8 102981487.34608  80096797.05407
  19291882.073 7

  23205127.130 7 124175534.51607  96581120.51306
  23205137.643 6

  21151604.855 8 111152781.46608  86612764.46207  21151607.718 7  21151604.547 7
  21151607.489 8  21151604.478 8  83003916.46308

  19714016.963 8 105568083.73708  82108705.06608
  19714022.055 8

  24199419.708 5 129132799.83505


  24647963.152 7 129526121.37907
                  24647965.683 8  96724174.93808  24647966.469 7 105134936.93607
  24647963.744 7  99247394.67307  24647964.666 8  97985787.87908
  19807353.211 8 105956090.81708


  22848527.860 6 120070028.28806  93561172.72005  22848532.776 5  22848527.574 5
  22848533.209 7  22848532.023 7  89662814.80007

  23103539.443 6 123501766.38306


  20549258.364 8 110002286.29208  85557588.47107
  20549264.279 7

  26167398.793 6 137510671.22806
                  26167405.793 7 102686605.00207  26167402.900 7 111615845.67507
  26167403.314 7 105365371.04707  26167404.428 7 104025988.09807
  23270029.998 7 122285179.38407
                  23270031.746 8  91317068.30908  23270033.253 8  99257609.94708
  23270029.876 8  93699222.81408  23270030.666 8  92508151.13408
  24732173.348 6 129968662.56006 101274401.50903  24732179.980 3  24732173.062 3
  24732180.764 6  24732184.659 6  97054693.69406

  23290053.442 6 122390115.67306  95368969.97504  23290058.250 4  23290052.892 4
  23290058.837 6  23290056.725 7  91395262.36807

  37105939.332 7 194993033.74607
                  37105936.185 6 145611672.04406

  36827356.285 7 193529099.81507
                  36827365.480 7 144518491.99707

  24081381.443 8 126549019.84408
                  24081385.620 8  94501208.09508  24081383.809 8 102718136.56008
  24081383.662 8  96966416.56308  24081384.581 8  95733813.40308
  36980975.260 7 194336347.58007
                  36980975.615 6 145121300.34306

  24195330.986 6 129201723.50906 100490285.08406
  24195341.895 6

  28413390.649 6 149313690.41406
                  28413395.783 6 111500688.43106  28413395.238 6 121196325.36106
  28413393.660 6 114409377.32306  28413394.555 6 112955030.45006
  20863462.016 8 109638681.97008  85432930.04507  20863465.361 7  20863461.873 7
  20863465.599 7  20863463.049 8  81873309.42508

  22053709.136 7 115893104.05607  90306370.81206  22053712.995 6  22053708.560 6
  22053713.519 7  22053711.982 8  86543610.82908

  24521486.690 6 130989392.65806 101880667.21605
  24521493.468 5

  25169617.246 6 132267257.16906 103065407.06104  25169619.017 4  25169616.187 4


 25  4 11  3  4 15.0000000  0 29G18E19G15E29G23R22R21G10R08R06E33R23
                                G24R01R07E13E26G28G08S33S31E07S35R09
                                E08G32G27R16G02
  22182077.288 7 116567910.20807  90832288.17605  22182079.545 5  22182077.038 5
  22182079.498 7  22182082.864 8  87047668.25208

  26216375.388 5 137768121.03705
                  26216383.061 6 102878920.45006  26216381.047 5 111824875.43505
  26216380.029 6 105562663.27706  26216381.222 6 104220809.43906
  25199314.959 6 132423781.46906 103187613.68404  25199317.194 4  25199314.723 4
  25199317.676 5

  23527633.179 7 123639029.41407
                  23527635.787 8  92328135.21708  23527636.975 8 100356564.28808
  23527634.316 8  94736657.87908  23527634.914 8  93532291.62108
  21591513.857 7 113464631.37907  88414275.71706  21591514.986 6  21591513.607 6
  21591515.400 7  21591518.048 8  84730368.16508

  19295932.752 8 103003134.68508  80113633.87407
  19295937.259 7

  23217012.319 7 124239135.13307  96630587.61506
  23217023.176 6

  21150569.783 8 111147342.52508  86608526.34007  21150572.721 7  21150569.475 7
  21150572.415 7  21150569.440 8  82999854.93608

  19713177.925 8 105563593.48008  82105212.67807
  19713183.503 7

  24209087.314 5 129184390.26805


  24642272.536 7 129496216.64807
                  24642274.963 8  96701843.50508  24642275.955 7 105110663.62807
  24642273.093 7  99224480.68107  24642273.954 8  97963165.16708
  19801072.720 8 105922497.07108


  22852077.908 7 120088682.79007  93575708.70505  22852082.699 5  22852077.627 5
  22852082.544 7  22852081.711 7  89676745.13507

  23095346.503 6 123457968.98306


  20556506.812 8 110041090.29408  85587769.36907
  20556512.984 7

  26173519.792 6 137542839.27306
                  26173527.189 7 102710626.57507  26173524.055 7 111641956.05807
  26173524.790 7 105390019.25407  26173525.811 7 104050322.98907
  23270473.245 7 122287509.05307
                  23270475.057 8  91318808.00108  23270476.575 8  99259500.91408
  23270473.155 8  93701007.88908  23270473.982 8  92509913.51808
  24722386.542 6 129917232.12506 101234325.92803  24722393.526 3  24722386.229 3
  24722393.117 6  24722397.731 6  97016287.93306

  23287437.051 6 122376366.59706  95358256.43104  23287441.904 4  23287436.484 4
  23287442.443 6  23287440.206 7  91384995.21907

  37105939.412 7 194993038.04307
                  37105936.874 6 145611675.14606

  36827353.481 7 193529090.14007
                  36827363.562 7 144518484.90207

  24085797.902 8 126572228.34908
                  24085802.008 8  94518539.13008  24085800.175 8 102736974.63708
  24085800.218 8  96984199.71408  24085800.993 8  95751370.49608
  36980982.795 7 194336393.16107
                  36980984.492 6 145121334.25806

  24188437.915 6 129164911.93306 100461653.91806
  24188449.071 6

  28421373.447 6 149355639.73806
                  28421378.526 6 111532014.26106  28421377.681 6 121230375.17506
  28421376.354 6 114441520.36106  28421377.332 6 112986764.88306
  20859660.637 8 109618705.08608  85417363.66907  20859663.843 7  20859660.494 7
  20859664.277 7  20859661.527 8  81858391.65608

  22056949.197 7 115910131.95507  90319639.30606  22056953.334 6  22056948.630 6
  22056953.580 7  22056952.260 8  86556326.47108

  24519825.543 6 130980510.51406 101873758.93706
  24519830.066 6

  25160764.306 6 132220732.59706 103029154.17804  25160765.119 4  25160763.256 4


 25  4 11  3  4 30.0000000  0 30G18E19G15E29G23R22R21G10R08R06E33R23
                                G24R01R07E13E26G28G08S33S31E07S35R09
                                E08G32R24G27R16G02
  22189518.278 7 116607013.26207  90862758.07405  22189520.544 5  22189518.033 5
  22189521.326 7  22189523.865 8  87076868.56108

  26208670.980 5 137727631.39005
                  26208677.894 6 102848684.78906  26208676.296 5 111792010.52805
  26208675.348 6 105531638.85106  26208676.205 6 104190179.39206
  25209749.785 6 132478617.47106 103230343.15404  25209752.230 4  25209749.562 4
  25209753.080 5

  23524233.610 7 123621164.66707
                  23524236.237 8  92314794.68908  23524237.542 8 100342063.70308
  23524234.759 8  94722969.33308  23524235.327 8  93518777.08408
  21595481.164 7 113485479.99007  88430521.39006  21595482.384 6  21595480.914 6
  21595482.715 7  21595485.379 8  84745936.93308

  19300022.033 8 103024962.00008  80130610.68507
  19300026.209 7

  23228907.394 7 124302787.56007  96680095.00506
  23228918.938 6

  21149540.161 8 111141932.66108  86604310.88207  21149543.215 7  21149539.853 7
  21149543.172 7  21149539.949 8  82995815.12508

  19712361.811 8 105559220.58108  82101811.55707
  19712366.785 7

  24218749.274 5 129235945.77905


  24636587.608 7 129466342.07107
                  24636590.005 8  96679534.60108  24636590.843 7 105086414.80407
  24636588.177 7  99201589.79907  24636588.983 8  97940565.27408
  19794821.611 8 105889056.10508


  22855655.901 6 120107485.49906  93590360.18605  22855660.601 5  22855655.611 5
  22855661.096 7  22855659.765 7  89690786.13707

  23087165.733 6 123414243.43506


  20563765.014 8 110079942.06408  85617987.41107
  20563771.216 7

  26179651.173 6 137575059.15706
                  26179658.520 7 102734686.86707  26179655.587 7 111668108.56907
  26179656.003 7 105414707.21007  26179657.058 7 104074697.11207
  23270930.474 7 122289911.66307
                  23270932.194 8  91320602.17308  23270933.679 8  99261451.10008
  23270930.391 8  93702848.86908  23270931.174 8  92511731.09308
  24712595.271 6 129865778.83806 101194232.53803  24712601.862 3  24712594.963 3
  24712601.682 6  24712606.272 6  96977865.12006

  23284845.149 6 122362747.92906  95347644.50004  23284850.456 4  23284844.573 4
  23284851.400 6  23284848.718 7  91374825.46007

  37105939.819 7 194993043.12907
                  37105937.634 6 145611679.21906

  36827351.540 7 193529081.57507
                  36827361.840 7 144518478.65207

  24090227.048 8 126595503.89508
                  24090231.159 8  94535920.23108  24090229.424 8 102755867.13308
  24090229.368 8  97002034.23008  24090230.171 8  95768978.30508
  36980992.633 7 194336439.93307
                  36980993.283 6 145121369.20406

  24181555.892 6 129128162.05206 100433070.75706
  24181566.401 6

  28429356.313 6 149397589.45606
                  28429361.096 6 111563340.42906  28429360.233 6 121264425.29306
  28429359.273 6 114473663.72406  28429360.193 6 113018499.65006
  20855880.266 8 109598839.25008  85401883.83007  20855883.435 7  20855880.128 7
  20855883.888 7  20855881.082 8  81843556.81608

  24605822.388 7 131578371.06217 102338791.95616
  24605830.943 6

  22060214.121 7 115927286.92507  90333006.81606  22060217.914 6  22060213.558 6
  22060218.175 7  22060216.704 8  86569137.00108

  24518190.912 6 130971781.48806 101866969.72205
  24518197.859 5

  25151910.103 6 132174207.78306 102992901.12004  25151911.986 4  25151909.035 4


 25  4 11  3  4 45.0000000  0 30G18E19G15E29G23R22R21G10R08R06E33R23
                                G24R01R07E13E26G28G08S33S31E07S35R09
                                E08G32R24G27R16G02
  22196976.220 7 116646204.38107  90893296.59405  22196978.330 5  22196975.979 5
  22196978.760 7  22196981.770 8  87106134.64108

  26200973.030 5 137687180.51605
                  26200980.157 6 102818478.05706  26200978.391 5 111759177.08605
  26200977.203 6 105500644.09206  26200978.602 6 104159578.64806
  25220182.009 6 132533440.92606 103273062.83104  25220184.830 4  25220181.786 4
  25220184.982 5

  23520850.226 7 123603384.50007
                  23520852.747 8  92301517.32908  23520853.960 8 100327631.78008
  23520851.222 8  94709345.60508  23520851.829 8  93505326.53908
  21599453.749 7 113506356.90207  88446789.11706  21599455.161 6  21599453.495 6
  21599455.586 7  21599458.141 8  84761526.84108

  19304144.071 8 103046968.51408  80147726.85207
  19304148.568 7

  23240812.906 7 124366490.92007  96729641.98206
  23240822.552 6

  21148516.328 8 111136551.23408  86600117.57607  21148519.160 7  21148516.020 7
  21148519.045 8  21148515.888 8  82991796.54408

  19711566.990 8 105554964.26708  82098501.11307
  19711572.199 7

  24228403.149 5 129287465.76905


  24630908.396 7 129436497.24407
                  24630910.671 8  96657247.90608  24630911.604 7 105062190.12607
  24630908.904 7  99178721.71107  24630909.665 8  97917987.88208
  19788598.693 8 105855767.86608


  22859262.146 7 120126435.62407  93605126.53305  22859266.616 5  22859261.878 5
  22859267.124 7  22859265.983 7  89704937.22707

  23079000.163 6 123370589.08306


  20571031.655 8 110118840.48308  85648241.74107
  20571037.620 7

  26185792.190 6 137607330.28006
                  26185799.471 7 102758785.39907  26185796.564 7 111694302.63407
  26185796.879 7 105439434.41407  26185798.058 7 104099109.97807
  23271401.509 7 122292386.72107
                  23271403.183 8  91322450.44008  23271404.699 8  99263460.08008
  23271401.330 8  93704745.34508  23271402.157 8  92513603.46608
  24702799.913 6 129814302.36106 101154121.07403  24702805.614 3  24702799.592 3
  24702805.975 6  24702810.688 6  96939425.00206

  23282279.111 6 122349259.22106  95337133.84104  23282283.767 4  23282278.548 4
  23282284.514 6  23282282.019 7  91364752.74907

  37105940.365 7 194993048.23607
                  37105938.810 6 145611682.99706

  36827349.962 7 193529072.52007
                  36827360.213 7 144518471.66507

  24094668.756 8 126618845.67608
                  24094672.922 8  94553350.79108  24094671.180 8 102774813.38708
  24094671.139 8  97019919.49808  24094671.950 8  95786636.21808
  36981001.527 7 194336487.34707
                  36981002.230 6 145121404.83806

  24174683.827 6 129091473.86506 100404535.53106
  24174694.632 6

  28437338.606 6 149439538.70806
                  28437343.448 6 111594666.24006  28437342.809 6 121298475.09106
  28437342.207 6 114505806.72506  28437342.777 6 113050234.05606
  20852120.923 8 109579083.86808  85386490.05607  20852124.034 7  20852120.789 7
  20852124.552 7  20852121.747 8  81828804.45208

  24593889.613 7 131514561.11607 102289162.04306
  24593897.956 6

  22063502.390 7 115944568.14707  90346472.70506  22063506.386 6  22063501.836 6
  22063506.533 7  22063505.230 8  86582041.81408

  24516584.690 6 130963205.20906 101860299.37705
  24516590.484 5

  25143057.382 6 132127682.42106 102956647.64104  25143058.477 4  25143056.305 4


 25  4 11  3  5  0.0000000  0 30G18E19G15E29G23R22R21G10R08R06E33R23
                                G24R01R07E13E26G28G08S33S31E07S35R09
                                E08G32R24G27R16G02
  22204450.409 7 116685482.62307  90923903.00005  22204452.714 5  22204450.164 5
  22204452.888 7  22204456.197 8  87135465.78408

  26193282.769 5 137646767.89305
                  26193290.093 6 102788299.88706  26193288.151 5 111726374.68905
  26193287.126 6 105469678.66506  26193288.270 6 104129006.85306
  25230612.037 6 132588250.87506 103315771.96104  25230614.576 4  25230611.805 4
  25230615.299 5

  23517482.536 7 123585688.15007
                  23517485.253 8  92288302.55608  23517486.426 8 100313267.88208
  23517483.706 8  94695786.09008  23517484.282 8  93491939.39508
  21603432.002 7 113527261.32707  88463078.28206  21603433.206 6  21603431.748 6
  21603433.432 7  21603436.139 8  84777137.29208

  19308300.637 8 103069153.40608  80164981.75807
  19308304.882 7

  23252726.356 7 124430243.85407  96779227.55606
  23252736.027 6

  21147497.357 8 111131197.49108  86595945.84107  21147500.354 7  21147497.049 7
  21147499.995 7  21147497.078 8  82987798.63508

  19710793.789 8 105550823.47208  82095280.52008
  19710798.597 8

  24238053.542 5 129338949.37705


  24625234.519 7 129406681.56407
                  24625237.002 8  96634982.97808  24625237.956 7 105037989.11007
  24625235.029 7  99155875.95707  24625235.896 8  97895432.54008
  19782403.882 8 105822632.05408


  22862895.871 7 120145532.31407  93620007.08205  22862900.614 5  22862895.608 5
  22862901.195 7  22862899.949 7  89719197.75507

  23070847.185 6 123327004.93706


  20578306.529 8 110157784.78108  85678531.75907
  20578312.472 7

  26191943.015 6 137639651.75506
                  26191950.238 7 102782921.54407  26191947.177 7 111720537.57807
  26191947.572 7 105464200.18807  26191948.637 7 104123560.93807
  23271885.989 8 122294933.54108
                  23271887.828 8  91324352.28508  23271889.349 8  99265527.30008
  23271886.007 8  93706696.80308  23271886.787 8  92515530.11708
  24692999.736 6 129762802.30206 101113991.22003  24693005.074 3  24692999.432 3
  24693006.203 6  24693010.766 6  96900967.22706

  23279737.044 6 122335899.72906  95326723.85204  23279741.524 4  23279736.499 4
  23279742.300 6  23279739.741 7  91354776.52707

  37105942.135 7 194993053.22407
                  37105939.834 6 145611686.62706

  36827348.549 7 193529063.39007
                  36827358.366 7 144518463.95217

  24099122.999 8 126642252.71208
                  24099127.171 8  94570830.08008  24099125.364 8 102793812.61408
  24099125.284 8  97037854.77308  24099126.151 8  95804343.50008
  36981009.759 7 194336533.65007
                  36981011.160 6 145121439.29706

  24167825.674 6 129054847.23506 100376048.23906
  24167837.496 6

  28445321.380 6 149481486.64706
                  28445325.704 6 111625991.10806  28445325.294 6 121332523.80306
  28445324.134 6 114537948.74506  28445324.905 6 113081967.50006
  20848382.471 8 109559438.16808  85371181.75007  20848385.543 7  20848382.337 7
  20848386.072 7  20848383.286 8  81814134.00408

  24581955.706 7 131450749.33107 102239530.65806
  24581964.961 6

  22066814.574 7 115961974.58507  90360036.17106  22066818.660 6  22066814.007 6
  22066819.104 7  22066817.497 8  86595040.12208

  24515008.001 6 130954780.90006 101853747.18606
  24515014.447 6

  25134203.309 6 132081155.91206 102920393.26204  25134204.701 4  25134202.241 4


 25  4 11  3  5 15.0000000  0 30G18E19G15E29G23R22R21G10R08R06E33R23
                                G24R01R07E13E26G28G08S33S31E07S35R09
                                E08G32R24G27R16G02
  22211940.925 7 116724845.59907  90954575.43505  22211943.192 5  22211940.684 5
  22211943.956 7  22211946.733 8  87164860.18808

  26185599.401 5 137606391.10505
                  26185606.274 6 102758148.49706  26185604.800 5 111693601.41805
  26185603.506 6 105438740.71206  26185604.721 6 104098462.17706
  25241039.095 6 132643045.03506 103358468.82604  25241041.685 4  25241038.872 4
  25241042.210 5

  23514130.476 7 123568073.34307
                  23514133.197 8  92275148.67608  23514134.442 8 100298970.17008
  23514131.654 8  94682289.05908  23514132.264 8  93478613.94008
  21607414.763 7 113548190.99007  88479387.10906  21607415.942 6  21607414.513 6
  21607416.120 7  21607418.915 8  84792766.58408

  19312489.260 8 103091514.14408  80182373.45107
  19312493.693 7

  23264649.144 7 124494043.64007  96828849.55606
  23264659.680 6

  21146483.294 8 111125869.09108  86591793.85607  21146486.365 7  21146482.981 7
  21146486.275 7  21146483.064 8  82983819.65208

  19710041.417 8 105546795.62008  82092147.77707
  19710046.386 7

  24247691.820 5 129390393.93805


  24619565.689 7 129376892.89207
                  24619568.359 8  96612738.22408  24619569.149 7 105013810.02107
  24619566.416 7  99133050.90507  24619567.278 8  97872897.63808
  19776237.618 8 105789646.60008


  22866557.412 7 120164773.10107  93634999.91405  22866562.180 5  22866557.135 5
  22866562.403 7  22866561.382 7  89733565.88807

  23062706.754 6 123283489.10006


  20585590.046 8 110196771.95608  85708855.11407
  20585595.884 7

  26198102.614 6 137672021.23506
                  26198109.840 7 102807093.54207  26198106.747 7 111746811.50207
  26198107.251 7 105489002.77307  26198108.337 7 104148048.22807
  23272383.735 7 122297549.90207
                  23272385.729 8  91326306.07308  23272387.139 8  99267650.98108
  23272383.841 8  93708701.55908  23272384.662 8  92517509.38908
  24683195.262 6 129711276.65006 101073841.44103  24683200.148 3  24683194.972 3
  24683201.061 6  24683205.710 6  96862490.36006

  23277218.670 6 122322667.22106  95316412.83304  23277223.625 4  23277218.143 4
  23277224.294 6  23277221.751 7  91344895.12607

  37105941.594 7 194993055.00207
                  37105940.134 6 145611688.08406

  36827347.266 7 193529051.47007
                  36827356.076 7 144518455.00307

  24103589.082 7 126665722.50707
                  24103593.260 8  94588356.23208  24103591.529 8 102812862.77908
  24103591.379 8  97055838.12608  24103592.287 8  95822098.25208
  36981018.881 7 194336577.02207
                  36981019.478 6 145121471.60006

  24160977.761 6 129018280.14106 100347607.24506
  24160988.962 6

  28453302.879 6 149523430.67206
                  28453307.338 6 111657313.03206  28453306.910 6 121366569.31306
  28453305.599 6 114570087.72106  28453306.336 6 113113697.94706
  20844664.523 8 109539899.87308  85355957.13807  20844667.470 7  20844664.394 7
  20844668.053 7  20844665.210 8  81799543.76208

  24570021.546 7 131386933.94907 102189896.51506
  24570032.043 6

  22070150.395 7 115979503.68507  90373695.20706  22070154.347 6  22070149.823 6
  22070154.524 7  22070153.162 8  86608130.04308

  24513459.525 6 130946506.55306 101847311.64406
  24513465.605 6

  25125348.744 6 132034626.10606 102884136.32504  25125350.298 4  25125347.667 4


 25  4 11  3  5 30.0000000  0 29G18E19E29G23R22R21G10R08R06E33R23G24
                                R01R07E13E26G28G08S33S31E07S35R09E08
                                G32R24G27R16G02
  22219449.091 7 116764299.68707  90985318.86605  22219451.131 5  22219448.841 5
  22219451.423 7  22219454.538 8  87194322.64208

  26177924.264 5 137566057.14605
                  26177930.836 6 102728029.08206  26177928.677 5 111660862.87105
  26177928.030 6 105407835.55406  26177929.302 6 104067949.89406
  23510795.450 7 123550546.64007
                  23510797.944 8  92262060.58808  23510799.159 8 100284743.97208
  23510796.437 8  94668859.53608  23510797.015 8  93465355.13408
  21611403.415 7 113569152.45007  88495720.72106  21611404.803 6  21611403.161 6
  21611405.054 7  21611407.779 8  84808419.63008

  19316712.927 8 103114057.31808  80199907.01907
  19316716.719 7

  23276580.957 7 124557896.58107  96878512.88306
  23276591.334 6

  21145475.535 8 111120572.62508  86587666.75407  21145478.430 7  21145475.231 7
  21145478.437 7  21145475.236 8  82979864.51708

  19709311.583 8 105542887.23308  82089107.93607
  19709316.306 7

  24257326.934 5 129441805.99405


  24613903.725 7 129347138.02407
                  24613906.117 8  96590518.70808  24613907.087 7 104989658.36307
  24613904.270 8  99110251.74308  24613905.086 8  97850388.29808
  19770101.167 8 105756818.83108


  22870247.073 6 120184164.43106  93650110.05005  22870252.212 5  22870246.801 5
  22870252.496 7  22870251.497 7  89748046.44007

  23054579.801 6 123240048.15806


  20592882.495 8 110235808.30208  85739216.70707
  20592887.922 7

  26204272.848 6 137704445.29106
                  26204279.907 7 102831306.26307  26204277.193 7 111773129.69507
  26204277.154 7 105513847.13607  26204278.429 7 104172576.77207
  23272896.441 7 122300242.51307
                  23272898.131 8  91328316.79708  23272899.606 8  99269836.55108
  23272896.285 8  93710764.73408  23272897.047 8  92519546.33908
  24673385.553 6 129659732.28706 101033677.07303  24673391.871 3  24673385.290 3
  24673391.964 6  24673396.700 6  96823999.54806

  23274725.529 6 122309568.27206  95306205.88604  23274730.722 4  23274724.979 4
  23274731.223 6  23274729.122 7  91335113.47707

  37105943.159 7 194993060.38807
                  37105941.203 6 145611692.12606

  36827346.018 7 193529042.91107
                  36827354.583 7 144518448.64707

  24108068.539 8 126689261.44308
                  24108072.595 8  94605934.01608  24108070.892 8 102831969.05408
  24108070.664 8  97073874.45808  24108071.587 8  95839905.31108
  36981027.323 7 194336624.83107
                  36981028.363 6 145121507.51106

  24154142.614 6 128981779.84306 100319218.17706
  24154153.395 6

  28461285.048 6 149565377.23006
                  28461289.542 6 111688636.86006  28461288.921 6 121400616.92806
  28461287.572 6 114602228.68506  28461288.396 6 113145430.34606
  20840967.838 8 109520475.57308  85340821.35407  20840971.052 7  20840967.700 7
  20840971.656 7  20840968.804 8  81785038.64008

  24558088.351 7 131323121.75207 102140264.87106
  24558097.889 6

  22073510.502 7 115997161.77007  90387454.76306  22073514.512 6  22073509.926 6
  22073514.867 7  22073513.363 8  86621316.28008

  24511939.050 6 130938388.95906 101840998.02305
  24511944.867 5

  25116494.869 6 131988099.82406 102847882.12704  25116496.463 4  25116493.810 4


 25  4 11  3  5 45.0000000  0 29G18E19E29G23R22R21G10R08R06E33R23G24
                                R01R07E13E26G28G08S33S31E07S35R09E08
                                G32R24G27R16G02
  22226973.475 7 116803840.10707  91016129.56805  22226975.392 5  22226973.225 5
  22226975.768 7  22226978.900 8  87223849.56408

  26170255.785 5 137525761.39405
                  26170262.947 6 102697938.19306  26170260.901 5 111628155.34205
  26170260.141 6 105376959.68806  26170261.238 6 104037466.51606
  23507476.174 7 123533103.43707
                  23507478.563 8  92249034.84808  23507479.775 8 100270585.54608
  23507477.077 8  94655493.99108  23507477.640 8  93452159.49208
  21615397.450 7 113590141.09607  88512075.51206  21615398.812 6  21615397.191 6
  21615399.190 7  21615401.812 8  84824092.97108

  19320968.742 8 103136778.04008  80217578.69607
  19320973.223 7

  23288523.110 7 124621797.65507  96928213.65506
  23288533.564 6

  21144472.754 8 111115303.39908  86583560.87607  21144475.726 7  21144472.441 7
  21144475.798 7  21144472.487 8  82975929.72108

  19708603.341 8 105539093.46508  82086157.24407
  19708608.047 7

  24266952.788 5 129493180.72705


  24608247.012 7 129317412.44407
                  24608249.559 8  96568321.07108  24608250.419 7 104965530.47907
  24608247.668 8  99087475.03108  24608248.461 8  97827901.12408
  19763992.569 8 105724144.15908


  22873965.455 7 120203701.55307  93665333.79605  22873969.785 5  22873965.178 5
  22873969.938 7  22873969.174 7  89762635.86607

  23046465.893 6 123196677.50106


  20600182.718 8 110274888.81708  85769612.67607
  20600188.850 7

  26210452.438 6 137736919.14006
                  26210459.622 7 102855556.20707  26210456.304 7 111799488.33807
  26210457.237 7 105538729.67607  26210458.015 7 104197143.01707
  23273422.292 7 122303006.84007
                  23273424.151 8  91330381.08108  23273425.607 8  99272080.32808
  23273422.357 8  93712882.87008  23273423.062 8  92521637.54908
  24663572.395 6 129608164.90106 100993494.78003  24663579.437 3  24663572.141 3
  24663579.319 6  24663583.111 6  96785491.51206

  23272257.667 6 122296598.37806  95296099.48604  23272262.539 4  23272257.109 4
  23272263.630 6  23272260.956 7  91325428.17807

  37105943.602 7 194993065.17707
                  37105941.954 6 145611695.51606

  36827344.681 7 193529034.01407
                  36827352.624 7 144518442.10307

  24112560.166 7 126712864.67407
                  24112564.094 8  94623559.81608  24112562.443 8 102851127.53708
  24112562.286 8  97091960.06108  24112563.113 8  95857761.01308
  36981035.377 7 194336670.92307
                  36981037.199 6 145121541.83806

  24147318.433 6 128945342.09906 100290877.77506
  24147329.582 6

  28469266.868 6 149607321.52906
                  28469271.500 6 111719958.99306  28469270.765 6 121434662.68806
  28469269.066 6 114634367.91206  28469270.189 6 113177161.03006
  20837292.450 8 109501160.62208  85325770.77907  20837295.455 7  20837292.312 7
  20837296.092 7  20837293.290 8  81770615.17608

  24546155.341 7 131259308.49507 102090632.34206
  24546164.781 6

  22076894.543 7 116014943.97807  90401311.03106  22076898.363 6  22076893.976 6
  22076898.564 7  22076897.212 8  86634595.19408

  24510448.781 6 130930423.58506 101834802.78306
  24510454.805 6

  25107641.733 6 131941572.54206 102811627.14404  25107642.547 4  25107640.660 4


 25  4 11  3  6  0.0000000  0 29G18E19E29G23R22R21G10R08R06E33R23G24
                                R01R07E13E26G28G08S33S31E07S35R09E08
                                G32R24G27R16G02
  22234513.886 7 116843464.67507  91047005.83905  22234515.741 5  22234513.636 5
  22234516.404 7  22234519.206 8  87253439.31608

  26162595.035 5 137485501.89905
                  26162601.638 6 102667874.39406  26162600.377 5 111595477.27705
  26162599.169 6 105346111.61206  26162600.079 6 104007010.57206
  23504172.038 7 123515741.64607
                  23504174.720 8  92236069.90808  23504175.816 8 100256493.21008
  23504173.171 8  94642190.83208  23504173.768 8  93439025.44308
  21619396.192 7 113611154.87607  88528449.88906  21619397.574 6  21619395.929 6
  21619397.443 7  21619400.577 8  84839785.08508

  19325258.153 8 103159674.11208  80235386.73207
  19325262.693 7

  23300471.225 7 124685744.30407  96977949.90806
  23300482.914 6

  21143474.847 8 111110059.40208  86579474.65907  21143477.799 7  21143474.526 7
  21143477.691 8  21143474.591 8  82972013.76008

  19707915.382 8 105535411.87008  82083293.79907
  19707920.403 7

  24276574.216 5 129544515.95605


  24602595.722 7 129287714.31507
                  24602598.178 8  96546143.92708  24602599.057 7 104941424.87507
  24602596.226 8  99064719.35308  24602597.072 8  97805434.71308
  19757913.371 8 105691621.36808


  22877710.197 6 120223382.25706  93680669.42505  22877714.554 5  22877709.929 5
  22877715.162 6  22877714.196 7  89777332.51207

  23038366.910 6 123153374.95806


  20607491.483 8 110314010.95508  85800041.00307
  20607497.425 7

  26216640.785 6 137769440.72106
                  26216648.179 7 102879841.77307  26216645.122 7 111825885.69907
  26216645.854 7 105563648.79307  26216646.692 7 104221745.35607
  23273961.770 8 122305840.90708
                  23273963.427 8  91332497.43908  23273964.919 8  99274380.71108
  23273961.631 8  93715054.43608  23273962.367 8  92523781.51008
  24653754.798 6 129556572.76006 100953293.17803  24653761.708 3  24653754.553 3
  24653761.585 6  24653766.065 6  96746965.00206

  23269813.460 7 122283755.43607  95286092.01704  23269818.828 4  23269812.884 4
  23269819.465 6  23269816.875 7  91315837.68907

  37105945.498 7 194993067.12607
                  37105942.222 6 145611697.16206

  36827341.909 7 193529021.90307
                  36827350.491 7 144518433.13007

  24117063.362 8 126736529.94008
                  24117067.483 8  94641231.94208  24117065.724 8 102870336.35608
  24117065.608 8  97110093.20008  24117066.448 8  95875663.64508
  36981043.676 7 194336714.52007
                  36981045.507 6 145121574.44806

  24140507.327 6 128908965.50606 100262584.90606
  24140517.955 6

  28477247.483 6 149649261.37006
                  28477252.217 6 111751277.83106  28477251.816 6 121468704.85206
  28477250.010 6 114666503.76306  28477251.132 6 113208888.37206
  20833637.572 8 109481952.95508  85310803.79807  20833640.292 7  20833637.447 7
  20833640.961 7  20833638.174 8  81756271.82708

  24534221.576 7 131195492.34207 102040997.61406
  24534229.973 6

  22080301.215 7 116032847.96707  90415262.19006  22080305.395 6  22080300.639 6
  22080305.846 7  22080304.226 8  86647965.06308

  24508985.528 6 130922608.42306 101828724.36306
  24508991.550 6

  25098786.771 6 131895042.58406 102775370.08204  25098788.743 4  25098785.694 4


 25  4 11  3  6 15.0000000  0 29G18E19E29G23R22R21G10R08R06E33R23G24
                                R01R07E13E26G28G08S33S31E07S35R09E08
                                G32R24G27R16G02
  22242070.916 7 116883179.12907  91077952.15305  22242073.199 5  22242070.662 5
  22242073.608 7  22242076.715 8  87283096.20308

  26154941.196 5 137445284.72405
                  26154948.561 6 102637842.18006  26154946.996 5 111562833.52805
  26154945.779 6 105315295.92106  26154946.883 6 103976586.62506
  23500884.872 7 123498467.22307
                  23500887.512 8  92223170.21608  23500888.648 8 100242471.79108
  23500885.960 8  94628954.62008  23500886.513 8  93425957.49008
  21623400.992 7 113632199.71207  88544848.46906  21623402.274 6  21623400.738 6
  21623402.370 7  21623405.268 8  84855500.38708

  19329580.966 8 103182751.42308  80253335.74707
  19329585.267 7

  23312433.236 7 124749742.14607  97027725.94006
  23312442.682 6

  21142482.856 8 111104846.50208  86575412.67407  21142485.796 7  21142482.530 7
  21142485.898 7  21142482.586 8  82968121.03708

  19707250.204 8 105531848.25808  82080522.12707
  19707254.991 7

  24286187.147 5 129595817.49305


  24596950.494 7 129258049.70007
                  24596953.194 8  96523991.81808  24596953.937 7 104917346.48307
  24596951.207 8  99041989.35808  24596952.042 8  97782993.66008
  19751862.157 8 105659256.55408


  22881484.376 6 120243212.30506  93696121.42605  22881488.103 5  22881484.117 5
  22881488.621 7  22881487.854 7  89792140.68007

  23030279.096 6 123110146.79706


  20614808.896 8 110353180.62608  85830506.29307
  20614814.499 7

  26222840.107 6 137802015.89906
                  26222846.966 7 102904167.37307  26222844.164 7 111852326.57607
  26222844.654 7 105588608.97707  26222845.541 7 104246388.24807
  23274515.306 8 122308750.73508
                  23274517.166 8  91334670.36608  23274518.699 8  99276742.58608
  23274515.270 8  93717284.04408  23274516.079 8  92525982.77908
  24643932.805 6 129504962.07306 100913077.12603  24643940.366 3  24643932.555 3
  24643940.207 6  24643944.708 6  96708424.63906

  23267394.827 7 122271045.47007  95276188.16704  23267400.110 4  23267394.242 4
  23267400.845 6  23267398.180 7  91306346.50307

  37105945.100 7 194993071.12807
                  37105943.152 6 145611699.98606

  36827341.283 7 193529012.38407
                  36827348.649 7 144518425.83307

  24121579.631 7 126760262.96707
                  24121583.724 8  94658954.66408  24121581.965 8 102889600.18408
  24121581.796 8  97128278.25008  24121582.693 8  95893617.53108
  36981053.876 7 194336761.11007
                  36981054.307 6 145121609.38206

  24133706.939 6 128872656.08106 100234344.31906
  24133718.247 6

  28485228.184 6 149691202.46306
                  28485233.160 6 111782597.51606  28485232.514 6 121502747.98206
  28485231.187 6 114698640.50206  28485232.232 6 113240616.58406
  20830003.784 8 109462858.50008  85295925.03607  20830006.692 7  20830003.664 7
  20830007.201 7  20830004.551 8  81742013.01808

  24522288.739 7 131131679.78907 101991365.68306
  24522296.586 6

  22083732.551 7 116050879.39407  90429312.65806  22083736.686 6  22083731.975 6
  22083737.290 7  22083735.466 8  86661430.09408

  24507551.020 6 130914949.86406 101822767.78006
  24507557.388 6

  25089932.934 6 131848515.90106 102739115.59404  25089935.284 4  25089931.843 4


 25  4 11  3  6 30.0000000  0 29G18E19E29G23R22R21G10R08R06E33R23G24
                                R01R07E13E26G28G08S33S31E07S35R09E08
                                G32R24G27R16G02
  22249644.317 7 116922977.16307  91108963.59405  22249646.527 5  22249644.049 5
  22249646.652 7  22249650.128 8  87312815.49108

  26147294.959 5 137405103.74305
                  26147302.575 6 102607836.98906  26147300.453 5 111530219.15205
  26147299.139 6 105284507.97406  26147300.637 6 103946190.05606
  23497613.183 7 123481273.98507
                  23497615.656 8  92210331.13708  23497616.981 8 100228516.25808
  23497614.182 8  94615780.60308  23497614.712 8  93412950.94208
  21627410.244 7 113653269.44207  88561266.44006  21627411.723 6  21627409.981 6
  21627412.128 7  21627414.725 8  84871234.27808

  19333936.928 8 103206003.58508  80271420.76807
  19333941.583 7

  23324399.288 7 124813784.48507  97077536.58906
  23324410.193 6

  21141495.685 8 111099658.55008  86571370.13107  21141498.525 7  21141495.364 7
  21141498.454 7  21141495.353 8  82964246.93308

  19706605.463 8 105528396.03108  82077837.08507
  19706609.921 7

  24295794.422 5 129647078.85105


  24591310.837 7 129228412.63707
                  24591313.297 8  96501860.27708  24591314.236 7 104893290.45207
  24591311.390 8  99019280.46308  24591312.262 8  97760573.44308
  19745840.723 8 105627044.06208


  22885284.914 7 120263185.41307  93711684.89505  22885288.973 5  22885284.646 5
  22885289.300 7  22885288.656 7  89807055.68507

  23022204.885 6 123066986.81106


  20622133.542 8 110392391.03608  85861003.29007
  20622138.536 7

  26229047.837 6 137834638.42006
                  26229054.878 7 102928528.32607  26229052.110 7 111878805.88007
  26229052.496 7 105613605.42407  26229053.410 7 104271066.94907
  23275082.288 8 122311730.24508
                  23275084.098 8  91336895.33708  23275085.593 8  99279161.03208
  23275082.274 8  93719567.06008  23275083.045 8  92528236.77308
  24634108.131 5 129453326.99805 100872842.07403  24634114.060 3  24634107.912 3
  24634114.061 6  24634118.746 6  96669866.06306

  23265000.579 6 122258462.30706  95266383.12004  23265005.529 4  23264999.989 4
  23265005.964 6  23265003.809 7  91296950.01107

  37105944.201 7 194993073.05007
                  37105943.389 6 145611701.54006

  36827338.698 7 193529000.07707
                  36827346.217 7 144518416.84907

  24126107.593 8 126784057.37808
                  24126111.645 8  94676723.23208  24126110.101 8 102908913.84808
  24126109.746 8  97146510.34308  24126110.614 8  95911617.86208
  36981062.426 7 194336804.32907
                  36981062.325 6 145121641.62806

  24126919.953 6 128836408.54406 100206151.82306
  24126929.901 6

  28493208.497 6 149733138.54006
                  28493213.081 6 111813913.56606  28493212.501 6 121536787.12206
  28493211.234 6 114730773.45906  28493212.245 6 113272341.08606
  20826390.482 8 109443871.11108  85281129.69807  20826393.496 7  20826390.362 7
  20826394.233 7  20826391.306 8  81727834.15508

  24510354.150 7 131067864.94207 101941731.96606
  24510363.358 6

  22087186.908 7 116069031.85307  90443457.43106  22087190.880 6  22087186.336 6
  22087191.164 7  22087189.745 8  86674985.49508

  24506146.400 6 130907441.60606 101816928.02806
  24506151.246 6

  25081078.802 6 131801986.61406 102702859.06104  25081080.975 4  25081077.702 4


 25  4 11  3  6 45.0000000  0 29G18E19E29G23R22R21G10R08R06E33R23G24
                                R01R07E13E26G28G08S33S31E07S35R09E08
                                G32R24G27R16G02
  22257234.308 7 116962864.07707  91140044.29305  22257236.807 5  22257234.045 5
  22257237.056 7  22257240.294 8  87342601.16808

  26139656.850 6 137364964.63106
                  26139663.662 6 102577863.09206  26139662.558 5 111497638.79905
  26139661.069 6 105253752.15406  26139662.310 6 103915825.19806
  23494357.846 8 123464167.43808
                  23494360.302 8  92197556.79808  23494361.646 8 100214631.09708
  23494358.876 8  94602673.01608  23494359.402 8  93400009.97908
  21631425.686 7 113674369.55707  88577708.09606  21631426.936 6  21631425.418 6
  21631427.399 7  21631429.963 8  84886990.86308

  19338326.971 8 103229435.99308  80289645.96907
  19338331.075 7

  23336376.654 7 124877876.36707  97127385.80106
  23336388.466 6

  21140514.124 8 111094500.99308  86567351.26907  21140517.084 7  21140513.803 7
  21140516.948 8  21140513.923 8  82960395.52508

  19705982.205 8 105525060.65408  82075242.92408
  19705987.635 8

  24305393.432 5 129698305.45405


  24585677.536 7 129198808.75507
                  24585679.785 8  96479753.52208  24585680.883 7 104869261.35507
  24585677.927 7  98996597.00907  24585678.805 8  97738178.33808
  19739848.530 8 105594989.84308


  22889113.784 7 120283306.90307  93727363.99505  22889118.171 5  22889113.534 5
  22889118.339 7  22889117.557 7  89822081.49107

  23014144.410 6 123023900.56706


  20629467.106 8 110431647.33208  85891535.95807
  20629472.613 7

  26235265.848 7 137867313.71607
                  26235273.015 7 102952928.67807  26235269.807 7 111905328.02407
  26235270.373 7 105638642.30807  26235271.339 7 104295785.56707
  23275663.827 8 122314785.00108
                  23275665.408 8  91339176.49308  23275666.912 8  99281640.54908
  23275663.593 8  93721907.72408  23275664.338 8  92530547.68308
  24624279.051 6 129401673.33206 100832592.55003  24624284.517 3  24624278.823 3
  24624284.540 6  24624289.290 6  96631293.61106

  23262631.199 7 122246011.49507  95256681.20604  23262635.999 4  23262630.618 4
  23262637.145 6  23262634.460 7  91287652.33807

  37105946.339 7 194993076.90507
                  37105943.944 6 145611704.62706

  36827335.867 7 193528989.54107
                  36827344.303 7 144518408.90207

  24130647.965 8 126807918.46008
                  24130652.279 8  94694541.58608  24130650.531 8 102928281.61808
  24130650.340 8  97164793.52208  24130651.215 8  95929668.62808
  36981069.120 7 194336849.37207
                  36981071.098 6 145121675.20306

  24120144.374 6 128800228.68306 100178012.00406
  24120154.503 6

  28501188.846 6 149775074.67206
                  28501193.283 6 111845229.58506  28501192.586 6 121570826.25406
  28501191.535 6 114762906.40406  28501192.324 6 113304065.56606
  20822798.849 8 109424996.23708  85266422.03207  20822801.701 7  20822798.724 7
  20822802.319 7  20822799.524 8  81713739.31608

  24498421.072 7 131004053.69107 101892101.04606
  24498430.163 6

  22090665.478 7 116087310.54807  90457700.58106  22090669.150 6  22090664.915 6
  22090669.969 7  22090668.036 8  86688635.18108

  24504769.496 7 130900089.43907 101811209.71206
  24504775.165 6

  25072225.724 6 131755460.52806 102666605.00904  25072226.773 4  25072224.616 4


 25  4 11  3  7  0.0000000  0 29G18E19E29G23R22R21G10R08R06E33R23G24
                                R01R07E13E26G28G08S33S31E07S35R09E08
                                G32R24G27R16G02
  22264841.668 7 117002838.92307  91171193.50405  22264843.766 5  22264841.409 5
  22264843.979 7  22264847.234 8  87372452.47808

  26132026.526 5 137324866.71005
                  26132033.456 6 102547919.94406  26132031.105 5 111465091.84705
  26132030.712 6 105223027.85606  26132031.843 6 103885491.47306
  23491118.812 7 123447146.69907
                  23491121.299 8  92184846.53008  23491122.780 8 100200815.57408
  23491119.886 8  94589631.17508  23491120.427 8  93387133.92608
  21635446.310 7 113695499.19407  88594172.75006  21635447.770 6  21635446.051 6
  21635447.884 7  21635450.738 8  84902769.49208

  19342749.957 8 103253047.67008  80308010.60407
  19342754.352 7

  23348362.599 7 124942016.65307  97177272.61606
  23348374.199 6

  21139538.355 8 111089372.96408  86563355.41607  21139541.264 7  21139538.038 7
  21139541.196 7  21139538.001 8  82956566.17308

  19705381.412 8 105521841.06208  82072738.80907
  19705386.006 7

  24314987.882 5 129749496.18305


  24580050.297 7 129169237.36707
                  24580052.509 7  96457671.02807  24580053.594 7 104845258.63107
  24580050.717 8  98973938.44208  24580051.514 8  97715807.80808
  19733886.274 8 105563093.48108


  22892970.339 7 120303575.76207  93743157.93005  22892975.089 5  22892970.080 5
  22892975.470 6  22892974.464 7  89837217.34907

  23006097.261 6 122980887.26606


  20636808.746 8 110470948.64208  85922103.65007
  20636814.506 7

  26241493.517 6 137900040.87206
                  26241500.627 7 102977367.76207  26241497.766 7 111931892.23807
  26241498.150 7 105663718.93407  26241499.134 7 104320543.42307
  23276259.064 8 122317914.25608
                  23276260.838 8  91341513.27908  23276262.388 8  99284180.52908
  23276259.089 8  93724305.47008  23276259.811 8  92532914.94808
  24614445.351 6 129350000.52606 100792328.10303  24614451.383 3  24614445.115 3
  24614451.941 6  24614455.961 6  96592706.85406

  23260287.070 7 122233692.18407  95247081.76504  23260291.661 4  23260286.489 4
  23260292.729 6  23260290.127 7  91278452.87007

  37105946.178 7 194993081.36307
                  37105944.995 6 145611707.84506

  36827333.591 7 193528980.35407
                  36827342.568 7 144518401.93107

  24135201.103 8 126831845.13408
                  24135205.356 8  94712408.91008  24135203.530 8 102947702.61908
  24135203.449 8  97183126.94308  24135204.302 8  95947769.00008
  36981078.886 7 194336896.20807
                  36981079.800 6 145121710.32106

  24113382.190 6 128764116.39206 100149924.72506
  24113391.438 6

  28509168.561 6 149817010.07006
                  28509173.119 6 111876545.10706  28509172.813 6 121604864.78206
  28509171.371 6 114795038.82506  28509172.226 6 113335789.53806
  20819228.334 8 109406233.04508  85251801.39807  20819231.159 7  20819228.209 7
  20819231.434 7  20819228.904 8  81699727.88008

  24486488.266 7 130940245.49907 101842472.49506
  24486496.819 6

  22094167.026 7 116105714.37807  90472041.23006  22094171.284 6  22094166.463 6
  22094171.569 7  22094170.091 8  86702378.30708

  24503422.369 7 130892893.13207 101805612.71005
  24503428.774 5

  25063372.271 6 131708936.69406 102630352.71104  25063373.233 4  25063371.158 4


 25  4 11  3  7 15.0000000  0 29G18E19E29G23R22R21G10R08R06E33R23G24
                                R01R07E13E26G28G08S33S31E07S35R09E08
                                G32R24G27R16G02
  22272464.507 7 117042897.57607  91202408.03005  22272466.724 5  22272464.257 5
  22272467.652 7  22272470.155 8  87402366.40608

  26124402.957 5 137284806.10605
                  26124410.148 6 102518004.64906  26124408.671 5 111432575.18805
  26124407.220 6 105192332.15306  26124408.492 6 103855185.97206
  23487895.403 7 123430207.88907
                  23487897.969 8  92172197.45908  23487899.271 8 100187066.57108
  23487896.475 8  94576652.12108  23487897.049 8  93374319.86308
  21639472.008 7 113716654.49807  88610657.41006  21639473.473 6  21639471.740 6
  21639473.590 7  21639476.430 8  84918567.30108

  19347206.411 8 103276834.53808  80326511.49807
  19347210.549 7

  23360356.676 7 125006200.84807  97227193.59006
  23360368.649 6

  21138567.345 8 111084270.59508  86559379.55807  21138570.269 7  21138567.028 7
  21138569.921 8  21138567.038 8  82952755.97908

  19704800.679 8 105518733.04808  82070321.49307
  19704805.788 7

  24324572.387 5 129800647.16205


  24574428.383 7 129139694.80307
                  24574430.735 8  96435610.05108  24574431.631 7 104821279.29207
  24574428.964 8  98951301.96208  24574429.741 8  97693459.08008
  19727952.016 8 105531351.47408


  22896854.560 7 120323987.99907  93759063.57505  22896859.498 5  22896854.306 5
  22896859.651 7  22896859.015 7  89852460.25807

  22998063.333 6 122937943.21806


  20644158.130 8 110510290.01508  85952702.49907
  20644163.927 7

  26247730.364 6 137932815.92106
                  26247737.492 7 103001842.60607  26247734.674 7 111958495.34307
  26247735.119 7 105688832.26107  26247736.041 7 104345337.50607
  23276868.204 8 122321114.22808
                  23276869.838 8  91343902.88508  23276871.348 8  99286777.91808
  23276867.995 8  93726757.40808  23276868.743 8  92535335.72008
  24604607.523 6 129298305.00806 100752045.94803  24604613.693 3  24604607.255 3
  24604614.654 6  24604618.827 7  96554103.14607

  23257966.984 7 122221500.55507  95237581.80804  23257971.779 4  23257966.408 4
  23257972.496 6  23257970.066 7  91269348.74807

  37105947.671 7 194993083.64607
                  37105945.249 6 145611709.56906

  36827330.774 7 193528968.93307
                  36827340.318 7 144518393.64207

  24139765.861 8 126855833.32008
                  24139770.132 8  94730322.17708  24139768.397 8 102967173.55308
  24139768.236 8  97201507.51608  24139769.100 8  95965915.92008
  36981087.574 7 194336939.56307
                  36981088.247 6 145121742.44606

  24106629.838 6 128728068.06506 100121887.20106
  24106641.310 6

  28517148.031 6 149858940.55606
                  28517152.260 6 111907856.94206  28517151.964 6 121638899.36606
  28517150.445 6 114827167.48806  28517151.232 6 113367509.78906
  20815678.313 8 109387577.66508  85237264.76407  20815681.138 7  20815678.197 7
  20815681.616 7  20815678.900 8  81685796.94208

  24474555.674 7 130876436.74307 101792843.53606
  24474564.401 6

  22097692.352 7 116124239.19707  90486476.15806  22097696.430 6  22097691.802 6
  22097697.401 7  22097695.272 8  86716211.77908

  24502102.831 7 130885848.29107 101800133.49006
  24502109.998 6

  25054518.969 6 131662411.53006 102594099.38204  25054519.595 4  25054517.861 4


 25  4 11  3  7 30.0000000  0 29G18E19E29G23R22R21G10R08R06E33R23G24
                                R01R07E13E26G28G08S33S31E07S35R09E08
                                G32R24G27R16G02
  22280103.666 7 117083041.90707  91233689.30805  22280105.959 5  22280103.412 5
  22280106.217 7  22280109.373 8  87432344.28508

  26116787.157 5 137244784.84505
                  26116794.218 6 102488118.74306  26116792.296 5 111400090.46905
  26116791.442 6 105161666.60706  26116792.599 6 103824910.25006
  23484688.111 7 123413352.97507
                  23484690.601 8  92159611.02108  23484691.889 8 100173385.65108
  23484688.995 8  94563737.34208  23484689.626 8  93361569.25408
  21643503.155 7 113737837.42607  88627163.59206  21643504.417 6  21643502.887 6
  21643504.579 7  21643507.441 8  84934385.71908

  19351695.144 8 103300798.36008  80345150.02607
  19351699.634 7

  23372359.045 6 125070430.64606  97277150.05706
  23372370.904 6

  21137601.786 8 111079195.78908  86555425.18107  21137604.560 7  21137601.469 7
  21137604.468 7  21137601.334 8  82948966.37008

  19704241.541 8 105515738.31008  82067992.26507
  19704246.385 7

  24334151.186 5 129851760.08705


  24568812.506 7 129110183.13707
                  24568814.834 8  96413572.15608  24568815.919 7 104797325.05007
  24568813.022 8  98928689.15908  24568813.830 8  97671133.73108
  19722047.416 8 105499766.13408


  22900767.002 7 120344545.37707  93775082.32805  22900771.390 5  22900766.748 5
  22900770.803 7  22900771.002 7  89867811.56607

  22990044.251 6 122895070.33706


  20651514.733 8 110549673.64108  85983334.21507
  20651521.182 7

  26253976.497 7 137965640.78207
                  26253984.065 7 103026354.64407  26253981.095 7 111985138.88407
  26253981.617 7 105713983.75307  26253982.401 7 104370169.27207
  23277490.785 8 122324386.95808
                  23277492.637 8  91346346.81008  23277494.120 8  99289434.36208
  23277490.766 8  93729265.09008  23277491.506 8  92537811.52308
  24594767.264 6 129246589.04406 100711747.87003  24594771.638 3  24594766.965 3
  24594772.990 6  24594777.531 6  96515484.18806

  23255671.703 7 122209438.54407  95228182.85104  23255676.665 4  23255671.104 4
  23255677.028 6  23255674.788 7  91260341.43207

  37105948.154 7 194993085.82707
                  37105945.603 6 145611711.47906

  36827329.160 7 193528957.16007
                  36827338.047 7 144518384.76207

  24144342.704 8 126879884.76908
                  24144347.034 8  94748282.68308  24144345.341 8 102986695.84408
  24144345.059 8  97219936.55808  24144345.931 8  95984110.69408
  36981094.103 7 194336982.95807
                  36981096.537 6 145121774.88106

  24099892.800 6 128692086.06606 100093901.24006
  24099901.928 6

  28525126.299 6 149900867.93706
                  28525130.468 6 111939166.43506  28525130.431 6 121672931.40206
  28525128.989 6 114859293.73006  28525129.694 6 113399227.65806
  20812149.263 8 109369032.00908  85222813.63507  20812151.955 7  20812149.143 7
  20812152.391 7  20812149.747 8  81671947.94508

  24462623.747 7 130812629.96107 101743216.08506
  24462632.676 6

  22101240.773 7 116142886.67807  90501006.66806  22101244.976 6  22101240.206 6
  22101245.648 7  22101243.739 8  86730136.85508

  24500813.983 7 130878957.41807 101794773.95205
  24500818.927 5

  25045665.135 6 131615887.18606 102557846.68704  25045666.230 4  25045664.040 4


 25  4 11  3  7 45.0000000  0 29G18E19E29G23R22R21G10R08R06E33R23G24
                                R01R07E13E26G28G08S33S31E07S35R09E08
                                G32R24G27R16G02
  22287759.180 7 117123271.57007  91265037.08205  22287761.408 5  22287758.926 5
  22287761.394 7  22287764.830 8  87462385.89408

  26109179.098 5 137204803.08405
                  26109185.805 6 102458262.31906  26109184.146 5 111367637.80405
  26109182.971 6 105131031.29806  26109184.245 6 103794664.38106
  23481496.671 8 123396581.77308
                  23481499.123 8  92147087.10208  23481500.431 8 100159772.68608
  23481497.628 8  94550886.70708  23481498.139 8  93348881.97708
  21647539.161 7 113759047.81207  88643691.17306  21647540.540 6  21647538.893 6
  21647540.612 7  21647543.638 8  84950224.65208

  19356217.588 8 103324938.89708  80363925.98907
  19356221.830 7

  23384371.255 6 125134705.33006  97327141.43706
  23384383.100 6

  21136641.249 8 111074148.40008  86551492.16007  21136644.042 7  21136640.932 7
  21136644.129 7  21136640.834 8  82945197.22808

  19703703.090 8 105512856.61508  82065750.97107
  19703708.472 7

  24343724.576 5 129902834.70505


  24563202.363 7 129080702.44807
                  24563204.846 7  96391557.39207  24563205.903 7 104773395.94807
  24563203.098 8  98906100.09108  24563203.804 8  97648831.81408
  19716172.463 8 105468337.99608


  22904706.572 7 120365247.61007  93791213.94705  22904710.813 5  22904706.318 5
  22904711.241 7  22904710.261 7  89883271.04207

  22982037.428 6 122852268.57006


  20658880.063 8 110589098.65208  86013998.11007
  20658886.016 7

  26260232.528 6 137998515.21306
                  26260239.842 7 103050903.70007  26260237.177 7 112011822.66007
  26260237.326 7 105739173.21507  26260238.219 7 104395038.53107
  23278127.526 8 122327732.38008
                  23278129.179 8  91348845.02108  23278130.742 8  99292149.80208
  23278127.413 8  93731828.46808  23278128.117 8  92540342.31808
  24584921.844 6 129194852.79506 100671433.99203  24584926.784 3  24584921.540 3
  24584928.014 6  24584932.338 6  96476850.06506

  23253401.560 7 122197506.06807  95218884.83704  23253406.056 4  23253400.966 4
  23253406.576 6  23253404.239 7  91251430.83907

  37105948.007 7 194993086.36007
                  37105945.777 6 145611711.67206

  36827325.690 7 193528944.09907
                  36827335.565 7 144518374.92607

  24148931.549 8 126903999.11908
                  24148935.787 8  94766290.16308  24148934.190 8 103006269.18408
  24148933.853 8  97238413.79408  24148934.719 8  96002353.05208
  36981104.767 7 194337026.05007
                  36981104.599 6 145121807.21406

  24093167.375 6 128656170.80606 100065967.23406
  24093176.149 6

  28533104.384 6 149942791.95606
                  28533108.364 6 111970473.45106  28533108.185 6 121706960.69606
  28533106.737 6 114891417.44706  28533107.466 6 113430943.02206
  20808640.945 8 109350595.92208  85208447.88307  20808643.654 7  20808640.829 7
  20808644.195 7  20808641.397 8  81658180.77308

  24450692.636 7 130748825.21707 101693590.24906
  24450700.520 6

  22104812.775 7 116161656.41407  90515632.44106  22104816.729 6  22104812.203 6
  22104816.897 7  22104815.421 8  86744153.21908

  24499552.030 6 130872220.21806 101789533.96505
  24499557.647 5

  25036812.463 6 131569363.80606 102521594.74304  25036813.374 4  25036811.372 4


 25  4 11  3  8  0.0000000  0 29G18E19E29G23R22R21G10R08R06E33R23G24
                                R01R07E13E26G28G08S33S31E07S35R09E08
                                G32R24G27R16G02
  22295431.221 7 117163590.19507  91296454.18005  22295433.854 5  22295430.953 5
  22295434.051 7  22295437.206 8  87492493.94908

  26101578.993 5 137164864.65705
                  26101585.625 6 102428438.28106  26101583.892 5 111335220.33605
  26101582.931 6 105100429.23506  26101584.150 6 103764451.33106
  23478322.008 8 123379898.13108
                  23478324.306 8  92134628.57108  23478325.649 8 100146230.79208
  23478322.782 8  94538103.16608  23478323.328 8  93336260.94108
  21651581.532 7 113780289.50907  88660243.15306  21651582.766 6  21651581.269 6
  21651583.027 7  21651585.711 8  84966086.96008

  19360773.999 8 103349259.84008  80382842.26907
  19360778.158 7

  23396392.379 7 125199028.68307  97377170.63606
  23396402.666 6

  21135686.749 8 111069132.25408  86547583.49007  21135689.462 7  21135686.441 7
  21135689.319 7  21135686.296 8  82941451.43008

  19703186.975 8 105510091.57008  82063600.39708
  19703192.318 8

  24353288.323 5 129953874.63105


  24557599.246 7 129051256.72507
                  24557601.475 8  96369568.73808  24557602.517 7 104749495.22107
  24557599.693 8  98883537.81908  24557600.436 8  97626556.35208
  19710327.391 8 105437071.21808


  22908674.038 7 120386098.37207  93807461.30405  22908678.292 5  22908673.784 5
  22908678.480 6  22908678.120 7  89898841.42807

  22974042.878 6 122809541.78506


  20666253.787 8 110628568.81708  86044697.12007
  20666259.073 7

  26266498.373 7 138031442.98707
                  26266505.871 7 103075492.59207  26266502.911 7 112038549.72107
  26266503.465 7 105764403.56507  26266504.210 7 104419948.15407
  23278778.630 8 122331154.40508
                  23278780.377 8  91351400.44308  23278781.913 8  99294927.43308
  23278778.532 8  93734450.55708  23278779.297 8  92542931.07308
  24575073.484 6 129143100.41706 100631107.52703  24575078.809 3  24575073.212 3
  24575080.097 6  24575084.587 7  96438203.90007

  23251155.870 7 122185706.97807  95209690.76004  23251160.827 4  23251155.285 4
  23251161.680 6  23251158.799 7  91242619.83507

  37105948.691 7 194993090.01807
                  37105946.381 6 145611714.37706

  36827324.527 7 193528934.29707
                  36827333.723 7 144518367.69607

  24153533.104 8 126928179.99408
                  24153537.213 8  94784347.31708  24153535.540 8 103025896.52608
  24153535.297 8  97256942.00408  24153536.193 8  96020645.73508
  36981111.792 7 194337071.90907
                  36981113.158 6 145121841.45306

  24086455.486 6 128620326.72506 100038088.54306
  24086464.083 6

  28541081.669 6 149984716.22206
                  28541086.126 6 112001780.63006  28541085.739 6 121740990.17506
  28541084.508 6 114923541.32006  28541085.270 6 113462658.54806
  20805154.091 8 109332273.24908  85194170.50307  20805156.956 7  20805153.975 7
  20805157.780 7  20805154.738 8  81644498.29308

  24438760.890 7 130685026.89707 101643969.37906
  24438770.142 6

  22108408.333 7 116180551.96807  90530356.26006  22108412.450 6  22108407.752 6
  22108412.983 7  22108411.173 8  86758263.54108

  24498320.078 6 130865641.08306 101784416.92105
  24498327.237 5

  25027959.750 7 131522845.39807 102485346.68304  25027961.761 4  25027958.646 4


 25  4 11  3  8 15.0000000  0 29G18E19E29G23R22R21G10R08R06E33R23G24
                                R01R07E13E26G28G08S33S31E07S35R09E08
                                G32R24G27R16G02
  22303120.142 7 117203994.17807  91327937.78805  22303122.536 5  22303119.879 5
  22303122.554 7  22303125.885 8  87522665.73308

  26093985.995 5 137124966.09605
                  26093993.117 6 102398644.00206  26093991.779 5 111302835.19605
  26093990.404 6 105069857.68606  26093991.607 6 103734268.41906
  23475163.191 7 123363298.53707
                  23475165.501 8  92122232.79808  23475166.732 8 100132757.11508
  23475163.911 8  94525384.02908  23475164.493 8  93323703.48708
  21655628.772 7 113801558.97907  88676816.77206  21655630.313 6  21655628.504 6
  21655630.581 7  21655633.193 8  84981970.01608

  19365362.952 8 103373757.51408  80401896.02307
  19365367.247 7

  23408419.762 7 125263396.32607  97427234.31806
  23408431.050 6

  21134737.146 8 111064143.80608  86543696.40407  21134740.190 7  21134736.833 7
  21134740.241 7  21134737.018 8  82937726.30208

  19702691.209 8 105507439.24208  82061537.50308
  19702696.651 8

  24362844.691 5 130004876.28105


  24552001.799 7 129021842.61907
                  24552004.078 7  96347603.69307  24552005.180 7 104725620.15807
  24552002.372 8  98860999.76708  24552003.087 8  97604304.80408
  19704512.122 8 105405962.71508


  22912669.484 7 120407093.98907  93823821.54005  22912673.490 5  22912669.230 5
  22912674.471 6  22912673.455 7  89914519.98007

  22966063.680 6 122766886.41506


  20673634.362 8 110668079.95208  86075428.00307
  20673640.334 7

  26272773.951 6 138064420.51406
                  26272781.204 7 103100118.65207  26272778.178 6 112065317.18806
  26272778.867 7 105789672.03407  26272779.640 7 104444895.41707
  23279443.675 8 122334649.63108
                  23279445.484 8  91354010.51608  23279447.118 8  99297764.46608
  23279443.686 8  93737128.71508  23279444.411 8  92545575.19008
  24565220.544 6 129091328.71306 100590766.03303  24565227.521 3  24565220.308 3
  24565227.608 6  24565232.055 6  96399543.30506

  23248934.656 7 122174037.78907  95200597.90104  23248940.291 4  23248934.062 4
  23248940.784 6  23248938.252 7  91233905.85607

  37105948.704 7 194993094.14507
                  37105947.069 6 145611717.71706

  36827320.811 7 193528923.97407
                  36827331.603 7 144518359.97707

  24158146.429 7 126952423.68407
                  24158150.639 8  94802451.38008  24158148.985 8 103045574.84908
  24158148.738 8  97275518.34808  24158149.606 8  96038985.93808
  36981119.832 7 194337116.65507
                  36981121.766 6 145121874.83106

  24079754.770 6 128584550.48906 100010262.63606
  24079763.315 6

  28549059.423 6 150026637.00406
                  28549063.272 6 112033085.23106  28549062.797 6 121775016.87706
  28549061.637 6 114955662.54306  28549062.412 6 113494371.46206
  20801688.178 8 109314060.44708  85179978.72907  20801691.171 7  20801688.062 7
  20801691.999 7  20801688.884 8  81630897.83908

  24426831.049 7 130621231.66507 101594350.94406
  24426839.672 6

  22112027.649 7 116199569.55507  90545175.15806  22112031.401 6  22112027.068 6
  22112031.831 7  22112030.131 8  86772464.98508

  24497117.641 7 130859216.33507 101779419.92905
  24497124.595 5

  25019108.089 6 131476328.47206 102449099.76804  25019109.621 4  25019106.985 4


 25  4 11  3  8 30.0000000  0 29G18E19E29G23R22R21G10R08R06E33R23G24
                                R01R07E13E26G28G08S33S31E07S35R09E08
                                G32R24G27R16G02
  22310825.331 7 117244484.83207  91359488.92605  22310827.589 5  22310825.063 5
  22310828.047 7  22310830.996 8  87552902.23708

  26086402.091 5 137085109.25305
                  26086408.496 6 102368880.87606  26086406.976 5 111270483.94405
  26086405.712 6 105039318.13606  26086407.016 6 103704117.08006
  23472020.432 7 123346784.49007
                  23472023.010 8  92109900.91308  23472024.238 8 100119352.87608
  23472021.354 8  94512730.43508  23472021.957 8  93311210.74708
  21659681.756 7 113822857.78207  88693413.24306  21659683.410 6  21659681.470 6
  21659683.595 7  21659686.214 8  84997874.96708

  19369985.777 8 103398433.29308  80421088.28107
  19369989.752 7

  23420458.426 7 125327809.60407  97477333.46106
  23420469.711 6

  21133793.390 8 111059184.57008  86539832.07907  21133796.445 7  21133793.073 7
  21133796.404 7  21133793.264 8  82934022.99608

  19702217.931 8 105504900.83008  82059563.20208
  19702222.849 8

  24372396.032 5 130055840.84605


  24546410.736 7 128992461.80007
                  24546413.095 8  96325663.50508  24546414.161 7 104701772.11807
  24546411.332 8  98838487.21908  24546412.079 8  97582078.43508
  19698726.150 8 105375014.17908


  22916692.513 7 120428235.81007  93840295.70205  22916696.439 5  22916692.227 5
  22916697.441 6  22916696.499 7  89930307.70707

  22958097.714 6 122724304.25306


  20681023.919 8 110707633.77108  86106192.07507
  20681029.364 7

  26279059.295 6 138097449.26006
                  26279066.344 7 103124782.93907  26279063.638 7 112092126.20707
  26279063.995 7 105814979.74807  26279064.832 7 104469881.41607
  23280123.133 8 122338219.65008
                  23280124.812 8  91356676.45208  23280126.464 8  99300662.21708
  23280123.024 8  93739864.19308  23280123.758 8  92548275.89608
  24555366.045 6 129039539.50006 100550410.87103  24555372.140 3  24555365.791 3
  24555373.138 6  24555376.788 6  96360869.63306

  23246739.321 7 122162500.02207  95191607.44704  23246744.501 4  23246738.736 4
  23246745.059 6  23246742.686 7  91225290.00107

  37105949.947 7 194993098.50207
                  37105947.964 6 145611720.89106

  36827321.478 7 193528914.36207
                  36827329.958 7 144518352.70907

  24162771.963 7 126976731.46707
                  24162776.242 8  94820603.30508  24162774.731 8 103065305.19808
  24162774.304 8  97294143.80408  24162775.213 8  96057374.62808
  36981130.573 7 194337163.26907
                  36981130.660 6 145121909.89606

  24073066.657 6 128548844.39406  99982491.32006
  24073077.724 6

  28557036.274 6 150068555.65206
                  28557039.970 6 112064388.21806  28557039.446 6 121809041.83306
  28557038.472 6 114987782.11806  28557039.179 6 113526082.74206
  20798243.617 8 109295959.01508  85165873.73707  20798246.573 7  20798243.497 7
  20798247.135 7  20798244.248 8  81617380.56608

  24414901.639 7 130557441.51307 101544736.47406
  24414910.809 6

  22115669.710 7 116218710.39207  90560090.10006  22115673.752 6  22115669.134 6
  22115674.263 7  22115672.548 8  86786758.47608

  24495943.663 7 130852947.85107 101774544.48605
  24495951.119 5

  25010256.628 6 131429814.84306 102412855.41004  25010257.709 4  25010255.551 4


 25  4 11  3  8 45.0000000  0 29G18E19E29G23R22R21G10R08R06E33R23G24
                                R01R07E13E26G28G08S33S31E07S35R09E08
                                G32R24G27R16G02
  22318546.477 7 117285059.05907  91391105.19505  22318548.615 5  22318546.227 5
  22318548.993 7  22318552.048 8  87583201.16208

  26078824.764 5 137045291.17505
                  26078831.529 6 102339146.68706  26078830.118 5 111238164.11505
  26078828.507 6 105008808.25806  26078829.838 6 103673995.04506
  23468893.766 7 123330353.06707
                  23468896.237 8  92097630.72708  23468897.380 8 100106015.70708
  23468894.516 8  94500140.14708  23468895.135 8  93298780.51008
  21663739.998 7 113844182.98707  88710030.29006  21663741.376 6  21663739.717 6
  21663741.516 7  21663744.283 8  85013799.64608

  19374641.270 8 103423284.02008  80440416.62107
  19374645.320 7

  23432501.424 6 125392264.98806  97527465.40906
  23432514.442 6

  21132854.930 8 111054251.63208  86535988.24807  21132857.704 7  21132854.613 7
  21132857.733 7  21132854.542 8  82930339.32508

  19701763.900 8 105502473.34508  82057675.18907
  19701769.065 7

  24381938.623 5 130106765.46105


  24540825.427 7 128963111.54307
                  24540827.887 8  96303746.13908  24540829.032 7 104677948.88507
  24540826.124 8  98815998.09508  24540826.879 8  97559875.18908
  19692970.511 8 105344223.26408


  22920743.135 7 120449520.76607  93856881.39605  22920746.830 5  22920742.854 5
  22920748.058 6  22920746.921 7  89946202.32807

  22950144.473 6 122681792.25706


  20688419.468 8 110747226.43008  86136986.38007
  20688425.466 7

  26285353.266 6 138130526.23906
                  26285360.706 7 103149483.23907  26285357.497 7 112118974.37207
  26285358.309 7 105840324.41307  26285359.200 7 104494903.89807
  23280816.179 8 122341861.61908
                  23280817.795 8  91359396.11308  23280819.430 8  99303618.37108
  23280816.065 8  93742654.80708  23280816.792 8  92551031.03408
  24545507.536 6 128987730.18106 100510040.05403  24545513.375 3  24545507.264 3
  24545513.557 6  24545517.922 7  96322180.94107

  23244568.578 7 122151090.79007  95182717.15404  23244573.206 4  23244567.997 4
  23244573.883 6  23244571.638 7  91216770.15307

  37105951.226 7 194993100.76807
                  37105948.456 6 145611722.35906

  36827318.263 7 193528903.44807
                  36827327.632 7 144518344.75107

  24167409.236 7 127001100.24607
                  24167413.456 8  94838800.78208  24167411.837 8 103085085.06408
  24167411.485 8  97312815.99508  24167412.434 8  96075809.46208
  36981137.857 7 194337207.42307
                  36981139.044 6 145121942.79506

  24066394.740 6 128513205.78306  99954772.45206
  24066403.311 6

  28565011.594 6 150110469.13506
                  28565015.771 6 112095687.37106  28565015.660 6 121843062.61206
  28565014.236 6 115019897.75606  28565014.944 6 113557790.13706
  20794819.834 8 109277966.05908  85151853.27507  20794822.651 7  20794819.723 7
  20794823.356 7  20794820.298 8  81603944.29308

  24402972.806 7 130493654.00507 101495124.08206
  24402981.785 6

  22119335.030 7 116237971.32207  90575098.62606  22119338.976 6  22119334.440 6
  22119339.395 7  22119337.735 8  86801141.64008

  24494799.555 7 130846832.68207 101769788.25505
  24494805.101 5

  25001405.514 6 131383301.85006 102376611.57104  25001406.628 4  25001404.423 4


 25  4 11  3  9  0.0000000  0 29G18E19E29G23R22R21G10R08R06E33R23G24
                                R01R07E13E26G28G08S33S31E07S35R09E08
                                G32R24G27R16G02
  22326283.722 7 117325718.38407  91422787.76905  22326285.854 5  22326283.472 5
  22326286.520 7  22326289.270 8  87613563.62908

  26071255.328 5 137005513.59605
                  26071261.539 6 102309442.74906  26071260.164 5 111205877.22205
  26071259.241 6 104978329.44406  26071260.306 6 103643903.66806
  23465782.903 7 123314005.90407
                  23465785.388 8  92085423.45908  23465786.717 8 100092746.93208
  23465783.714 8  94487614.43108  23465784.330 8  93286414.01808
  21667803.197 7 113865536.26207  88726669.21106  21667804.650 6  21667802.916 6
  21667805.061 7  21667807.661 8  85029745.27508

  19379329.180 8 103448311.23408  80459882.23107
  19379333.319 7

  23444555.716 6 125456763.91006  97577631.16806
  23444566.814 6

  21131921.567 8 111049346.63608  86532166.18707  21131924.307 7  21131921.246 7
  21131924.353 7  21131921.172 8  82926676.52408

  19701332.061 8 105500158.16708  82055874.51108
  19701336.955 8

  24391475.777 5 130157651.63305


  24535246.658 7 128933793.68707
                  24535248.836 8  96281852.97408  24535249.969 7 104654151.94607
  24535247.076 8  98793533.79408  24535247.846 8  97537696.45708
  19687243.650 8 105313592.25308


  22924820.948 7 120470950.34107  93873579.76705  22924825.115 5  22924820.671 5
  22924825.879 7  22924824.780 7  89962204.94707

  22942205.805 6 122639352.29606


  20695823.304 8 110786859.22408  86167811.88407
  20695829.026 7

  26291657.109 6 138163653.00606
                  26291664.618 7 103174220.73207  26291661.409 7 112145862.95507
  26291662.078 7 105865707.23507  26291663.025 7 104519964.05807
  23281523.120 8 122345577.32108
                  23281524.915 8  91362170.83308  23281526.508 8  99306634.36608
  23281523.192 8  93745501.91008  23281523.863 8  92553841.94608
  24535645.685 6 128935902.71806 100469655.12003  24535650.881 3  24535645.404 3
  24535650.556 6  24535655.504 7  96283478.71307

  23242422.338 7 122139811.77507  95173928.32804  23242426.765 4  23242421.780 4
  23242427.893 6  23242425.220 7  91208347.52407

  37105950.377 7 194993103.41407
                  37105948.992 6 145611724.58206

  36827315.557 7 193528891.57707
                  36827325.464 7 144518335.70507

  24172058.235 7 127025531.45407
                  24172062.577 8  94857044.87508  24172060.873 8 103104915.59208
  24172060.623 8  97331536.02008  24172061.535 8  96094291.52108
  36981146.027 7 194337251.42607
                  36981147.455 6 145121975.67906

  24059732.118 6 128477637.04906  99927107.94506
  24059742.479 6

  28572986.880 5 150152378.90005
                  28572990.920 5 112126983.77705  28572990.587 6 121877080.39106
  28572989.275 6 115052010.56306  28572989.819 6 113589494.74106
  20791416.599 8 109260083.21408  85137918.61507  20791419.706 7  20791416.488 7
  20791420.410 7  20791417.223 8  81590590.25008

  24391044.844 7 130429870.90907 101445515.12506
  24391054.766 6

  22123023.257 7 116257353.71507  90590201.79306  22123027.318 6  22123022.690 6
  22123027.632 7  22123026.021 8  86815615.50808

  24493683.688 7 130840872.82907 101765152.85605
  24493690.778 5

  24992554.697 6 131336791.35206 102340369.64704  24992555.677 4  24992553.615 4


 25  4 11  3  9 15.0000000  0 29G18E19E29G23R22R21G10R08R06E33R23G24
                                R01R07E13E26G28G08S33S31E07S35R09E08
                                G32R24G27R16G02
  22334037.215 7 117366464.34407  91454537.84705  22334039.549 5  22334036.952 5
  22334039.999 7  22334042.980 8  87643990.77708

  26063693.771 5 136965778.49005
                  26063700.385 6 102279770.53106  26063699.104 5 111173624.77205
  26063697.828 6 104947883.13806  26063698.878 6 103613844.40606
  23462688.603 7 123297744.70507
                  23462690.935 8  92073280.38608  23462692.281 8 100079547.92508
  23462689.279 8  94475154.57508  23462689.914 8  93274112.55308
  21671872.263 7 113886919.29607  88743331.32006  21671873.670 6  21671871.973 6
  21671874.098 7  21671876.720 8  85045713.12708

  19384051.151 8 103473516.48608  80479486.31007
  19384055.602 7

  23456617.820 6 125521307.48406  97627831.66306
  23456628.770 6

  21130993.601 8 111044471.24508  86528367.19507  21130996.543 7  21130993.271 7
  21130996.739 7  21130993.400 8  82923035.82508

  19700921.101 8 105497956.83608  82054162.38608
  19700925.960 8

  24401004.988 5 130208500.75805


  24529674.041 7 128904510.08107
                  24529676.346 8  96259985.37608  24529677.400 7 104630382.81407
  24529674.584 8  98771095.74108  24529675.341 8  97515543.63108
  19681548.193 8 105283123.10708


  22928926.479 7 120492526.07807  93890392.04105  22928931.071 5  22928926.198 5
  22928931.042 7  22928930.664 7  89978316.70207

  22934280.436 6 122596986.07206


  20703234.885 8 110826533.86108  86198669.93207
  20703240.880 7

  26297971.292 6 138196831.19406
                  26297978.314 7 103198996.63407  26297975.357 7 112172793.30507
  26297975.937 7 105891129.46407  26297976.661 7 104545063.12407
  23282244.675 8 122349368.50208
                  23282246.349 8  91365001.91808  23282248.018 8  99309711.63408
  23282244.547 8  93748406.84808  23282245.292 8  92556709.95708
  24525779.244 6 128884059.10106 100429257.57203  24525784.653 3  24525778.945 3
  24525785.348 6  24525789.727 7  96244764.44807

  23240300.906 7 122128664.66807  95165242.28804  23240305.548 4  23240300.356 4
  23240306.942 6  23240303.935 7  91200023.41407

  37105951.181 7 194993106.81007
                  37105949.699 6 145611727.04006

  36827313.608 7 193528881.65407
                  36827323.554 7 144518328.29607

  24176719.573 7 127050026.59607
                  24176723.828 8  94875336.71008  24176722.227 8 103124798.01608
  24176721.900 8  97350305.03108  24176722.794 8  96112821.94408
  36981154.063 7 194337296.83707
                  36981156.121 6 145122009.44606

  24053085.525 6 128442140.01406  99899499.20606
  24053095.251 6

  28580961.092 6 150194286.47606
                  28580965.422 5 112158278.51805  28580965.170 6 121911096.34706
  28580963.763 6 115084121.65506  28580964.309 6 113621197.65906
  20788035.086 8 109242312.14708  85124071.05407  20788038.002 7  20788034.979 7
  20788038.607 7  20788035.507 8  81577319.67808

  24379118.321 7 130366094.51807 101395911.32106
  24379128.020 6

  22126735.161 7 116276858.97807  90605400.70305  22126738.993 5  22126734.580 5
  22126739.565 7  22126737.761 8  86830181.12808

  24492597.388 7 130835070.11507 101760639.72005
  24492603.463 5

  24983705.139 6 131290285.06206 102304131.02004  24983706.153 4  24983704.057 4


 25  4 11  3  9 30.0000000  0 29G18E19E29G23R22R21G10R08R06E33R23G24
                                R01R07E13E26G28G08S33S31E07S35R09E08
                                G32R24G27R16G02
  22341806.955 7 117407294.44007  91486353.49405  22341809.311 5  22341806.696 5
  22341809.757 7  22341812.781 8  87674480.76608

  26056140.034 6 136926083.46306
                  26056146.536 6 102250128.22206  26056144.989 5 111141404.81405
  26056144.021 6 104917467.54606  26056145.095 6 103583815.45706
  23459609.989 7 123281567.15207
                  23459612.485 8  92061199.77608  23459613.676 8 100066416.81508
  23459610.753 8  94462758.81508  23459611.416 8  93261874.36808
  21675946.690 7 113908329.81307  88760014.84506  21675947.944 6  21675946.400 6
  21675948.232 7  21675951.012 8  85061701.50808

  19388805.982 8 103498897.23908  80499226.89407
  19388810.251 7

  23468687.863 7 125585893.13007  97678064.89506
  23468697.969 6

  21130071.236 8 111039623.17108  86524589.49007  21130073.949 7  21130070.906 7
  21130073.989 7  21130070.815 8  82919415.52908

  19700530.500 8 105495866.82108  82052536.83407
  19700535.349 7

  24410526.027 5 130259310.23105


  24524107.767 7 128875258.63907
                  24524109.904 8  96238141.80308  24524111.104 7 104606639.78307
  24524108.121 8  98748682.33508  24524108.940 8  97493415.14208
  19675882.495 8 105252813.89108


  22933058.981 7 120514245.48507  93907316.26105  22933064.116 5  22933058.704 5
  22933064.504 6  22933063.717 7  89994535.75807

  22926368.045 6 122554691.16406


  20710653.415 8 110866247.52508  86229558.34707
  20710659.658 7

  26304294.067 6 138230058.48906
                  26304301.160 7 103223809.18607  26304298.400 7 112199763.48907
  26304298.821 7 105916589.30207  26304299.652 7 104570199.31807
  23282980.141 8 122353232.96408
                  23282981.690 8  91367887.72208  23282983.407 8  99312848.37608
  23282979.944 8  93751367.93208  23282980.668 8  92559633.40108
  24515910.211 6 128832197.40806 100388845.95003  24515916.157 3  24515909.894 3
  24515916.301 6  24515920.398 6  96206036.63906

  23238204.165 7 122117647.23007  95156657.28204  23238209.233 4  23238203.611 4
  23238210.259 6  23238207.351 7  91191796.11507

  37105950.927 7 194993109.77307
                  37105949.976 6 145611729.16006

  36827311.497 7 193528870.83307
                  36827321.484 7 144518320.31307

  24181392.743 7 127074583.13807
                  24181396.755 8  94893674.39708  24181395.127 8 103144730.28608
  24181394.821 8  97369121.09208  24181395.743 8  96131398.81808
  36981164.088 7 194337341.17707
                  36981164.416 6 145122042.62306

  24046451.313 6 128406713.30806  99871945.10706
  24046459.789 6

  28588935.069 6 150236189.40006
                  28588939.442 6 112189569.77906  28588938.920 6 121945108.53806
  28588937.145 6 115116229.21406  28588938.066 6 113652897.07106
  20784673.988 8 109224650.55408  85110308.80607  20784677.108 7  20784673.881 7
  20784677.815 7  20784674.597 8  81564130.86408

  24367193.731 7 130302322.75207 101346311.09906
  24367201.863 6

  22130469.772 7 116296484.54307  90620693.35005  22130473.553 5  22130469.205 5
  22130474.221 7  22130472.392 8  86844836.58708

  24491540.435 6 130829422.25906 101756246.99305
  24491546.031 5

  24974855.634 6 131243781.08806 102267894.18904  24974857.196 4  24974854.539 4


 25  4 11  3  9 45.0000000  0 29G18E19E29G23R22R21G10R08R06E33R23G24
                                R01R07E13E26G28G08S33S31E07S35R09E08
                                G32R24G27R16G02
  22349592.708 7 117448208.31407  91518234.42105  22349594.956 5  22349592.440 5
  22349595.280 7  22349598.382 8  87705033.31908

  26048594.238 5 136886428.48005
                  26048600.108 6 102220515.83506  26048598.941 5 111109217.42405
  26048597.795 6 104887082.65306  26048598.906 6 103553816.81706
  23456547.269 8 123265473.03608
                  23456549.867 8  92049181.46408  23456551.153 8 100053353.42508
  23456548.057 8  94450426.98308  23456548.780 8  93249699.29708
  21680026.246 7 113929767.60707  88776719.62206  21680027.540 6  21680025.956 6
  21680027.937 7  21680030.530 8  85077710.25508

  19393593.581 8 103524453.19608  80519103.75207
  19393597.707 7

  23480765.175 7 125650520.07207  97728330.24806
  23480773.993 6

  21129153.650 8 111034802.18208  86520832.88907  21129156.507 7  21129153.311 7
  21129156.504 7  21129153.363 8  82915815.45408

  19700161.145 8 105493887.53608  82050997.40707
  19700165.995 7

  24420041.410 5 130310080.08705


  24518547.513 7 128846039.28707
                  24518549.543 8  96216322.19408  24518550.706 7 104582922.79907
  24518547.902 8  98726293.51108  24518548.656 8  97471310.92608
  19670245.878 8 105222664.85008


  22937219.770 7 120536108.26307  93924352.20005  22937224.240 5  22937219.484 5
  22937224.552 6  22937223.903 7  90010861.85307

  22918468.787 6 122512467.78006


  20718080.092 8 110905999.53508  86260476.57507
  20718085.815 7

  26310626.348 6 138263334.55806
                  26310633.388 7 103248658.17907  26310630.728 7 112226773.24607
  26310631.084 7 105942086.53007  26310631.917 7 104595372.42707
  23283729.402 8 122357170.57708
                  23283731.004 8  91370828.15608  23283732.530 8  99316044.49408
  23283729.252 8  93754385.07208  23283729.965 8  92562612.18808
  24506037.746 6 128780317.70406 100348420.28603  24506043.874 3  24506037.402 3
  24506043.570 6  24506048.583 7  96167295.41007

  23236132.140 7 122106759.25407  95148173.16404  23236137.253 4  23236131.590 4
  23236138.564 6  23236135.509 7  91183665.50107

  37105951.687 7 194993111.90207
                  37105950.445 6 145611731.08506

  36827309.726 7 193528858.62407
                  36827319.190 7 144518311.19907

  24186077.062 7 127099200.68507
                  24186081.397 8  94912057.63508  24186079.806 8 103164712.06408
  24186079.332 8  97387983.89508  24186080.300 8  96150021.83908
  36981171.059 7 194337384.47407
                  36981172.635 6 145122075.03006

  24039829.101 6 128371356.92406  99844445.79306
  24039839.504 6

  28596907.960 6 150278087.24406
                  28596911.787 6 112220857.28706  28596911.580 6 121979116.63006
  28596910.146 6 115148332.89506  28596910.884 6 113684592.66506
  20781333.996 8 109207098.22008  85096631.69707  20781336.998 7  20781333.898 7
  20781337.633 7  20781334.458 8  81551023.63908

  24355268.128 7 130238555.96507 101296714.74006
  24355276.825 6

  22134227.299 7 116316229.94507  90636079.37705  22134230.888 5  22134226.732 5
  22134231.362 7  22134229.777 8  86859581.52008

  24490511.708 7 130823929.32507 101751974.74905
  24490517.165 5

  24966006.900 6 131197279.41506 102231659.15904  24966008.459 4  24966005.823 4


 25  4 11  3 10  0.0000000  0 29G18E19E29G23R22R21G10R08R06E33R23G24
                                R01R07E13E26G28G08S33S31E07S35R09E08
                                G32R24G27R16G02
  22357395.189 7 117489209.90407  91550183.69005  22357397.432 5  22357394.917 5
  22357397.872 7  22357400.810 8  87735651.37108

  26041056.028 5 136846817.90305
                  26041062.663 6 102190936.61506  26041060.876 5 111077066.04805
  26041060.323 6 104856731.77606  26041061.217 6 103523851.76606
  23453501.242 7 123249466.42307
                  23453503.899 8  92037228.51008  23453505.156 8 100040361.07208
  23453502.120 8  94438162.20608  23453502.813 8  93237590.43108
  21684111.845 7 113951236.77907  88793448.85106  21684113.051 6  21684111.559 6
  21684112.999 7  21684115.942 8  85093742.43508

  19398415.035 8 103550188.29408  80539119.92607
  19398418.646 7

  23492850.159 7 125715192.12007  97778630.66406
  23492860.508 6

  21128242.179 8 111030012.35908  86517100.57307  21128244.989 7  21128241.840 7
  21128245.059 7  21128241.940 8  82912238.65208

  19699812.737 8 105492022.94508  82049547.17808
  19699817.857 8

  24429546.226 5 130360814.07605


  24512994.036 7 128816856.31307
                  24512996.213 8  96194529.74908  24512997.254 7 104559235.35107
  24512994.596 8  98703932.56308  24512995.303 8  97449234.22908
  19664641.367 8 105192680.68908


  22941408.194 6 120558118.25006  93941502.84505  22941412.443 5  22941407.913 5
  22941413.199 7  22941412.352 7  90027297.88507

  22910584.797 6 122470319.92906


  20725513.791 8 110945793.77508  86291427.64107
  20725519.476 7

  26316968.414 6 138296663.44106
                  26316975.624 7 103273546.59007  26316972.837 7 112253825.89507
  26316973.432 7 105967624.21207  26316974.211 7 104620585.47407
  23284493.307 8 122361185.53208
                  23284495.027 8  91373826.35008  23284496.519 8  99319303.38808
  23284493.273 8  93757461.47108  23284493.968 8  92565649.48408
  24496162.025 6 128728424.40206 100307984.04203  24496168.211 3  24496161.681 3
  24496168.724 6  24496172.893 6  96128544.02706

  23234085.908 7 122096004.83107  95139793.10904  23234090.932 4  23234085.358 4
  23234091.716 6  23234089.111 7  91175634.62807

  37105954.665 7 194993115.69407
                  37105951.259 6 145611733.67106

  36827307.401 7 193528849.68707
                  36827317.285 7 144518304.59907

  24190774.043 7 127123883.11807
                  24190778.303 8  94930489.33608  24190776.670 8 103184746.51808
  24190776.262 8  97406896.41408  24190777.207 8  96168693.94908
  36981180.047 7 194337430.73307
                  36981181.395 6 145122109.58606

  24033223.491 6 128336075.61806  99817004.82806
  24033232.717 6

  28604880.703 6 150319984.00106
                  28604884.495 6 112252143.97006  28604883.998 6 122013123.85606
  28604882.633 6 115180435.72906  28604883.501 6 113716287.42306
  20778015.340 8 109189659.20508  85083042.88107  20778018.459 7  20778015.233 7
  20778019.021 7  20778015.902 8  81538001.03308

  24343345.656 7 130174798.41107 101247125.54906
  24343354.077 6

  22138008.238 7 116336098.98807  90651561.75405  22138011.819 5  22138007.684 5
  22138012.515 7  22138010.755 8  86874418.80108

  24489513.081 6 130818595.58006 101747826.37705
  24489518.923 5

  24957158.923 6 131150784.20706 102195429.16704  24957160.558 4  24957157.864 4


 25  4 11  3 10 15.0000000  0 29G18E19E29G23R22R21G10R08R06E33R23G24
                                R01R07E13E26G28G08S33S31E07S35R09E08
                                G32R24G27R16G02
  22365213.517 7 117530295.11507  91582198.11905  22365215.724 5  22365213.249 5
  22365215.608 7  22365218.958 8  87766331.85808

  26033526.057 6 136807247.77406
                  26033532.656 6 102161387.58906  26033531.214 5 111044947.52505
  26033530.079 6 104826411.92206  26033531.201 6 103493917.32806
  23450471.383 8 123233543.42008
                  23450473.806 8  92025337.98208  23450474.970 8 100027436.57608
  23450472.091 8  94425961.48908  23450472.739 8  93225544.80908
  21688202.215 7 113972733.42707  88810199.48906  21688203.647 6  21688201.929 6
  21688203.879 7  21688206.648 8  85109795.13208

  19403268.018 8 103576098.41308  80559272.24707
  19403272.426 7

  23504943.624 7 125779904.98107  97828962.82206
  23504954.514 6

  21127336.095 8 111025249.80608  86513389.50807  21127338.685 7  21127335.756 7
  21127338.564 7  21127335.611 8  82908682.22108

  19699485.038 8 105490268.89708  82048182.94608
  19699490.094 8

  24439046.249 5 130411508.22105


  24507446.931 7 128787705.99007
                  24507449.096 8  96172761.69008  24507450.147 7 104535574.40307
  24507447.366 8  98681596.64108  24507448.153 8  97427182.23908
  19659065.987 8 105162857.57908


  22945623.683 7 120580271.40207  93958765.04305  22945628.271 5  22945623.388 5
  22945628.663 6  22945628.099 7  90043840.83307

  22902712.777 6 122428243.70406


  20732953.971 8 110985626.00208  86322408.27507
  20732960.424 7

  26323319.723 6 138330041.14006
                  26323327.214 7 103298471.47307  26323324.463 7 112280918.17407
  26323324.850 7 105993199.31507  26323325.820 7 104645835.46607
  23285271.391 8 122365273.98008
                  23285273.002 8  91376879.41608  23285274.610 8  99322621.93908
  23285271.283 8  93760594.18708  23285271.977 8  92568742.37508
  24486283.984 6 128676513.90506 100267534.37403  24486289.350 3  24486283.631 3
  24486290.600 6  24486294.782 7  96089779.80207

  23232064.335 7 122085380.09007  95131514.10904  23232069.293 4  23232063.790 4
  23232069.668 6  23232067.149 7  91167700.58107

  37105953.332 7 194993119.30507
                  37105951.894 6 145611736.43906

  36827306.118 7 193528839.32507
                  36827315.456 7 144518296.84507

  24195482.526 7 127148626.32107
                  24195486.700 8  94948966.40808  24195485.151 8 103204830.28808
  24195484.681 8  97425855.50108  24195485.678 8  96187412.02908
  36981188.709 7 194337476.22107
                  36981190.182 6 145122143.60706

  24026629.158 6 128300865.83706  99789619.49706
  24026638.764 6

  28612851.961 6 150361875.54406
                  28612856.074 6 112283426.75106  28612855.891 6 122047126.83506
  28612854.340 6 115212534.58306  28612855.058 6 113747978.24406
  20774717.515 8 109172329.58908  85069539.31507  20774720.727 7  20774717.417 7
  20774721.475 7  20774718.082 8  81525060.12008

  24331423.498 7 130111046.67807 101197540.88806
  24331432.668 6

  22141811.904 7 116356087.48707  90667137.20805  22141815.448 5  22141811.346 5
  22141816.419 7  22141814.511 8  86889345.27508

  24488543.553 6 130813417.05606 101743798.74405
  24488549.274 5

  24948311.891 6 131104291.96406 102159201.51004  24948313.032 4  24948310.832 4


 25  4 11  3 10 30.0000000  0 29G18E19E29G23R22R21G10R08R06E33R23G24
                                R01R07E13E26G28G08S33S31E07S35R09E08
                                G32R24G27R16G02
  22373047.299 7 117571463.58007  91614277.42305  22373049.927 5  22373047.018 5
  22373050.144 7  22373053.057 8  87797074.52008

  26026004.018 6 136767718.04806
                  26026010.050 6 102131868.73206  26026008.888 5 111012861.73805
  26026007.733 6 104796122.96706  26026008.832 6 103464013.42706
  23447456.992 7 123217703.80807
                  23447459.607 8  92013509.72608  23447460.808 8 100014579.76308
  23447457.828 8  94413824.66708  23447458.548 8  93213562.27008
  21692297.929 7 113994257.36007  88826971.39006  21692299.483 6  21692297.639 6
  21692299.729 7  21692302.436 8  85125868.20408

  19408155.004 8 103602183.14408  80579560.36707
  19408159.179 7

  23517043.728 7 125844657.88407  97879326.15306
  23517055.224 6

  21126434.548 8 111020514.30308  86509699.51907  21126437.514 7  21126434.204 7
  21126437.722 7  21126434.448 8  82905145.98108

  19699178.029 8 105488624.86908  82046904.28308
  19699183.020 8

  24448540.858 5 130462162.07405


  24501905.941 7 128758588.27707
                  24501908.161 8  96151017.97208  24501909.184 7 104511939.91507
  24501906.471 8  98659285.68808  24501907.204 8  97405154.90308
  19653520.690 8 105133196.05108


  22949866.692 7 120602567.36907  93976138.52505  22949871.232 5  22949866.406 5
  22949871.476 6  22949870.818 7  90060490.42607

  22894855.836 6 122386238.94406


  20740402.177 8 111025495.86508  86353418.16207
  20740408.459 7

  26329680.595 6 138363467.43306
                  26329688.075 7 103323432.63507  26329685.433 7 112308049.87407
  26329686.062 7 106018811.63307  26329686.645 7 104671122.20807
  23286063.371 8 122369435.85108
                  23286064.923 8  91379987.31608  23286066.652 8  99326000.09008
  23286063.269 8  93763783.16308  23286063.942 8  92571890.81308
  24476403.285 6 128624586.37806 100227071.47303  24476408.241 3  24476402.955 3
  24476409.000 6  24476413.383 6  96051002.85206

  23230066.783 7 122074884.83007  95123336.00304  23230071.927 4  23230066.220 4
  23230072.156 6  23230069.878 7  91159863.22507

  37105955.090 7 194993121.85007
                  37105952.386 6 145611738.64706

  36827303.055 7 193528827.88007
                  36827313.381 7 144518288.36307

  24200202.549 7 127173429.88207
                  24200206.701 8  94967488.56008  24200205.007 8 103224963.05908
  24200204.685 8  97444860.84008  24200205.637 8  96206175.77408
  36981196.789 7 194337519.76707
                  36981198.405 6 145122175.92506

  24020049.103 6 128265727.86406  99762290.04406
  24020058.646 6

  28620822.648 6 150403761.49406
                  28620826.825 6 112314705.34406  28620826.440 6 122081125.24506
  28620824.839 6 115244629.11906  28620825.542 6 113779664.81006
  20771440.571 8 109155109.16908  85056120.83607  20771443.833 7  20771440.473 7
  20771444.490 7  20771441.209 8  81512200.75308

  24319503.391 7 130047300.91807 101147960.87906
  24319511.525 6

  22145637.994 7 116376194.94907  90682805.36505  22145641.767 5  22145637.436 5
  22145642.652 7  22145640.836 8  86904360.59908

  24487603.525 6 130808393.86106 101739891.84805
  24487610.052 5

  24939464.888 6 131057802.63906 102122976.12104  24939466.110 4  24939463.838 4


 25  4 11  3 10 45.0000000  0 29G18E19E29G23R22R21G10R08R06E33R23G24
                                R01R07E13E26G28G08S33S31E07S35R09E08
                                G32R24G27R16G02
  22380897.325 7 117612715.97007  91646422.12605  22380900.160 5  22380897.035 5
  22380900.165 7  22380903.224 8  87827879.85708

  26018489.212 6 136728229.56406
                  26018495.683 6 102102380.67906  26018494.326 5 110980809.49405
  26018493.294 6 104765865.66306  26018494.360 6 103434140.74306
  23444458.978 7 123201948.41407
                  23444461.357 8  92001744.36408  23444462.663 8 100001791.31808
  23444459.697 8  94401752.38108  23444460.379 8  93201643.44608
  21696399.540 7 114015809.44207  88843765.21606  21696400.596 6  21696399.254 6
  21696400.830 7  21696403.683 8  85141962.28808

  19413074.365 8 103628443.16008  80599984.82707
  19413078.515 7

  23529152.394 7 125909451.24607  97929720.96406
  23529163.329 6

  21125538.988 8 111015806.69908  86506031.27307  21125541.683 7  21125538.649 7
  21125541.791 7  21125538.599 8  82901630.58308

  19698891.743 8 105487091.45208  82045711.63807
  19698896.731 7

  24458025.786 5 130512776.44205


  24496371.464 7 128729504.19907
                  24496373.567 8  96129299.38008  24496374.610 7 104488332.73307
  24496371.978 8  98637000.52108  24496372.673 8  97383153.02408
  19648006.145 8 105103697.24408


  22954136.576 7 120625006.80807  93993623.81205  22954141.149 5  22954136.281 5
  22954141.472 6  22954140.915 7  90077247.14407

  22887010.387 6 122344306.49406


  20747858.428 8 111065403.25808  86384457.24507
  20747863.831 7

  26336050.892 6 138396943.04306
                  26336058.261 7 103348430.62207  26336055.509 7 112335221.62207
  26336056.267 7 106044461.75407  26336056.874 7 104696446.26207
  23286869.485 8 122373672.03608
                  23286871.054 8  91383150.70908  23286872.775 8  99329438.56008
  23286869.342 8  93767029.08008  23286870.050 8  92575095.46808
  24466517.805 6 128572642.96506 100186596.16403  24466523.392 3  24466517.479 3
  24466523.889 6  24466528.690 7  96012214.02807

  23228094.692 6 122064519.89606  95115259.44604  23228099.306 4  23228094.134 4
  23228100.513 6  23228097.533 7  91152123.20907

  37105955.143 7 194993123.53307
                  37105952.704 6 145611739.68506

  36827302.737 7 193528816.25507
                  36827311.078 7 144518279.65407

  24204933.993 7 127198294.43807
                  24204938.256 8  94986056.25608  24204936.620 8 103245145.32908
  24204936.256 8  97463912.91008  24204937.199 8  96224985.65708
  36981205.862 7 194337563.97407
                  36981206.789 6 145122209.18806

  24013482.808 6 128230663.09706  99735017.49706
  24013491.632 6

  28628792.318 6 150445642.47406
                  28628796.665 6 112345980.18906  28628796.148 6 122115119.62006
  28628794.232 6 115276719.85006  28628795.158 6 113811347.59506
  20768184.620 8 109137998.73208  85042788.06107  20768187.843 7  20768184.522 7
  20768188.439 7  20768185.219 8  81499423.52008

  24307582.518 7 129983562.58407 101098386.64206
  24307593.144 6

  22149487.236 7 116396421.97307  90698566.68505  22149490.792 5  22149486.682 5
  22149491.709 7  22149489.946 8  86919465.19608

  24486691.786 6 130803526.98906 101736106.55805
  24486698.204 5

  24930618.839 6 131011317.15806 102086753.71504  24930619.953 4  24930617.784 4


 25  4 11  3 11  0.0000000  0 29G18E19E29G23R22R21G10R08R06E33R23G24
                                R01R07E13E26G28G08S33S31E07S35R09E08
                                G32R24G27R16G02
  22388763.951 7 117654054.24007  91678633.74505  22388766.602 5  22388763.665 5
  22388766.624 7  22388769.615 8  87858749.32308

  26010983.231 6 136688784.76006
                  26010989.345 6 102072925.24406  26010988.308 5 110948792.68005
  26010987.177 6 104735641.81106  26010988.169 6 103404301.10206
  23441477.104 7 123186279.35107
                  23441479.596 8  91990043.46308  23441480.945 8  99989072.93708
  23441477.949 8  94389746.24008  23441478.643 8  93189789.92508
  21700506.475 7 114037391.78407  88860582.62906  21700507.544 6  21700506.198 6
  21700507.857 7  21700510.718 8  85158078.97908

  19418027.113 8 103654880.49208  80620547.17707
  19418031.213 7

  23541267.869 7 125974286.97707  97980148.69506
  23541278.967 6

  21124648.828 8 111011129.10908  86502386.41307  21124651.557 7  21124648.484 7
  21124651.444 7  21124648.468 8  82898137.59808

  19698626.469 8 105485670.70308  82044606.62608
  19698631.419 8

  24467502.917 5 130563353.47605


  24490843.548 7 128700456.07207
                  24490845.809 8  96107607.62608  24490846.969 7 104464754.73607
  24490844.286 8  98614742.89408  24490844.974 8  97361178.33408
  19642522.993 8 105074363.74808


  22958434.455 7 120647591.66207  94011222.40705  22958438.781 5  22958434.174 5
  22958439.285 6  22958438.606 7  90094112.46907

  22879180.467 6 122302448.67606


  20755320.092 8 111105350.48108  86415527.30407
  20755325.896 7

  26342430.898 6 138430470.03506
                  26342438.318 7 103373466.99507  26342435.468 7 112362435.07007
  26342436.017 7 106070151.24407  26342436.900 7 104721809.19207
  23287690.091 8 122377984.76908
                  23287691.717 8  91386371.27008  23287693.357 8  99332939.16308
  23287690.004 8  93770333.65008  23287690.736 8  92578358.03408
  24456631.785 6 128520686.05706 100146110.36903  24456636.823 3  24456631.450 3
  24456636.727 6  24456641.819 7  95973415.16507

  23226147.629 7 122054287.45007  95107286.12704  23226152.156 4  23226147.084 4
  23226153.026 6  23226150.185 7  91144482.11107

  37105956.391 7 194993127.32507
                  37105953.298 6 145611742.44606

  36827299.884 7 193528806.30807
                  36827309.138 7 144518272.25407

  24209677.577 7 127223221.90607
                  24209681.801 8  95004670.93308  24209680.041 8 103265378.67208
  24209679.824 8  97483013.18708  24209680.732 8  96243843.13508
  36981214.389 7 194337609.41007
                  36981215.442 6 145122243.04206

  24006929.741 6 128195674.02706  99707803.86206
  24006939.030 6

  28636761.581 6 150487520.49806
                  28636765.721 6 112377252.86106  28636765.075 6 122149111.60306
  28636763.189 6 115308808.29606  28636764.261 6 113843028.15406
  20764949.886 8 109121000.42908  85029542.65907  20764953.161 7  20764949.784 7
  20764953.860 7  20764950.491 8  81486730.01608

  24295666.524 7 129919833.98507 101048819.91506
  24295674.624 6

  22153359.082 7 116416770.35407  90714422.57305  22153362.895 5  22153358.528 5
  22153363.548 7  22153362.105 8  86934660.42408

  24485810.776 6 130798818.56106 101732444.51305
  24485816.842 5

  24921774.807 6 130964837.81706 102050536.09604  24921775.330 4  24921773.734 4


 25  4 11  3 11 15.0000000  0 29G18E19E29G23R22R21G10R08R06E33R23G24
                                R01R07E13E26G28G08S33S31E07S35R09E08
                                G32R24G27R16G02
  22396646.795 7 117695477.23007  91710911.37705  22396649.045 5  22396646.505 5
  22396649.151 7  22396652.218 8  87889682.04708

  26003485.532 6 136649382.78206
                  26003491.547 6 102043501.78406  26003490.010 5 110916810.60305
  26003489.162 6 104705450.76106  26003490.108 6 103374493.84706
  23438511.824 8 123170695.59908
                  23438514.154 8  91978406.26908  23438515.399 8  99976423.81008
  23438512.431 8  94377805.46408  23438513.148 8  93178000.94008
  21704618.790 7 114059003.41707  88877422.86606  21704620.145 6  21704618.504 6
  21704620.257 7  21704623.292 8  85174217.53608

  19423012.978 8 103681493.89308  80641246.50007
  19423016.769 7

  23553393.422 7 126039163.49607  98030608.16906
  23553402.977 6

  21123764.291 8 111006480.51808  86498764.15107  21123766.972 7  21123763.947 7
  21123766.956 7  21123763.872 8  82894666.26608

  19698381.873 8 105484361.35608  82043588.27108
  19698386.910 8

  24476973.294 5 130613891.69905


  24485322.639 7 128671443.04007
                  24485324.800 8  96085942.08808  24485325.892 7 104441205.22307
  24485323.226 8  98592512.16308  24485323.946 8  97339230.20008
  19637069.996 8 105045194.93608


  22962759.994 6 120670320.75306  94028933.38905  22962764.409 5  22962759.722 5
  22962764.206 7  22962763.795 7  90111085.49907

  22871362.889 6 122260664.50906


  20762789.625 8 111145336.02608  86446627.18207
  20762795.727 7

  26348820.710 6 138464047.33206
                  26348827.835 7 103398540.90907  26348825.279 7 112389689.35307
  26348825.704 7 106095879.28207  26348826.469 7 104747210.16907
  23288525.365 8 122382373.13308
                  23288526.816 8  91389648.30008  23288528.486 8  99336501.15008
  23288525.060 8  93773696.16808  23288525.798 8  92581677.80808
  24446740.953 6 128468715.01406 100105613.54203  24446747.288 3  24446740.609 3
  24446747.068 6  24446751.646 7  95934605.73907

  23224225.351 7 122044186.47607  95099415.25404  23224229.859 4  23224224.797 4
  23224230.718 6  23224228.099 7  91136939.20207

  37105956.883 7 194993131.99807
                  37105954.045 6 145611746.27806

  36827296.593 7 193528797.01707
                  36827307.407 7 144518265.24007

  24214432.800 7 127248211.07407
                  24214437.024 8  95023331.68108  24214435.392 8 103285662.08508
  24214435.103 8  97502160.73508  24214436.008 8  96262747.28308
  36981222.161 7 194337654.93407
                  36981224.059 6 145122276.89206

  24000392.435 6 128160760.40706  99680648.89406
  24000400.801 6

  28644729.765 6 150529394.45706
                  28644733.798 6 112408522.50206  28644732.939 6 122183100.31406
  28644731.689 6 115340893.66506  28644732.629 6 113874705.66006
  20761736.267 8 109104113.19508  85016383.80707  20761739.652 7  20761736.160 7
  20761740.120 8  20761736.847 8  81474119.46008

  24283749.701 7 129856114.53107 100999260.34506
  24283758.393 6

  22157254.421 7 116437238.83107  90730372.04005  22157257.924 5  22157253.876 5
  22157258.818 7  22157257.110 8  86949945.32808

  24484958.726 6 130794267.87606 101728905.14405
  24484964.421 5

  24912930.556 7 130918363.85907 102014322.68304  24912931.623 4  24912929.474 4


 25  4 11  3 11 30.0000000  0 29G18E19E29G23R22R21G10R08R06E33R23G24
                                R01R07E13E26G28G08S33S31E07S35R09E08
                                G32R24G27R16G02
  22404545.277 7 117736983.74007  91743254.09005  22404547.406 5  22404545.005 5
  22404547.476 7  22404550.661 8  87920677.14008

  25995995.114 6 136610022.57806
                  25996001.376 6 102014109.50206  25996000.237 5 110884862.46205
  25995999.106 6 104675291.72406  25996000.055 6 103344718.18806
  23435562.222 8 123155196.12708
                  23435564.634 8  91966832.01808  23435565.936 8  99963843.08708
  23435562.939 8  94365929.27208  23435563.674 8  93166275.71708
  21708736.760 7 114080643.30307  88894285.12206  21708738.160 6  21708736.474 6
  21708738.390 7  21708741.205 8  85190377.20108

  19428031.045 8 103708282.13708  80662081.79407
  19428035.033 7

  23565523.724 7 126104079.35407  98081098.24006
  23565533.919 6

  21122884.910 8 111001859.91908  86495163.70207  21122887.712 7  21122884.566 7
  21122887.572 7  21122884.556 8  82891215.83808

  19698157.587 8 105483161.96708  82042655.44007
  19698163.159 7

  24486437.773 5 130664390.12005


  24479808.004 7 128642464.28507
                  24479810.316 8  96064302.14408  24479811.362 7 104417683.52707
  24479808.786 8  98570307.69908  24479809.456 8  97317307.99508
  19631647.688 8 105016190.05908


  22967112.309 6 120693192.90506  94046755.84205  22967117.100 5  22967112.028 5
  22967116.977 7  22967116.278 7  90128165.35007

  22863560.637 6 122218952.83906


  20770266.187 8 111185358.57508  86477755.82407
  20770272.232 7

  26355219.242 6 138497673.83406
                  26355226.747 7 103423651.58707  26355224.116 7 112416983.57307
  26355224.643 7 106121645.02107  26355225.405 7 104772648.37907
  23289374.470 8 122386836.13808
                  23289376.063 8  91392981.07308  23289377.822 8  99340123.72808
  23289374.322 8  93777115.88308  23289375.067 8  92585054.05108
  24436849.545 6 128416729.13006 100065105.16603  24436854.199 3  24436849.219 3
  24436855.004 6  24436858.748 6  95895785.22806

  23222327.470 7 122034215.96507  95091646.04004  23222332.635 4  23222326.907 4
  23222333.413 6  23222330.752 7  91129493.70007

  37105955.465 7 194993136.05907
                  37105955.042 6 145611749.23106

  36827295.864 7 193528787.38207
                  36827305.538 7 144518258.13807

  24219199.624 7 127273260.69807
                  24219203.761 8  95042037.57608  24219202.095 8 103305994.58408
  24219201.816 8  97521354.61208  24219202.798 8  96281697.16808
  36981231.314 7 194337701.25507
                  36981232.792 6 145122311.78506

  23993868.732 7 128125921.30007  99653551.88206
  23993876.494 6

  28652697.154 6 150571263.13406
                  28652701.138 6 112439788.22106  28652700.189 5 122217084.72705
  28652698.829 6 115372974.99806  28652699.974 6 113906379.18806
  20758543.706 8 109087335.99408  85003310.68807  20758547.083 7  20758543.599 7
  20758547.587 8  20758544.321 8  81461591.05808

  24271835.871 7 129792403.75807 100949707.56106
  24271845.263 6

  22161172.162 7 116457826.08107  90746414.05805  22161175.602 5  22161171.612 5
  22161176.004 7  22161174.828 8  86965318.93408

  24484136.407 6 130789873.87906 101725487.62205
  24484141.504 5

  24904087.266 6 130871894.43306 101978112.77604  24904088.685 4  24904086.198 4


 25  4 11  3 11 45.0000000  0 29G18E19E29G23R22R21G10R08R06E33R23G24
                                R01R07E13E26G28G08S33S31E07S35R09E08
                                G32R24G27R16G02
  22412458.855 7 117778571.28607  91775659.95205  22412461.113 5  22412458.596 5
  22412461.613 7  22412464.517 7  87951732.75607

  25988512.619 6 136570701.79906
                  25988518.874 6 101984746.69706  25988517.101 5 110852946.31705
  25988516.582 6 104645162.92306  25988517.497 6 103314972.38406
  23432628.317 8 123139778.61708
                  23432630.785 8  91955318.97008  23432632.002 8  99951328.89708
  23432629.084 8  94354115.88208  23432629.811 8  93154612.49908
  21712859.661 7 114102309.18807  88911167.63006  21712861.081 6  21712859.375 6
  21712861.137 7  21712864.096 8  85206556.27108

  19433081.207 8 103735242.75008  80683051.14907
  19433085.442 7

  23577662.311 7 126169032.01807  98131616.93806
  23577672.074 6

  21122010.643 8 110997264.98208  86491583.24707  21122013.291 7  21122010.304 7
  21122013.367 7  21122010.135 8  82887784.57208

  19697953.636 8 105482069.92908  82041806.09608
  19697959.289 8

  24495890.682 5 130714846.29705


  24474299.717 7 128613517.68707
                  24474301.918 8  96042686.21808  24474303.077 7 104394187.94007
  24474300.281 8  98548127.87008  24474301.079 8  97295410.11808
  19626256.474 8 104987347.35908


  22971491.161 7 120716205.61307  94064687.82305  22971496.317 5  22971490.884 5
  22971495.895 7  22971495.554 7  90145350.16607

  22855770.036 6 122177311.63406


  20777749.460 8 111225415.36708  86508911.08707
  20777755.088 7

  26361627.278 6 138531347.18406
                  26361634.529 7 103448797.24207  26361631.845 7 112444315.81707
  26361632.501 7 106147446.65607  26361633.294 7 104798122.02507
  23290237.553 8 122391371.62208
                  23290239.144 8  91396367.97708  23290240.886 8  99343805.14308
  23290237.403 8  93780591.13808  23290238.139 8  92588485.13208
  24426953.181 6 128364726.44506 100024583.71103  24426958.463 3  24426952.855 3
  24426958.563 6  24426963.254 7  95856952.17807

  23220454.591 7 122024373.62307  95083976.70004  23220459.794 4  23220454.033 4
  23220460.393 6  23220457.816 7  91122143.92107

  37105956.033 7 194993137.53207
                  37105955.221 6 145611750.05506

  36827293.959 7 193528775.60107
                  36827303.150 7 144518249.41607

  24223977.389 7 127298368.27207
                  24223981.581 8  95060786.74708  24223979.953 8 103326374.11208
  24223979.616 8  97540592.89408  24223980.601 8  96300690.89408
  36981241.215 7 194337744.32207
                  36981240.979 6 145122343.85606

  23987357.158 6 128091155.15906  99626511.62606
  23987366.331 6

  28660662.643 6 150613124.02306
                  28660666.775 6 112471048.11906  28660665.931 5 122251062.82605
  28660664.745 6 115405050.35706  28660665.723 6 113938046.81306
  20755371.814 8 109070666.52708  84990321.51907  20755374.977 7  20755371.707 7
  20755375.108 7  20755372.129 8  81449143.10808

  24259922.889 7 129728699.66907 100900159.97206
  24259932.099 6

  22165111.864 7 116478529.53807  90762546.61905  22165115.428 5  22165111.301 5
  22165116.207 7  22165114.547 8  86980779.30008

  24483342.296 6 130785634.38906 101722190.35905
  24483349.087 5

  24895244.881 6 130825427.48406 101941904.81604  24895246.530 4  24895243.799 4


 25  4 11  3 12  0.0000000  0 29G18E19E29G23R22R21G10R08R06E33R23G24
                                R01R07E13E26G28G08S33S31E07S35R09E08
                                G32R24G27R16G02
  22420388.456 7 117820242.53807  91808131.03705  22420390.959 5  22420388.184 5
  22420391.162 7  22420394.294 8  87982850.88208

  25981038.383 5 136531423.74505
                  25981044.357 6 101955415.77406  25981043.000 5 110821064.82805
  25981042.164 6 104615066.83506  25981043.018 6 103285258.87506
  23429710.627 7 123124445.90207
                  23429713.027 8  91943869.24108  23429714.409 8  99938883.52508
  23429711.341 8  94342367.46108  23429712.078 8  93143013.42408
  21716988.030 7 114124003.88907  88928072.59006  21716989.475 6  21716987.744 6
  21716989.603 7  21716992.422 8  85222756.85708

  19438164.956 8 103762378.40108  80704156.65107
  19438169.106 7

  23589806.805 7 126234023.53007  98182165.82406
  23589817.310 6

  21121141.641 8 110992698.53708  86488024.99707  21121144.271 7  21121141.302 7
  21121144.239 8  21121141.152 8  82884374.58608

  19697770.308 8 105481087.97008  82041042.38808
  19697775.513 8

  24505339.660 5 130765262.81905


  24468798.193 7 128584606.24307
                  24468800.229 8  96021096.53308  24468801.201 7 104370720.87707
  24468798.646 8  98525974.97508  24468799.387 8  97273538.82608
  19620894.979 8 104958670.06108


  22975897.536 6 120739361.54406  94082731.40605  22975902.855 5  22975897.255 5
  22975902.866 7  22975901.910 7  90162641.93507

  22847993.902 6 122135743.80206


  20785238.972 8 111265508.85708  86540094.91607
  20785244.842 7

  26368044.775 6 138565070.14506
                  26368051.770 7 103473979.94907  26368049.282 7 112471688.33207
  26368049.931 7 106173286.29707  26368050.609 7 104823633.19807
  23291114.874 7 122395982.49507
                  23291116.558 8  91399811.16208  23291118.278 8  99347547.72808
  23291114.801 8  93784124.14508  23291115.552 8  92591973.22708
  24417054.576 6 128312710.08406  99984051.58103  24417060.155 3  24417054.268 3
  24417059.908 6  24417064.061 6  95818108.91206

  23218606.902 7 122014662.30407  95076409.45504  23218611.807 4  23218606.348 4
  23218612.253 6  23218609.705 7  91114891.98507

  37105956.878 7 194993139.72407
                  37105955.418 6 145611752.09606

  36827292.515 7 193528763.28807
                  36827300.856 7 144518240.11907

  24228766.717 7 127323536.43307
                  24228770.960 8  95079581.16108  24228769.400 8 103346802.82008
  24228769.029 8  97559877.59008  24228769.941 8  96319730.45008
  36981247.801 7 194337787.58907
                  36981249.332 6 145122376.02806

  23980859.416 6 128056465.15706  99599530.56506
  23980870.371 6

  28668627.717 6 150654979.77406
                  28668631.171 6 112502304.15206  28668630.703 5 122285036.74105
  28668629.757 6 115437121.74406  28668630.487 6 113969710.52206
  20752220.449 8 109054107.58208  84977418.47007  20752223.892 7  20752220.338 7
  20752224.499 8  20752221.139 8  81436777.69508

  24248011.888 7 129665005.47807 100850620.05206
  24248020.849 6

  22169073.942 7 116499351.75507  90778771.72405  22169077.742 5  22169073.388 5
  22169078.359 7  22169076.839 8  86996328.35908

  24482578.630 6 130781552.38806 101719015.50105
  24482585.107 5

  24886403.826 6 130778966.17406 101905701.26004  24886405.448 4  24886402.740 4


 25  4 11  3 12 15.0000000  0 29G18E19E29G23R22R21G10R08R06E33R23G24
                                R01R07E13E26G28G08S33S31E07S35R09E08
                                G32R24G27R16G02
  22428334.840 7 117862000.55107  91840669.73005  22428337.337 5  22428334.595 5
  22428337.730 7  22428340.570 7  88014033.78807

  25973572.722 6 136492191.58406
                  25973578.793 6 101926119.12406  25973577.453 5 110789220.61005
  25973576.397 6 104585005.91606  25973577.327 6 103255580.09206
  23426809.634 8 123109201.17408
                  23426812.048 8  91932485.22008  23426813.414 8  99926509.58508
  23426810.363 8  94330686.45908  23426811.086 8  93131480.91208
  21721122.506 7 114145730.63807  88945002.52906  21721123.866 6  21721122.216 6
  21721124.172 7  21721126.906 8  85238981.37608

  19443281.811 8 103789692.13108  80725400.65707
  19443286.333 7

  23601959.302 7 126299057.10407  98232747.45906
  23601971.011 6

  21120278.694 8 110988163.82508  86484491.47507  21120281.338 7  21120278.359 7
  21120281.163 7  21120278.181 8  82880988.29808

  19697608.146 8 105480219.15008  82040366.65508
  19697613.352 8

  24514783.390 5 130815642.91105


  24463303.811 7 128555733.38007
                  24463305.930 8  95999535.65808  24463306.996 7 104347285.13507
  24463304.257 8  98503851.63608  24463305.037 8  97251696.71908
  19615565.718 8 104930161.77908


  22980331.981 7 120762663.73307  94100888.95905  22980336.750 5  22980331.704 5
  22980337.014 6  22980336.217 7  90180042.92307

  22840233.026 6 122094252.59606


  20792736.044 8 111305642.13008  86571309.69207
  20792742.453 7

  26374471.535 6 138598845.83306
                  26374479.207 7 103499202.03207  26374476.235 7 112499103.64607
  26374477.193 7 106199166.34707  26374477.936 7 104849184.26307
  23292007.342 8 122400672.04108
                  23292008.891 8  91403313.10608  23292010.720 8  99351354.19108
  23292007.178 8  93787717.44408  23292007.940 8  92595520.84908
  24407154.177 6 128260683.59406  99943511.58903  24407160.233 3  24407153.891 3
  24407159.499 6  24407164.327 7  95779258.10207

  23216784.248 7 122005085.21707  95068946.80804  23216789.290 4  23216783.698 4
  23216790.414 6  23216787.190 7  91107740.27007

  37105958.868 7 194993144.18007
                  37105956.563 6 145611755.24806

  36827290.552 7 193528754.91207
                  36827299.367 7 144518233.96907

  24233568.141 7 127348768.20107
                  24233572.368 8  95098423.07508  24233570.756 8 103367283.15508
  24233570.485 8  97579211.03408  24233571.386 8  96338818.12808
  36981257.858 7 194337834.59507
                  36981258.204 6 145122411.29906

  23974378.795 6 128021855.01306  99572611.63306
  23974388.443 6

  28676591.860 6 150696833.48106
                  28676595.334 5 112533558.67405  28676595.206 6 122319008.97606
  28676594.020 6 115469191.56306  28676594.796 6 114001372.69006
  20749091.073 8 109037662.36508  84964604.04207  20749094.431 7  20749090.953 7
  20749094.966 8  20749091.666 8  81424497.21008

  24236102.133 7 129601324.81807 100801090.70906
  24236111.527 6

  22173059.631 7 116520295.63007  90795091.63005  22173063.205 5  22173059.081 5
  22173063.136 7  22173062.395 8  87011968.27308

  24481845.230 6 130777631.31506 101715965.79305
  24481850.310 5

  24877564.143 6 130732513.79506 101869504.65304  24877565.802 4  24877563.026 4


 25  4 11  3 12 30.0000000  0 29G18E19E29G23R22R21G10R08R06E33R23G24
                                R01R07E13E26G28G08S33S31E07S35R09E08
                                G32R24G27R16G02
  22436296.616 7 117903840.37507  91873272.17305  22436299.221 5  22436296.371 5
  22436299.416 7  22436302.454 7  88045277.78707

  25966114.455 6 136453000.60506
                  25966120.850 6 101896853.23606  25966119.601 6 110757409.84606
  25966118.438 6 104554976.55706  25966119.475 6 103225932.46806
  23423924.449 8 123094039.67008
                  23423926.839 8  91921163.34408  23423928.227 8  99914203.18508
  23423925.239 8  94319069.22808  23423925.932 8  93120011.35908
  21725262.501 7 114167484.69407  88961953.74506  21725263.399 6  21725262.211 6
  21725263.917 7  21725266.571 8  85255226.29308

  19448431.175 8 103817178.99508  80746779.32407
  19448435.317 7

  23614119.263 7 126364127.32807  98283357.58106
  23614129.973 6

  21119420.711 8 110983656.05708  86480978.94707  21119423.515 7  21119420.381 7
  21119423.831 7  21119420.354 8  82877622.12908

  19697466.191 8 105479458.33908  82039774.92007
  19697470.910 7

  24524215.102 5 130865981.69005


  24457815.902 7 128526894.46507
                  24457818.004 8  95978000.14208  24457818.992 7 104323876.95107
  24457816.366 8  98481754.32608  24457817.154 8  97229880.30708
  19610267.309 8 104901818.14608


  22984793.082 7 120786107.25007  94119156.63805  22984797.780 5  22984792.814 5
  22984798.373 7  22984797.435 7  90197549.44607

  22832484.467 6 122052833.17206


  20800239.866 8 111345809.91108  86602551.29307
  20800245.670 7

  26380908.432 6 138632669.46506
                  26380915.708 7 103524459.91007  26380912.719 6 112526557.87106
  26380913.640 7 106225083.13707  26380914.394 7 104874771.59807
  23292913.756 8 122405435.61408
                  23292915.359 8  91406870.32408  23292917.113 8  99355220.72608
  23292913.672 8  93791367.45108  23292914.405 8  92599124.46108
  24397250.668 6 128208642.54606  99902960.21303  24397256.233 3  24397250.396 3
  24397256.663 6  24397260.599 6  95740396.40406

  23214986.684 7 121995637.57907  95061585.03004  23214991.268 4  23214986.108 4
  23214992.446 6  23214989.362 7  91100685.24707

  37105958.537 7 194993148.21207
                  37105957.162 6 145611758.08506

  36827288.982 7 193528745.09207
                  36827297.400 7 144518226.75407

  24238380.776 7 127374058.58107
                  24238384.980 8  95117308.75908  24238383.321 8 103387811.06608
  24238383.021 8  97598589.38408  24238383.988 8  96357950.14508
  36981266.090 7 194337879.93207
                  36981266.848 6 145122445.13906

  23967911.939 6 127987320.53406  99545751.56006
  23967921.008 6

  28684555.019 6 150738680.19606
                  28684558.373 5 112564807.97705  28684558.720 6 122352975.55206
  28684557.017 6 115501256.05306  28684557.718 6 114033029.59006
  20745982.466 8 109021326.07408  84951874.49307  20745985.705 7  20745982.346 7
  20745986.160 8  20745982.885 8  81412298.06808

  24224195.715 7 129537653.36807 100751568.49406
  24224204.063 6

  22177066.969 7 116541356.11907  90811502.40805  22177070.875 5  22177066.388 5
  22177071.552 7  22177070.011 8  87027695.27408

  24481140.083 6 130773866.43006 101713037.54405
  24481145.607 5

  24868725.363 7 130686065.84007 101833311.48204  24868726.294 4  24868724.250 4


 25  4 11  3 12 45.0000000  0 29G18E19E29G23R22R21G10R08R06E33R23G24
                                R01R07E13E26G28G08S33S31E07S35R09E08
                                G32R24G27R16G02
  22444273.919 7 117945762.35007  91905938.62905  22444276.681 5  22444273.647 5
  22444276.918 7  22444279.966 7  88076583.14407

  25958664.804 6 136413851.52606
                  25958670.748 6 101867618.63806  25958669.577 5 110725633.06905
  25958668.562 6 104524979.30606  25958669.564 6 103196316.54406
  23421055.361 8 123078961.87708
                  23421057.648 8  91909903.98308  23421059.002 8  99901964.74008
  23421055.945 8  94307516.14108  23421056.693 8  93108605.13508
  21729407.125 7 114189266.58607  88978926.64706  21729408.374 6  21729406.830 6
  21729408.710 7  21729411.587 8  85271491.99808

  19453612.276 8 103844839.21108  80768292.81807
  19453616.599 7

  23626286.796 7 126429234.38107  98333996.36106
  23626297.566 6

  21118567.981 8 110979175.74208  86477487.81107  21118570.933 7  21118567.642 7
  21118570.780 8  21118567.871 8  82874276.45808

  19697344.275 8 105478805.82508  82039267.43508
  19697349.251 8

  24533640.536 4 130916279.54704


  24452334.657 7 128498090.22307
                  24452336.669 8  95956490.51508  24452337.766 7 104300496.91507
  24452335.052 8  98459683.57208  24452335.865 8  97208090.11608
  19604999.532 8 104873640.22108


  22989281.210 6 120809692.42806  94137534.69205  22989286.323 5  22989280.938 5
  22989286.007 7  22989285.385 7  90215161.73707

  22824749.454 7 122011486.10207


  20807750.604 8 111386012.68708  86633820.10907
  20807756.179 7

  26387353.878 6 138666541.43306
                  26387361.232 7 103549753.88807  26387358.681 6 112554051.35806
  26387359.394 7 106251036.96507  26387360.059 7 104900395.50007
  23293834.441 7 122410273.77507
                  23293836.078 8  91410483.25108  23293837.696 8  99359147.81808
  23293834.338 8  93795074.63808  23293835.067 8  92602784.51808
  24387344.823 6 128156587.76506  99862398.15903  24387349.925 3  24387344.546 3
  24387351.145 6  24387355.098 7  95701524.47707

  23213213.108 7 121986319.96307  95054324.56304  23213218.194 4  23213212.518 4
  23213219.073 6  23213216.245 7  91093727.29807

  37105960.424 7 194993151.67707
                  37105957.618 6 145611761.03606

  36827287.297 7 193528734.16907
                  36827295.347 7 144518218.45707

  24243204.726 7 127399407.89707
                  24243208.804 8  95136238.44808  24243207.131 8 103408386.81708
  24243206.831 8  97618012.89408  24243207.782 8  96377126.74508
  36981274.792 7 194337924.60607
                  36981275.335 6 145122478.52606

  23961458.411 6 127952862.79606  99518951.16506
  23961467.786 6

  28692517.085 5 150780520.31805
                  28692520.383 5 112596052.34305  28692520.005 5 122386936.77605
  28692518.828 6 115533315.48206  28692519.451 6 114064681.48306
  20742894.582 8 109005099.23008  84939230.22807  20742897.786 7  20742894.466 7
  20742897.858 8  20742895.048 8  81400180.65008

  24212291.242 7 129473991.91307 100702054.07406
  24212300.748 6

  22181096.967 7 116562533.49407  90828004.25705  22181100.858 5  22181096.377 5
  22181101.309 7  22181099.979 8  87043509.54208

  24480464.765 6 130770258.52606 101710231.51405
  24480470.471 5

  24859887.718 6 130639623.01106 101797122.31304  24859888.319 4  24859886.605 4


 25  4 11  3 13  0.0000000  0 29G18E19E29G23R22R21G10R08R06E33R23G24
                                R01R07E13E26G28G08S33S31E07S35R09E08
                                G32R24G27R16G02
  22452267.252 7 117987764.87107  91938667.84605  22452269.344 5  22452266.980 5
  22452270.017 7  22452272.835 8  88107948.63808

  25951222.640 6 136374743.00906
                  25951228.539 6 101838414.30706  25951226.688 5 110693889.20005
  25951226.434 6 104495013.10506  25951227.366 6 103166731.28006
  23418201.709 8 123063966.32708
                  23418204.000 8  91898706.03508  23418205.414 8  99889793.04508
  23418202.399 8  94296026.07508  23418203.114 8  93097261.12808
  21733557.125 7 114211074.87807  88995920.13006  21733558.411 6  21733556.844 6
  21733558.450 7  21733561.524 8  85287777.41308

  19458826.183 8 103872671.15908  80789939.89007
  19458830.725 7

  23638459.341 7 126494376.20107  98384662.18906
  23638470.328 6

  21117720.639 8 110974721.44208  86474016.94407  21117723.288 7  21117720.304 7
  21117723.313 7  21117720.253 8  82870950.21408

  19697242.428 8 105478259.86908  82038842.83508
  19697247.403 8

  24543057.942 5 130966534.97905


  24446859.539 7 128469319.38607
                  24446861.837 8  95935005.83008  24446862.854 7 104277143.97907
  24446860.090 8  98437638.41408  24446860.936 8  97186325.19508
  19599763.042 8 104845626.79208


  22993796.339 6 120833417.57606  94156021.81704  22993800.882 4  22993796.080 4
  22993800.684 6  22993799.941 7  90232878.57807

  22817027.573 6 121970210.04806


  20815266.321 8 111426248.13708  86665114.34307
  20815271.913 7

  26393808.536 6 138700460.22906
                  26393815.776 7 103575082.83507  26393812.964 7 112581582.82207
  26393813.664 7 106277026.67407  26393814.645 7 104926054.82907
  23294769.003 8 122415185.17108
                  23294770.654 8  91414150.86208  23294772.462 8  99363134.35208
  23294768.946 8  93798837.91908  23294769.659 8  92606499.96408
  24377436.010 6 128104518.14606  99821824.55303  24377441.315 3  24377435.733 3
  24377442.220 6  24377446.248 7  95662641.44407

  23211465.001 7 121977130.88207  95047164.26104  23211469.839 4  23211464.425 4
  23211470.715 6  23211467.627 7  91086865.34007

  37105960.326 7 194993151.73407
                  37105957.850 6 145611761.00806

  36827283.178 7 193528721.19907
                  36827292.839 7 144518208.81907

  24248039.218 7 127424814.49307
                  24248043.494 8  95155210.92308  24248041.754 8 103429009.06508
  24248041.545 8  97637480.29808  24248042.509 8  96396346.68408
  36981281.218 7 194337966.70907
                  36981283.312 6 145122510.00206

  23955020.303 6 127918480.80206  99492209.67806
  23955028.843 6

  28700477.004 5 150822352.17405
                  28700480.569 6 112627290.56206  28700480.173 5 122420891.30905
  28700479.126 6 115565368.58206  28700479.726 6 114096327.15106
  20739827.141 8 108988980.32908  84926670.06707  20739830.423 7  20739827.030 7
  20739830.711 7  20739827.695 8  81388143.83808

  24200386.599 7 129410339.63507 100652546.78706
  24200396.230 6

  22185148.983 7 116583825.97407  90844595.79805  22185152.671 5  22185148.416 5
  22185153.027 7  22185151.767 8  87059409.77708

  24479817.491 6 130766806.20606 101707546.39505
  24479824.256 5

  24851050.813 6 130593184.15406 101760936.26204  24851052.277 4  24851049.687 4


 25  4 11  3 13 15.0000000  0 29G18E19E29G23R22R21G10R08R06E33R23G24
                                R01R07E13E26G28G08S33S31E07S35R09E08
                                G32R24G27R16G02
  22460276.411 7 118029853.45807  91971464.12805  22460278.602 5  22460276.139 5
  22460278.990 7  22460281.934 8  88139378.40508

  25943789.776 6 136335680.76106
                  25943795.151 6 101809244.53806  25943793.957 5 110662182.92105
  25943793.149 6 104465082.40306  25943793.955 7 103137181.04507
  23415364.831 8 123049058.72508
                  23415367.126 8  91887573.76608  23415368.660 8  99877692.74408
  23415365.568 8  94284603.39608  23415366.281 8  93085983.65508
  21737713.159 7 114232915.29907  89012938.64106  21737714.516 6  21737712.873 6
  21737714.627 7  21737717.639 8  85304086.82608

  19464073.583 8 103900680.48408  80811724.90307
  19464077.815 7

  23650640.482 7 126559558.41607  98435359.40306
  23650651.540 6

  21116878.972 8 110970298.89308  86470570.81707  21116881.666 7  21116878.633 7
  21116881.695 7  21116878.604 8  82867647.67808

  19697160.964 8 105477825.98108  82038505.37808
  19697166.477 8

  24552470.469 5 131016753.38905


  24441392.203 7 128440587.82607
                  24441394.424 8  95913550.47808  24441395.342 7 104253822.93207
  24441392.651 8  98415623.35308  24441393.488 8  97164589.98908
  19594557.869 8 104817784.17208


  22998338.535 7 120857288.28407  94174622.37004  22998343.246 4  22998338.281 4
  22998342.879 7  22998342.436 7  90250704.11007

  22809321.259 7 121929010.82707


  20822790.559 8 111466522.06208  86696438.50807
  20822795.861 7

  26400273.065 6 138734431.52106
                  26400280.325 7 103600450.96607  26400277.222 6 112609156.88406
  26400278.387 7 106303056.58707  26400279.221 7 104951753.84907
  23295718.558 8 122420175.59108
                  23295720.277 8  91417877.48608  23295721.952 8  99367185.01908
  23295718.537 8  93802661.75308  23295719.302 8  92610275.19308
  24367526.372 6 128052439.69606  99781244.05803  24367530.858 3  24367526.127 3
  24367532.602 6  24367536.616 7  95623751.83507

  23209741.504 7 121968076.05707  95040108.56904  23209746.806 4  23209740.928 4
  23209746.915 6  23209744.538 7  91080103.64107

  37105960.518 7 194993155.72007
                  37105958.615 6 145611763.78106

  36827281.363 7 193528711.95607
                  36827291.046 7 144518202.01407

  24252885.974 7 127450283.88307
                  24252890.143 8  95174230.28008  24252888.402 8 103449682.27608
  24252888.275 8  97656995.81408  24252889.163 8  96415614.12108
  36981291.824 7 194338012.50207
                  36981291.844 6 145122544.35906

  23948597.116 6 127884180.46206  99465531.71406
  23948605.984 6

  28708436.719 5 150864181.33405
                  28708440.290 6 112658526.75406  28708440.283 5 122454843.63705
  28708439.119 6 115597419.63306  28708439.460 6 114127970.76906
  20736781.532 8 108972975.07108  84914198.45907  20736784.676 7  20736781.425 7
  20736784.977 7  20736781.993 8  81376191.88808

  24188487.908 7 129346702.49107 100603051.22806
  24188495.692 6

  22189223.486 7 116605238.98607  90861281.26805  22189227.379 5  22189222.910 5
  22189228.152 7  22189226.459 8  87075400.02008

  24479199.700 6 130763515.51306 101704986.97305
  24479207.187 5

  24842215.188 6 130546755.11506 101724757.86304  24842217.124 4  24842214.048 4


 25  4 11  3 13 30.0000000  0 29G18E19E29G23R22R21G10R08R06E33R23G24
                                R01R07E13E26G28G08S33S31E07S35R09E08
                                G32R24G27R16G02
  22468300.518 7 118072022.73107  92004323.28105  22468303.223 5  22468300.241 5
  22468303.372 7  22468306.480 7  88170868.41807

  25936363.834 6 136296659.87906
                  25936369.669 6 101780105.67706  25936368.879 6 110630510.17906
  25936367.633 6 104435183.37206  25936368.446 6 103107662.09906
  23412543.679 8 123034233.85708
                  23412546.009 8  91876503.26808  23412547.604 8  99865659.58608
  23412544.481 8  94273244.09808  23412545.179 8  93074768.75608
  21741874.484 7 114254782.65807  89029978.14206  21741875.660 6  21741874.198 6
  21741876.034 7  21741878.823 8  85320416.34808

  19469352.408 8 103928861.68008  80833643.60107
  19469357.461 7

  23662827.387 6 126624775.08906  98486083.43906
  23662839.753 6

  21116042.406 8 110965902.84808  86467145.34607  21116045.074 7  21116042.071 7
  21116045.197 7  21116042.038 8  82864364.94308

  19697100.107 8 105477498.82608  82038250.94208
  19697104.997 8

  24561871.932 5 131066929.64405


  24435931.253 7 128411890.56107
                  24435933.453 8  95892120.73508  24435934.189 7 104230529.72507
  24435931.677 8  98393634.56908  24435932.563 8  97142880.72408
  19589384.257 8 104790107.23108


  23002907.704 6 120881299.17406  94193332.15804  23002912.117 4  23002907.450 4
  23002912.157 6  23002911.493 7  90268634.31707

  22801626.028 6 121887883.23306


  20830319.085 8 111506828.55908  86727788.00707
  20830325.575 7

  26406746.471 6 138768449.97906
                  26406753.881 7 103625854.34707  26406751.260 7 112636769.26207
  26406751.981 7 106329122.66407  26406752.721 7 104977488.58007
  23296682.380 8 122425239.93008
                  23296684.011 8  91421659.30408  23296685.708 8  99371295.69108
  23296682.217 8  93806542.23308  23296683.008 8  92614106.34208
  24357613.647 6 128000347.58206  99740652.91003  24357618.134 3  24357613.402 3
  24357619.014 6  24357623.284 7  95584851.99707

  23208042.928 7 121959150.28507  95033153.43604  23208048.247 4  23208042.356 4
  23208048.721 6  23208045.952 7  91073438.29907

  37105960.925 7 194993158.37007
                  37105958.977 6 145611766.07006

  36827279.462 7 193528700.16807
                  36827288.846 7 144518193.08507

  24257743.370 7 127475810.64207
                  24257747.713 8  95193292.47508  24257745.886 8 103470402.05108
  24257745.887 8  97676555.28208  24257746.749 8  96434924.95308
  36981299.900 7 194338056.72307
                  36981300.300 6 145122577.26706

  23942187.692 6 127849957.35706  99438913.79706
  23942197.415 6

  28716395.072 5 150906002.42505
                  28716398.776 6 112689756.90006  28716397.910 5 122488789.40505
  28716397.163 6 115629464.46206  28716397.607 6 114159608.25606
  20733756.531 8 108957078.23008  84901811.34107  20733759.561 7  20733756.433 7
  20733760.081 7  20733756.855 8  81364320.90908

  24176588.924 7 129283075.76207 100553563.86006
  24176597.781 6

  22193320.499 7 116626767.05107  90878056.38605  22193324.002 5  22193319.927 5
  22193324.276 7  22193323.169 8  87091476.17508

  24478614.261 6 130760380.82006 101702548.92305
  24478620.402 5

  24833381.193 7 130500330.93607 101688583.23004  24833382.142 4  24833380.058 4


 25  4 11  3 13 45.0000000  0 29G18E19E29G23R22R21G10R08R06E33R23G24
                                R01R07E13E26G28G08S33S31E07S35R09E08
                                G32R24G27R16G02
  22476340.810 7 118114274.79207  92037246.94105  22476343.670 5  22476340.524 5
  22476343.967 7  22476346.866 7  88202420.25207

  25928946.733 6 136257682.63206
                  25928952.721 6 101750999.39406  25928951.326 5 110598872.86105
  25928950.076 6 104405317.77506  25928951.250 6 103078176.15906
  23409738.779 8 123019493.95208
                  23409741.085 8  91865496.22808  23409742.687 8  99853695.40208
  23409739.542 8  94261949.91508  23409740.246 8  93063618.14508
  21746041.411 7 114276679.23607  89047040.41406  21746042.488 6  21746041.130 6
  21746042.972 7  21746045.602 8  85336767.69208

  19474664.624 8 103957216.83808  80855697.60707
  19474669.112 7

  23675023.106 7 126690028.21307  98536835.81506
  23675032.667 6

  21115211.452 8 110961535.63408  86463742.33707  21115213.992 7  21115211.122 7
  21115214.208 7  21115210.979 8  82861103.72208

  19697058.954 8 105477280.27208  82038080.98608
  19697064.509 8

  24571268.095 5 131117065.86005


  24430477.311 7 128383230.00307
                  24430479.486 8  95870718.39908  24430480.403 7 104207266.30307
  24430477.782 8  98371673.91008  24430478.610 8  97121199.22708
  19584241.739 8 104762598.89608


  23007503.775 6 120905452.26906  94212152.74304  23007508.127 4  23007503.516 4
  23007508.658 6  23007507.851 7  90286670.72807

  22793945.965 6 121846829.58306


  20837855.812 8 111547169.75908  86759164.49807
  20837861.454 7

  26413229.381 6 138802517.82006
                  26413236.879 7 103651294.59207  26413234.131 6 112664421.72306
  26413234.800 7 106355226.57507  26413235.662 7 105003260.65607
  23297660.596 8 122430380.52008
                  23297662.162 8  91425498.05908  23297663.911 8  99375468.25108
  23297660.449 8  93810481.12708  23297661.220 8  92617995.16608
  24347698.482 6 127948244.34406  99700053.10603  24347703.500 3  24347698.241 3
  24347703.623 6  24347708.314 7  95545943.89407

  23206369.404 7 121950355.80807  95026300.61604  23206374.559 4  23206368.828 4
  23206375.615 6  23206372.388 7  91066871.02507

  37105961.046 7 194993159.65607
                  37105959.340 6 145611766.79306

  36827276.399 7 193528689.18907
                  36827286.614 7 144518184.97207

  24262612.480 8 127501396.81808
                  24262616.611 8  95212399.04908  24262614.913 8 103491170.05808
  24262614.721 8  97696160.28808  24262615.621 8  96454280.74308
  36981306.992 7 194338100.24907
                  36981308.689 6 145122609.67006

  23935793.893 6 127815813.93406  99412357.86806
  23935803.282 6

  28724352.167 5 150947817.56105
                  28724355.942 6 112720982.59506  28724355.473 5 122522730.31705
  28724353.927 6 115661504.73306  28724354.645 6 114191241.23906
  20730752.337 8 108941292.02908  84889510.43207  20730755.525 7  20730752.248 7
  20730756.034 7  20730752.835 8  81352532.54408

  24164691.898 7 129219462.12207 100504086.60306
  24164701.585 6

  22197439.332 7 116648412.14807  90894922.69405  22197442.832 5  22197438.765 5
  22197443.632 7  22197442.125 8  87107639.72008

  24478057.951 6 130757405.07506 101700234.52305
  24478064.588 5

  24824547.897 6 130453913.94506 101652414.17104  24824549.028 4  24824546.771 4


 25  4 11  3 14  0.0000000  0 29G18E19E29G23R22R21G10R08R06E33R23G24
                                R01R07E13E26G28G08S33S31E07S35R09E08
                                G32R24G27R16G02
  22484396.888 7 118156608.63007  92070234.32605  22484399.661 5  22484396.598 5
  22484399.348 7  22484402.663 7  88234033.16607

  25921537.369 6 136218748.17906
                  25921543.588 6 101721925.05706  25921542.764 5 110567270.32405
  25921541.399 6 104375484.96406  25921542.200 6 103048722.58306
  23406949.970 8 123004838.18808
                  23406952.200 8  91854552.01908  23406953.685 8  99841799.50008
  23406950.611 8  94250720.19708  23406951.318 8  93052531.18008
  21750213.338 7 114298604.21607  89064124.81606  21750214.691 6  21750213.052 6
  21750215.005 7  21750217.762 8  85353140.24508

  19480008.922 8 103985744.87408  80877886.08807
  19480013.352 7

  23687223.667 7 126755316.52807  98587615.57206
  23687233.287 6

  21114385.700 8 110957196.37508  86460361.11307  21114388.298 7  21114385.365 7
  21114388.356 7  21114385.179 8  82857863.38708

  19697038.032 8 105477169.13408  82037994.56907
  19697043.796 7

  24580655.011 5 131167160.51405


  24425030.211 7 128354605.52207
                  24425032.340 8  95849343.00608  24425033.365 7 104184032.16407
  24425030.757 8  98349740.89008  24425031.521 8  97099545.02108
  19579130.473 8 104735258.66208


  23012126.939 6 120929746.62506  94231083.40804  23012131.020 4  23012126.689 4
  23012131.978 6  23012130.784 7  90304812.60307

  22786280.174 6 121805848.99806


  20845398.062 8 111587544.75208  86790567.27007
  20845404.114 7

  26419721.357 6 138836634.15206
                  26419729.086 7 103676771.05807  26419726.532 6 112692113.52906
  26419727.200 7 106381367.63907  26419727.827 7 105029069.42207
  23298653.195 8 122435596.61408
                  23298654.814 8  91429393.20508  23298656.518 8  99379702.10208
  23298653.062 8  93814477.88508  23298653.804 8  92621941.11808
  24337781.245 6 127896129.52706  99659444.26903  24337786.300 3  24337781.004 3
  24337786.858 6  24337790.923 7  95507027.12807

  23204720.718 7 121941691.83307  95019549.47804  23204725.756 4  23204720.151 4
  23204726.096 6  23204723.765 7  91060401.19007

  37105962.338 7 194993161.81507
                  37105959.706 6 145611768.37406

  36827275.152 7 193528677.89707
                  36827284.508 7 144518176.59607

  24267492.273 8 127527041.40108
                  24267496.581 8  95231549.23108  24267494.828 8 103511985.47408
  24267494.751 8  97715810.04008  24267495.610 8  96473680.71008
  36981317.563 7 194338144.27807
                  36981317.068 6 145122642.73506

  23929414.629 6 127781750.34706  99385864.06006
  23929423.246 6

  28732307.744 5 150989625.80705
                  28732311.373 5 112752203.15705  28732310.775 5 122556665.69005
  28732309.866 6 115693539.73206  28732310.381 6 114222869.01806
  20727769.122 8 108925615.60908  84877295.06507  20727772.371 7  20727769.024 7
  20727772.915 7  20727769.671 8  81340826.15608

  24152798.651 7 129155861.02107 100454619.15706
  24152806.351 6

  22201580.221 7 116670173.13007  90911879.30105  22201583.773 5  22201579.671 5
  22201584.637 7  22201583.064 8  87123889.80508

  24477530.497 6 130754587.16906 101698042.86105
  24477536.506 5

  24815716.626 6 130407503.65206 101616250.37404  24815717.802 4  24815715.513 4


 25  4 11  3 14 15.0000000  0 29G18E19E29G23R22R21G10R08R06E33R23G24
                                R01R07E13E26G28G08S33S31E07S35R09E08
                                G32R24G27R16G02
  22492469.150 7 118199025.78707  92103286.62605  22492471.382 5  22492468.873 5
  22492471.329 7  22492474.482 7  88265708.26907

  25914136.928 6 136179858.61806
                  25914143.083 6 101692884.23206  25914142.184 6 110535704.15606
  25914140.730 6 104345686.55406  25914141.723 7 103019302.96407
  23404177.171 8 122990268.23608
                  23404179.586 8  91843671.88908  23404181.149 8  99829973.26308
  23404178.052 8  94239556.24008  23404178.715 8  93041509.13708
  21754391.154 7 114320559.30907  89081232.68506  21754392.653 6  21754390.868 6
  21754392.837 7  21754395.759 8  85369535.28808

  19485385.862 8 104014447.33208  80900210.21607
  19485390.379 7

  23699430.767 7 126820641.28407  98638423.65806
  23699441.752 6

  21113565.675 8 110952886.77608  86457003.00207  21113568.216 7  21113565.340 7
  21113568.339 7  21113565.128 8  82854645.20508

  19697037.540 8 105477167.15208  82037993.03607
  19697042.992 7

  24590037.825 5 131217216.11905


  24419590.580 7 128326019.00607
                  24419592.421 8  95827995.96308  24419593.464 7 104160828.85007
  24419590.855 8  98327836.96708  24419591.676 8  97077919.53908
  19574050.703 8 104708088.63708


  23016777.238 6 120954183.68106  94250125.27304  23016781.360 4  23016776.984 4
  23016781.802 7  23016781.155 7  90323061.05607

  22778627.062 6 121764943.43906


  20852947.046 8 111627954.42408  86821997.02007
  20852952.820 7

  26426223.205 6 138870800.59606
                  26426230.753 7 103702284.93407  26426228.251 7 112719846.01507
  26426228.650 7 106407547.10407  26426229.544 7 105054916.09107
  23299660.511 8 122440890.03208
                  23299662.108 8  91433346.09208  23299663.873 8  99383998.70808
  23299660.319 8  93818533.88608  23299661.091 8  92625945.56208
  24327862.104 6 127844005.15106  99618828.01203  24327867.235 3  24327861.881 3
  24327867.871 6  24327871.801 7  95468103.21607

  23203097.662 7 121933160.02007  95012901.33304  23203102.226 4  23203097.095 4
  23203103.070 6  23203100.122 7  91054030.04807

  37105962.128 7 194993165.75707
                  37105960.350 6 145611771.59406

  36827273.962 7 193528667.59507
                  36827282.527 7 144518168.88907

  24272383.772 8 127552745.86908
                  24272387.934 8  95250744.14308  24272386.290 8 103532849.49608
  24272386.176 8  97735505.68308  24272387.007 8  96493125.98708
  36981324.959 7 194338188.66607
                  36981325.578 6 145122675.73706

  23923050.342 6 127747768.30206  99359433.64906
  23923060.229 6

  28740262.509 5 151031428.60305
                  28740266.119 6 112783419.68506  28740265.749 5 122590596.62505
  28740264.172 6 115725570.57406  28740265.058 6 114254492.70206
  20724807.539 8 108910050.65508  84865166.55707  20724810.413 7  20724807.446 7
  20724810.873 8  20724807.703 8  81329203.00808

  24140907.741 7 129092274.77407 100405163.28606
  24140916.319 6

  22205743.401 7 116692051.42507  90928927.33105  22205747.118 5  22205742.851 5
  22205747.698 7  22205746.331 8  87140227.50208

  24477032.736 6 130751929.18006 101695975.57005
  24477037.099 5

  24806886.775 6 130361101.96706 101580093.26804  24806888.087 4  24806885.658 4


 25  4 11  3 14 30.0000000  0 29G18E19E29G23R22R21G10R08R06E33R23G24
                                R01R07E13E26G28G08S33S31E07S35R09E08
                                G32R24G27R16G02
  22500555.288 7 118241523.74907  92136401.90505  22500558.325 5  22500555.007 5
  22500558.538 7  22500561.595 7  88297443.75007

  25906744.489 5 136141011.50905
                  25906750.453 6 101663875.15106  25906749.319 6 110504172.49106
  25906748.071 6 104315920.69306  25906749.214 7 102989915.49307
  23401420.698 8 122975781.79808
                  23401422.811 8  91832854.12308  23401424.472 8  99818214.81308
  23401421.327 8  94228456.26408  23401422.009 8  93030550.26708
  21758574.378 7 114342542.26707  89098362.26106  21758575.878 6  21758574.092 6
  21758575.984 7  21758578.833 8  85385951.13308

  19490794.959 8 104043321.70808  80922668.05607
  19490799.827 7

  23711644.122 7 126885999.91707  98689258.12106
  23711655.279 6

  21112750.741 8 110948604.59108  86453666.24907  21112753.325 7  21112750.420 7
  21112753.542 8  21112750.183 8  82851447.48408

  19697057.640 8 105477271.74708  82038074.40508
  19697062.667 8

  24599409.018 4 131267229.46204


  24414157.369 7 128297468.34807
                  24414159.449 8  95806675.69308  24414160.485 7 104137654.63307
  24414157.759 8  98305960.52008  24414158.637 8  97056321.18008
  19569003.613 8 104681086.91608


  23021454.268 6 120978760.98506  94269276.41404  23021458.619 4  23021454.018 4
  23021458.546 7  23021457.909 7  90341414.23607

  22770988.924 7 121724110.49607


  20860501.915 8 111668396.44108  86853451.91507
  20860507.364 7

  26432734.064 6 138905014.77906
                  26432741.429 7 103727834.46307  26432738.820 6 112747617.26106
  26432739.503 7 106433763.14807  26432740.298 7 105080798.87707
  23300682.089 8 122446258.52808
                  23300683.663 8  91437355.04208  23300685.341 8  99388356.26408
  23300681.896 8  93822647.41808  23300682.682 8  92630006.80308
  24317941.077 6 127791869.23106  99578202.74003  24317946.323 3  24317940.858 3
  24317946.154 6  24317950.668 7  95429170.69007

  23201498.189 7 121924758.10307  95006354.39504  23201503.335 4  23201497.613 4
  23201504.123 6  23201501.117 7  91047755.89907

  37105962.638 7 194993167.07807
                  37105960.846 6 145611772.35206

  36827269.589 7 193528656.70007
                  36827280.470 7 144518160.91507

  24277285.973 8 127578507.73408
                  24277290.280 8  95269981.90808  24277288.487 8 103553760.11308
  24277288.476 8  97755245.30408  24277289.322 8  96512614.68008
  36981333.768 7 194338233.36307
                  36981333.810 6 145122709.38606

  23916702.271 7 127713865.99307  99333065.23106
  23916711.237 6

  28748215.986 5 151073223.59905
                  28748219.373 6 112814630.36906  28748218.959 5 122624521.25305
  28748217.503 6 115757595.44706  28748218.259 6 114286110.48506
  20721866.237 8 108894594.83308  84853123.08507  20721869.248 7  20721866.148 7
  20721869.628 8  20721866.521 8  81317661.35208

  24129019.151 7 129028701.36907 100355717.37106
  24129028.096 6

  22209929.205 7 116714044.43807  90946064.74705  22209932.261 5  22209928.669 5
  22209932.717 7  22209931.480 8  87156650.85608

  24476564.661 6 130749428.74206 101694030.82405
  24476569.511 5

  24798058.166 6 130314706.71106 101543941.17104  24798059.168 4  24798057.035 4


 25  4 11  3 14 45.0000000  0 29G18E19E29G23R22R21G10R08R06E33R23G24
                                R01R07E13E26G28G08S33S31E07S35R09E08
                                G32R24G27R16G02
  22508658.408 7 118284104.84707  92169581.96305  22508661.191 5  22508658.136 5
  22508661.699 7  22508664.494 7  88329241.30007

  25899360.815 5 136102209.66405
                  25899366.690 6 101634899.83306  25899365.686 5 110472677.53605
  25899364.499 6 104286189.48306  25899365.421 7 102960562.23107
  23398680.354 8 122961381.31108
                  23398682.447 8  91822100.54508  23398684.149 8  99806526.13108
  23398680.999 8  94217422.15508  23398681.660 8  93019656.42308
  21762763.220 7 114364555.56907  89115515.48306  21762764.894 6  21762762.930 6
  21762764.887 7  21762767.848 8  85402389.63808

  19496236.858 8 104072370.27508  80945261.37907
  19496241.093 7

  23723864.680 7 126951394.36807  98740120.41806
  23723875.330 6

  21111941.477 8 110944352.26408  86450352.76407  21111944.149 7  21111941.151 7
  21111943.964 8  21111940.994 8  82848272.06208

  19697097.309 8 105477484.99608  82038240.27608
  19697102.143 8

  24608772.896 5 131317203.38105


  24408731.637 7 128268956.18407
                  24408733.816 8  95785384.17408  24408734.851 7 104114511.66107
  24408732.086 8  98284113.55908  24408732.935 8  97034751.94008
  19563987.937 8 104654256.59008


  23026158.047 6 121003480.82806  94288538.63004  23026162.319 4  23026157.784 4
  23026162.686 6  23026161.929 7  90359873.86207

  22763365.112 6 121683352.68406


  20868063.292 8 111708873.07708  86884933.74707
  20868068.798 7

  26439254.013 6 138939279.09606
                  26439261.948 7 103753421.44107  26439259.391 6 112775429.19406
  26439259.822 7 106460017.61407  26439260.626 7 105106719.59907
  23301718.460 8 122451704.67408
                  23301720.034 8  91441421.97108  23301721.790 8  99392776.84008
  23301718.255 8  93826820.43908  23301719.053 8  92634126.77808
  24308017.456 6 127739724.56406  99537570.63803  24308023.042 3  24308017.224 3
  24308023.160 6  24308027.866 7  95390231.62707

  23199924.994 7 121916488.53507  94999910.58204  23199929.695 4  23199924.413 4
  23199930.041 6  23199927.595 7  91041580.59007

  37105963.340 7 194993171.09907
                  37105961.446 6 145611775.42006

  36827269.826 7 193528646.56807
                  36827278.615 7 144518153.24707

  24282199.920 7 127604329.24907
                  24282203.942 8  95289264.22408  24282202.162 8 103574719.14208
  24282202.124 8  97775030.63408  24282202.974 8  96532148.50308
  36981342.381 7 194338278.79507
                  36981342.579 6 145122743.25106

  23910367.885 6 127680046.85406  99306761.53706
  23910377.108 6

  28756168.207 5 151115013.04805
                  28756171.598 6 112845836.91306  28756171.193 5 122658441.38705
  28756169.675 6 115789616.05906  28756170.436 6 114317724.06306
  20718946.216 8 108879250.61308  84841166.57407  20718949.252 7  20718946.127 7
  20718949.710 8  20718946.609 8  81306203.03608

  24117133.439 7 128965143.82807 100306283.76206
  24117142.249 6

  22214135.949 7 116736154.36807  90963293.27005  22214139.575 5  22214135.404 5
  22214140.035 7  22214138.908 8  87173161.52408

  24476126.347 6 130747088.75006 101692210.85605
  24476132.324 5

  24789230.971 6 130268320.75406 101507796.32104  24789232.046 4  24789229.827 4


 25  4 11  3 15  0.0000000  0 29G18E19E29G23R22R21G10R08R06E33R23G24
                                R01R07E13E26G28G08S33S31E07S35R09E08
                                G32R24G27R16G02
  22516776.419 7 118326765.41407  92202823.93905  22516779.297 5  22516776.142 5
  22516780.054 7  22516782.551 8  88361098.19108

  25891984.720 6 136063449.47206
                  25891990.796 6 101605955.64606  25891989.811 5 110441216.44005
  25891988.558 6 104256490.21206  25891989.506 7 102931240.49907
  23395955.586 8 122947063.25508
                  23395957.794 8  91811408.52108  23395959.418 8  99794904.35508
  23395956.413 8  94206451.20408  23395956.993 8  93008824.93508
  21766957.303 7 114386595.71907  89132689.62606  21766958.995 6  21766957.004 6
  21766959.157 7  21766961.952 8  85418848.18608

  19501710.017 8 104101589.32208  80967987.29507
  19501715.264 7

  23736090.329 6 127016820.63506  98791007.47106
  23736101.837 6

  21111137.311 8 110940126.30308  86447059.82007  21111139.991 7  21111136.990 7
  21111139.955 8  21111136.871 8  82845116.33008

  19697156.971 8 105477803.15908  82038487.74707
  19697161.848 7

  24618129.171 4 131367134.10804


  24403312.570 7 128240479.19807
                  24403314.798 8  95764118.92108  24403315.676 7 104091397.25407
  24403313.026 8  98262293.55808  24403313.910 8  97013209.31308
  19559003.913 8 104627594.03908


  23030888.607 6 121028339.48806  94307909.01204  23030892.540 4  23030888.339 4
  23030892.882 6  23030892.317 7  90378437.14207

  22755753.294 6 121642666.51306


  20875630.573 8 111749379.96208  86916439.09507
  20875635.883 7

  26445783.214 6 138973589.98606
                  26445790.982 7 103779043.16907  26445788.204 6 112803278.91406
  26445789.254 7 106486307.73507  26445789.790 7 105132675.52707
  23302768.964 8 122457225.02308
                  23302770.485 8  91445544.31508  23302772.164 8  99397257.64808
  23302768.764 8  93831050.32708  23302769.522 8  92638302.89408
  24298093.129 6 127687568.01406  99496929.29103  24298097.846 3  24298092.942 3
  24298097.949 6  24298102.550 7  95351283.69407

  23198375.884 7 121908347.77607  94993567.14904  23198380.501 4  23198375.303 4
  23198381.452 6  23198378.412 7  91035501.47807

  37105964.905 7 194993173.20207
                  37105961.790 6 145611777.17706

  36827266.651 7 193528635.00907
                  36827276.303 7 144518144.71407

  24287124.248 8 127630206.73308
                  24287128.224 8  95308588.32008  24287126.380 8 103595723.59408
  24287126.504 8  97794858.83908  24287127.281 8  96551724.65308
  36981351.248 7 194338321.93007
                  36981350.619 6 145122775.34306

  23904049.975 6 127646307.49006  99280519.87106
  23904059.617 6

  28764118.694 5 151156793.34705
                  28764121.872 6 112877036.63506  28764121.599 5 122692354.04205
  28764120.497 6 115821629.64606  28764120.789 6 114349330.71406
  20716046.839 8 108864014.39408  84829294.22407  20716049.829 7  20716046.755 7
  20716050.549 7  20716047.187 8  81294825.37408

  24105249.655 7 128901598.69507 100256859.87506
  24105259.013 6

  22218365.142 7 116758377.40907  90980609.92505  22218368.501 5  22218364.601 5
  22218369.165 7  22218367.801 8  87189756.65208

  24475716.993 6 130744905.26906 101690512.65005
  24475723.832 5

  24780404.935 6 130221940.81906 101471656.18804  24780406.136 4  24780403.786 4


 25  4 11  3 15 15.0000000  0 29G18E19E29G23R22R21G10R08R06E33R23G24
                                R01R07E13E26G28G08S33S31E07S35R09E08
                                G32R24G27R16G02
  22524910.582 7 118369507.71407  92236129.60705  22524912.977 5  22524910.314 5
  22524913.096 7  22524916.123 7  88393016.12307

  25884617.896 6 136024733.70306
                  25884623.255 6 101577044.60306  25884622.424 6 110409791.38106
  25884621.007 6 104226824.98506  25884622.052 7 102901952.36707
  23393247.276 8 122932830.10208
                  23393249.260 8  91800779.89308  23393250.923 8  99783351.48608
  23393247.917 8  94195545.30608  23393248.487 8  92998057.67208
  21771157.265 7 114408665.21107  89149886.63206  21771158.689 6  21771156.957 6
  21771158.950 7  21771161.725 8  85435328.65408

  19507216.386 8 104130981.13108  80990847.56507
  19507221.000 7

  23748324.275 7 127082280.82707  98841920.90706
  23748334.835 6

  21110338.490 8 110935929.17208  86443789.34407  21110341.283 7  21110338.164 7
  21110341.219 8  21110338.152 8  82841982.12308

  19697236.418 8 105478228.52608  82038818.61508
  19697241.100 8

  24627479.869 5 131417024.39905


  24397900.776 7 128212040.06807
                  24397902.970 8  95742881.94208  24397903.851 7 104068313.56107
  24397901.315 8  98240502.56708  24397902.102 8  96991695.32708
  19554051.590 8 104601102.41808


  23035645.687 7 121053339.28707  94327389.36504  23035650.159 4  23035645.419 4
  23035650.532 6  23035649.607 7  90397105.82307

  22748154.935 6 121602054.53906


  20883203.323 8 111789919.70408  86947970.00807
  20883208.873 7

  26452321.652 6 139007949.82806
                  26452329.362 7 103804701.47807  26452326.602 7 112831168.37907
  26452327.287 7 106512635.39507  26452328.286 7 105158668.51107
  23303834.045 8 122462822.16408
                  23303835.641 8  91449724.00708  23303837.245 8  99401800.78808
  23303833.885 8  93835339.05108  23303834.626 8  92642537.10108
  24288166.766 6 127635402.35606  99456280.84903  24288170.705 3  24288166.619 3
  24288171.362 6  24288175.537 7  95312328.96107

  23196851.403 7 121900338.35007  94987326.05404  23196856.398 4  23196850.836 4
  23196856.931 6  23196854.240 7  91029520.40507

  37105963.903 7 194993174.84807
                  37105962.237 6 145611778.32906

  36827264.880 7 193528623.46307
                  36827273.991 7 144518135.98707

  24292059.541 8 127656142.42108
                  24292063.625 8  95327955.89108  24292061.806 8 103616775.29808
  24292061.791 8  97814731.65208  24292062.665 8  96571344.84408
  36981357.597 7 194338365.77707
                  36981359.097 6 145122808.19406

  23897747.308 7 127612650.76407  99254342.47306
  23897757.031 6

  28772067.516 5 151198566.78105
                  28772071.132 5 112908231.22505  28772070.720 5 122726261.13905
  28772069.299 6 115853638.01206  28772069.800 6 114380932.19206
  20713168.698 8 108848888.69508  84817507.99007  20713171.477 7  20713168.614 7
  20713171.987 7  20713168.821 8  81283530.24408

  24093370.115 7 128838069.39407 100207448.27506
  24093378.987 6

  22222615.753 7 116780715.72007  90998016.40505  22222619.399 5  22222615.208 5
  22222619.759 7  22222618.643 8  87206437.86408

  24475339.329 6 130742881.37406 101688938.55205
  24475344.591 5

  24771580.653 6 130175569.40906 101435522.67804  24771581.800 4  24771579.527 4


 25  4 11  3 15 30.0000000  0 28G18E19E29G23R22R21G10R08E33R23G24R01
                                R07E13E26G28G08S33S31E07S35R09E08G32
                                R24G27R16G02
  22533059.476 7 118412332.26307  92269499.36505  22533062.312 5  22533059.208 5
  22533062.221 7  22533065.470 7  88424995.46807

  25877257.953 5 135986063.01705
                  25877264.462 6 101548167.24106  25877263.549 6 110378402.90106
  25877262.102 6 104197194.28106  25877263.206 7 102872698.33507
  23390554.708 8 122918682.49108
                  23390557.034 8  91790215.15608  23390558.691 8  99771868.05508
  23390555.698 8  94184704.95808  23390556.239 8  92987355.13008
  21775362.779 7 114430764.75007  89167107.05506  21775364.080 6  21775362.480 6
  21775364.124 7  21775367.160 8  85451831.55808

  19512755.471 8 104160546.14008  81013842.57007
  19512759.335 7

  23760562.549 6 127147775.29506  98892861.00606
  23760574.774 6

  21109545.532 8 110931761.59408  86440541.89507  21109548.191 7  21109545.206 7
  21109548.153 8  21109545.093 8  82838869.98708

  19697336.079 8 105478761.45808  82039233.12707
  19697340.574 7

  24392496.414 7 128183639.63207
                  24392498.591 8  95721673.85608  24392499.485 7 104045261.28507
  24392496.822 8  98218741.22908  24392497.659 8  96970210.61408
  19549131.076 8 104574782.86608


  23040429.967 6 121078480.66406  94346980.05104  23040434.379 4  23040429.690 4
  23040435.043 6  23040433.835 7  90415880.22807

  22740572.948 6 121561517.61806


  20890782.953 8 111830492.69008  86979526.76907
  20890788.226 7

  26458869.991 6 139042359.20906
                  26458877.270 7 103830396.78707  26458874.716 6 112859098.07706
  26458875.414 7 106539001.01407  26458876.194 7 105184698.97507
  23304913.882 8 122468496.82008
                  23304915.463 8  91453961.58608  23304917.106 8  99406406.85008
  23304913.698 8  93839687.17508  23304914.470 8  92646829.95308
  24278238.209 6 127583228.61806  99415626.11303  24278242.116 3  24278238.084 3
  24278243.348 6  24278247.322 7  95273368.19707

  23195352.401 6 121892460.85006  94981187.76804  23195357.389 4  23195351.834 4
  23195357.872 6  23195355.438 7  91023637.89207

  37105963.161 7 194993178.09307
                  37105962.810 6 145611780.69106

  36827262.381 7 193528612.49507
                  36827271.912 7 144518127.54007

  24297006.015 8 127682136.79008
                  24297010.190 8  95347367.28008  24297008.520 8 103637874.62708
  24297008.280 8  97834649.42208  24297009.214 8  96591009.42408
  36981364.309 7 194338410.02707
                  36981367.450 6 145122841.32806

  23891460.065 6 127579078.17206  99228230.54106
  23891469.523 6

  28780015.481 5 151240333.83005
                  28780018.862 6 112939421.04006  28780018.642 5 122760163.06705
  28780016.824 5 115885641.43805  28780017.666 6 114412528.81406
  20710311.275 8 108833874.12008  84805808.34807  20710314.249 7  20710311.186 7
  20710314.636 7  20710311.601 8  81272318.08708

  24081492.220 7 128774556.62207 100158049.53706
  24081500.762 6

  22226888.586 7 116803169.69407  91015513.01105  22226892.375 5  22226888.041 5
  22226893.136 7  22226891.446 8  87223205.44008

  24474989.886 7 130741017.75807 101687489.13105
  24474996.334 5

  24762758.853 6 130129207.53106 101399396.61104  24762759.298 4  24762757.740 4


 25  4 11  3 15 45.0000000  0 28G18E19E29G23R22R21G10R08E33R23G24R01
                                R07E13E26G28G08S33S31E07S35R09E08G32
                                R24G27R16G02
  22541224.123 7 118455236.49707  92302931.21805  22541226.552 5  22541223.860 5
  22541226.759 7  22541229.850 7  88457034.31907

  25869907.501 6 135947435.23806
                  25869913.763 6 101519321.91806  25869912.499 6 110347049.24306
  25869911.267 6 104167596.45306  25869912.475 7 102843476.75807
  23387878.501 8 122904618.05008
                  23387880.603 8  91779712.51508  23387882.343 8  99760452.13908
  23387879.235 8  94173928.33408  23387879.826 8  92976715.49708
  21779573.413 7 114452891.97507  89184349.04606  21779574.698 6  21779573.118 6
  21779575.029 7  21779577.781 8  85468355.13908

  19518325.692 8 104190281.71808  81036970.24107
  19518330.309 7

  23772808.793 6 127213301.18606  98943825.55206
  23772818.879 6

  21108757.508 8 110927621.20608  86437315.63407  21108760.260 7  21108757.182 7
  21108760.182 7  21108757.130 8  82835778.15508

  19697454.744 8 105479399.33608  82039729.27708
  19697460.085 8

  24387098.713 7 128155275.74207
                  24387101.077 8  95700493.05208  24387102.003 7 104022238.66307
  24387099.227 8  98197007.87408  24387100.156 8  96948753.53608
  19544242.437 8 104548633.36008


  23045241.085 6 121103761.06806  94366679.06104  23045245.098 4  23045240.835 4
  23045245.355 6  23045244.555 7  90434758.44707

  22733001.661 6 121521053.36206


  20898368.518 8 111871095.85808  87011107.01607
  20898373.400 7

  26465426.722 6 139076815.73506
                  26465434.337 7 103856127.28307  26465431.684 6 112887066.00506
  26465432.211 7 106565402.74207  26465433.096 7 105210765.08707
  23306008.155 8 122474246.72508
                  23306009.618 8  91458255.35408  23306011.391 8  99411073.98508
  23306007.870 8  93844092.95308  23306008.640 8  92651179.72708
  24268307.432 6 127531044.74206  99374963.47903  24268312.565 3  24268307.307 3
  24268312.696 6  24268316.389 7  95234399.86007

  23193877.935 6 121884712.94906  94975150.44704  23193882.907 4  23193877.363 4
  23193883.720 6  23193880.955 7  91017852.13107

  37105964.024 7 194993179.82407
                  37105963.015 6 145611782.03006

  36827259.528 7 193528601.35007
                  36827269.743 7 144518119.58107

  24301963.321 8 127708187.27908
                  24301967.406 8  95366820.57708  24301965.838 8 103659019.51508
  24301965.608 8  97854610.19408  24301966.455 8  96610716.45908
  36981373.749 7 194338453.06907
                  36981375.700 6 145122873.29606

  23885189.721 6 127545587.76406  99202182.49806
  23885197.272 6

  28787961.330 5 151282092.05205
                  28787965.079 6 112970604.25506  28787964.850 5 122794057.81805
  28787963.132 5 115917638.14605  28787963.936 6 114444118.77706
  20707474.648 8 108818968.25208  84794193.41107  20707477.711 7  20707474.555 7
  20707478.349 7  20707475.136 8  81261187.11508

  24069618.084 7 128711058.64007 100108662.26706
  24069626.665 6

  22231183.072 7 116825736.64507  91033097.65005  22231186.715 5  22231182.531 5
  22231187.270 7  22231185.813 8  87240057.39208

  24474670.037 6 130739311.84006 101686162.40005
  24474677.123 5

  24753937.444 6 130082853.04806 101363276.29604  24753938.558 4  24753936.322 4


 25  4 11  3 16  0.0000000  0 28G18E19E29G23R22R21G10R08E33R23G24R01
                                R07E13E26G28G08S33S31E07S35R09E08G32
                                R24G27R16G02
  22549404.085 7 118498223.13507  92336427.27405  22549406.607 5  22549403.826 5
  22549407.219 7  22549409.871 7  88489134.70507

  25862565.864 6 135908853.29106
                  25862571.838 6 101490510.82606  25862570.755 6 110315732.79606
  25862569.697 6 104138033.76506  25862570.487 7 102814289.86607
  23385218.522 8 122890639.64408
                  23385220.526 8  91769274.12208  23385222.202 8  99749106.04708
  23385219.214 8  94163217.63008  23385219.787 8  92966140.94908
  21783789.665 7 114475049.82207  89201614.90506  21783791.228 6  21783789.366 6
  21783791.276 7  21783794.248 8  85484901.58508

  19523928.483 8 104220190.61008  81060232.70707
  19523933.086 7

  23785059.418 6 127278861.00006  98994816.45506
  23785070.475 6

  21107975.270 8 110923510.87408  86434112.79507  21107978.057 7  21107974.944 7
  21107978.017 7  21107974.918 8  82832708.77408

  19697594.401 8 105480144.96908  82040309.23207
  19697598.869 7

  24381708.799 7 128126951.42607
                  24381711.100 8  95679341.81208  24381711.920 7 103999248.17107
  24381709.285 8  98175304.85908  24381710.209 8  96927326.40808
  19539386.810 8 104522657.07508


  23050078.741 7 121129183.17007  94386488.49204  23050082.513 4  23050078.500 4
  23050082.827 6  23050082.397 7  90453742.48907

  22725446.985 6 121480664.74406


  20905958.955 8 111911732.14708  87042713.03007
  20905964.572 7

  26471992.948 6 139111322.17806
                  26472000.512 7 103881895.05207  26471997.656 6 112915074.46606
  26471998.738 7 106591842.72507  26471999.494 7 105236868.96207
  23307117.290 8 122480074.85208
                  23307118.603 8  91462607.53908  23307120.363 8  99415804.61608
  23307116.893 8  93848558.67108  23307117.678 8  92655588.67808
  24258375.646 6 127478853.94706  99334295.43503  24258380.291 3  24258375.521 3
  24258380.809 6  24258385.265 7  95195426.35107

  23192428.735 7 121877097.52007  94969216.35604  23192433.632 4  23192428.168 4
  23192433.952 6  23192431.837 7  91012165.29207

  37105966.054 7 194993182.59307
                  37105963.686 6 145611784.01606

  36827258.070 7 193528590.76307
                  36827267.842 7 144518111.50707

  24306931.838 8 127734296.56708
                  24306935.828 8  95386317.78408  24306934.078 8 103680212.12808
  24306933.990 8  97874616.02008  24306934.865 8  96630467.97508
  36981382.120 7 194338498.25507
                  36981384.085 6 145122907.26206

  23878933.440 6 127512182.67606  99176200.82706
  23878942.082 6

  28795906.925 5 151323844.18905
                  28795910.240 6 113001782.96006  28795910.193 5 122827947.64705
  28795908.292 6 115949630.16106  28795909.048 6 114475704.13506
  20704659.524 8 108804173.98008  84782665.43207  20704662.409 7  20704659.431 7
  20704662.861 7  20704659.852 8  81250139.47908

  24057747.146 7 128647578.56207 100059288.92406
  24057755.631 6

  22235499.297 7 116848419.19907  91050772.36705  22235503.083 5  22235498.756 5
  22235503.613 7  22235502.113 8  87256995.66608

  24474380.720 6 130737767.05006 101684960.96205
  24474386.566 5

  24745118.499 6 130036508.98406 101327164.10804  24745119.105 4  24745117.377 4


 25  4 11  3 16 15.0000000  0 28G18E19E29G23R22R21G10R08E33R23G24R01
                                R07E13E26G28G08S33S31E07S35R09E08G32
                                R24G27R16G02
  22557600.172 7 118541291.67807  92369987.15605  22557602.336 5  22557599.913 5
  22557602.379 7  22557605.657 7  88521296.25107

  25855232.574 5 135870317.04705
                  25855238.523 6 101461733.85906  25855237.324 6 110284453.44906
  25855236.177 6 104108506.08306  25855237.164 7 102785137.54407
  23382574.740 8 122876746.92208
                  23382576.836 8  91758899.71208  23382578.451 8  99737829.50908
  23382575.510 8  94152572.58508  23382576.056 8  92955631.22108
  21788012.126 7 114497237.94607  89218904.35006  21788013.482 6  21788011.840 6
  21788013.703 7  21788016.466 8  85501470.63808

  19529563.941 8 104250272.22108  81083629.50807
  19529568.525 7

  23797316.656 6 127344453.89306  99045833.11606
  23797328.430 6

  21107199.046 8 110919430.30908  86430933.14907  21107201.547 7  21107198.725 7
  21107201.743 8  21107198.414 8  82829661.61608

  19697753.237 8 105480997.53808  82040972.35908
  19697758.138 8

  24376326.541 7 128098666.56207
                  24376328.648 8  95658220.02808  24376329.628 7 103976289.69807
  24376326.835 8  98153632.06708  24376327.762 8  96905929.11908
  19534563.279 8 104496854.25008


  23054942.835 6 121154746.49506  94406407.96304  23054946.972 4  23054942.585 4
  23054947.186 6  23054946.833 7  90472831.97207

  22717906.428 7 121440351.42507


  20913556.519 8 111952400.67108  87074344.09607
  20913562.037 7

  26478568.431 6 139145878.15106
                  26478576.238 7 103907699.81007  26478573.989 7 112943123.13107
  26478574.319 7 106618320.66507  26478575.275 7 105263010.31007
  23308240.905 8 122485980.94208
                  23308242.499 8  91467017.93608  23308244.276 8  99420598.52108
  23308240.812 8  93853084.11908  23308241.563 8  92660056.60008
  24248442.518 6 127426656.28806  99293622.05203  24248447.100 3  24248442.371 3
  24248447.807 6  24248452.183 7  95156447.70507

  23191005.234 7 121869614.19507  94963385.20804  23191009.792 4  23191004.680 4
  23191010.266 6  23191007.805 7  91006577.10907

  37105966.582 7 194993187.31207
                  37105964.455 6 145611787.71906

  36827256.442 7 193528581.78207
                  36827266.125 7 144518104.75507

  24311911.386 7 127760464.12807
                  24311915.290 8  95405858.50508  24311913.345 8 103701452.03808
  24311913.556 8  97894666.49508  24311914.375 8  96650263.57308
  36981391.483 7 194338544.40207
                  36981392.930 6 145122941.59806

  23872694.126 6 127478863.15106  99150285.73706
  23872702.403 6

  28803850.736 5 151365589.65505
                  28803853.926 6 113032956.66106  28803853.577 5 122861832.07005
  28803852.230 6 115981617.08406  28803852.917 6 114507284.44906
  20701865.582 8 108789490.91308  84771224.10607  20701868.284 7  20701865.493 7
  20701868.922 7  20701865.691 8  81239174.86708

  24045879.224 7 128584116.75507 100009929.83406
  24045887.302 6

  22239837.591 7 116871216.73107  91068536.68305  22239841.246 5  22239837.041 5
  22239841.682 7  22239840.346 8  87274019.78808

  24474122.340 7 130736382.85107 101683884.40605
  24474127.192 5

  24736301.028 6 129990175.25506 101291059.97904  24736301.839 4  24736299.893 4


 25  4 11  3 16 30.0000000  0 28G18E19E29G23R22R21G10R08E33R23G24R01
                                R07E13E26G28G08S33S31E07S35R09E08G32
                                R24G27R16G02
  22565810.259 7 118584437.05707  92403606.91205  22565812.512 5  22565810.014 5
  22565812.920 7  22565815.993 7  88553515.17807

  25847907.387 5 135831821.69105
                  25847913.255 6 101432987.42106  25847911.871 6 110253207.28206
  25847910.693 6 104079009.72206  25847911.694 7 102756016.14507
  23379946.446 8 122862934.97608
                  23379948.539 8  91748585.63408  23379950.068 8  99726618.53308
  23379947.135 8  94141989.43608  23379947.686 8  92945182.60808
  21792239.354 7 114519451.53107  89236213.63606  21792240.551 6  21792239.073 6
  21792240.696 7  21792243.572 8  85518058.70408

  19535230.858 8 104280521.45508  81107156.68107
  19535235.126 7

  23809580.079 6 127410074.72906  99096871.51206
  23809591.657 6

  21106427.169 8 110915374.64808  86427772.90807  21106429.745 7  21106426.852 7
  21106429.783 7  21106426.652 8  82826633.05408

  19697931.648 8 105481951.96508  82041714.71307
  19697936.633 7

  24370950.762 7 128070416.47807
                  24370952.837 8  95637124.21208  24370953.765 7 103953359.45007
  24370951.023 8  98131985.92508  24370951.915 8  96884558.14108
  19529771.500 8 104471220.19708


  23059833.614 6 121180445.92806  94426433.49704  23059837.246 4  23059833.360 4
  23059837.750 6  23059837.219 7  90492023.11907

  22710377.144 7 121400108.38307


  20921158.708 8 111993096.11508  87105996.10407
  20921164.533 7

  26485152.903 6 139180478.72606
                  26485160.668 7 103933537.87207  26485157.778 6 112971207.99206
  26485158.699 7 106644832.76107  26485159.587 7 105289185.38807
  23309379.019 8 122491960.19908
                  23309380.306 8  91471482.97408  23309382.101 8  99425451.81808
  23309378.608 8  93857665.63708  23309379.376 8  92664579.87808
  24238507.241 6 127374447.15806  99252939.71803  24238511.839 3  24238507.072 3
  24238513.109 6  24238517.240 7  95117460.51807

  23189605.364 6 121862258.11606  94957653.21204  23189609.861 4  23189604.792 4
  23189610.322 6  23189607.924 7  91001083.94807

  37105967.132 7 194993188.22507
                  37105964.589 6 145611788.48406

  36827255.593 7 193528569.41507
                  36827263.509 7 144518095.84007

  24316900.929 7 127786684.87607
                  24316904.960 8  95425438.93808  24316903.164 8 103722735.11308
  24316903.138 8  97914757.72608  24316904.004 8  96670099.40508
  36981399.729 7 194338586.80307
                  36981401.108 6 145122973.14806

  23866468.882 7 127445624.57107  99124433.54106
  23866477.118 6

  28811791.778 5 151407323.45605
                  28811795.402 6 113064121.65206  28811795.123 5 122895707.01305
  28811793.778 6 116013595.07706  28811794.483 6 114538855.94306
  20699091.570 8 108774914.14208  84759865.60807  20699094.380 7  20699091.486 7
  20699094.694 7  20699091.795 8  81228289.64708

  24034014.508 7 128520668.47707  99960581.25506
  24034022.908 6

  22244196.798 7 116894124.02107  91086386.52305  22244200.420 5  22244196.253 5
  22244200.947 7  22244199.440 8  87291125.89208

  24473891.771 6 130735154.42306 101682928.95706
  24473898.286 6

  24727484.860 6 129943847.28206 101254960.30004  24727485.999 4  24727483.711 4


 25  4 11  3 16 45.0000000  0 28G18E19E29G23R22R21G10R08E33R23G24R01
                                R07E13E26G28G08S33S31E07S35R09E08G32
                                R24G27R16G02
  22574036.273 7 118627665.31407  92437291.25205  22574038.643 5  22574036.028 5
  22574039.160 7  22574042.073 7  88585796.00107

  25840590.794 5 135793373.53905
                  25840596.305 6 101404276.26906  25840595.106 6 110221999.46206
  25840594.243 6 104049549.55306  25840595.176 7 102726930.48507
  23377334.683 8 122849210.02508
                  23377336.722 8  91738336.50508  23377338.328 8  99715478.16508
  23377335.386 8  94131472.93108  23377335.869 8  92934799.79208
  21796472.260 7 114541696.80907  89253547.61806  21796473.573 6  21796471.979 6
  21796473.952 7  21796476.737 8  85534670.43208

  19540929.622 8 104310944.33808  81130818.93007
  19540934.467 7

  23821849.931 7 127475729.17807  99147936.00706
  23821860.354 6

  21105661.274 8 110911350.10008  86424636.91407  21105663.890 7  21105660.961 7
  21105663.977 7  21105660.838 8  82823627.72808

  19698129.300 8 105483014.33308  82042541.01707
  19698134.791 7

  24365582.543 7 128042207.57107
                  24365584.803 8  95616059.14408  24365585.742 7 103930462.63007
  24365583.002 8  98110371.33108  24365583.906 8  96863218.31008
  19525011.982 8 104445761.76508


  23064750.883 6 121206287.49406  94446569.78104  23064755.042 4  23064750.624 4
  23064755.260 6  23064754.622 7  90511320.39107

  22702862.515 6 121359942.34806


  20928766.732 8 112033824.65108  87137673.86107
  20928772.876 7

  26491746.819 6 139215129.96206
                  26491754.497 7 103959413.79907  26491751.761 6 112999334.01006
  26491752.570 7 106671383.71407  26491753.545 7 105315398.82807
  23310531.773 8 122498018.93108
                  23310533.202 8  91476007.35508  23310535.059 8  99430369.62408
  23310531.564 8  93862308.04608  23310532.308 8  92669163.27308
  24228571.343 6 127322233.14906  99212253.59603  24228575.938 3  24228571.214 3
  24228576.240 6  24228581.132 7  95078469.66707

  23188230.408 7 121855035.41507  94952025.15104  23188235.159 4  23188229.818 4
  23188236.449 6  23188233.457 7  90995690.39607

  37105967.481 7 194993191.19607
                  37105965.278 6 145611790.44706

  36827251.890 7 193528559.15807
                  36827261.676 7 144518088.09107

  24321901.832 7 127812964.81707
                  24321905.836 8  95445063.58408  24321904.056 7 103744066.24607
  24321904.033 8  97934894.31108  24321904.896 8  96689980.02108
  36981409.213 7 194338631.80007
                  36981409.519 6 145123006.95306

  23860261.415 7 127412474.09207  99098649.91106
  23860269.924 6

  28819732.753 5 151449051.64105
                  28819735.930 6 113095282.44106  28819735.694 5 122929577.39805
  28819734.127 6 116045568.76106  28819734.989 6 114570423.17706
  20696338.977 8 108760449.86308  84748594.75907  20696341.878 7  20696338.884 7
  20696342.392 7  20696339.283 8  81217488.42108

  24022152.377 7 128457240.72607  99911248.65906
  24022161.156 6

  22248577.804 7 116917147.03007  91104326.53405  22248581.520 5  22248577.263 5
  22248581.776 7  22248580.559 8  87308318.40608

  24473691.937 6 130734088.37606 101682099.88005
  24473697.792 5

  24718671.346 6 129897531.41206 101218870.06604  24718672.561 4  24718670.179 4


 25  4 11  3 17  0.0000000  0 28G18E19E29G23R22R21G10R08E33R23G24R01
                                R07E13E26G28G08S33S31E07S35R09E08G32
                                R24G27R16G02
  22582277.179 7 118670971.18607  92471036.07005  22582279.396 5  22582276.947 5
  22582279.735 7  22582282.937 7  88618134.77907

  25833282.109 5 135754967.60105
                  25833287.874 6 101375596.59506  25833287.280 6 110190825.85806
  25833285.600 6 104020121.71006  25833286.662 7 102697876.72607
  23374738.470 7 122835566.95207
                  23374740.465 8  91728148.52908  23374742.150 8  99704404.26908
  23374739.152 8  94121019.17808  23374739.650 8  92924478.92708
  21800710.436 7 114563968.72407  89270902.35706  21800711.812 6  21800710.150 6
  21800712.051 7  21800714.932 8  85551302.05808

  19546660.047 8 104341535.50008  81154612.03507
  19546665.277 7

  23834123.613 6 127541411.77106  99199022.44006
  23834135.557 6

  21104900.220 8 110907351.60208  86421521.21907  21104903.007 7  21104899.912 7
  21104903.080 8  21104899.933 8  82820641.85508

  19698346.990 8 105484179.13208  82043446.99208
  19698352.699 8

  24360221.637 7 128014034.95107
                  24360223.708 8  95595021.17308  24360224.548 7 103907595.26107
  24360221.962 8  98088784.54208  24360222.820 8  96841905.93008
  19520284.384 8 104420473.94208


  23069694.788 6 121232265.89606  94466812.68304  23069698.730 4  23069694.538 4
  23069698.589 6  23069698.312 7  90530719.85207

  22695363.311 7 121319847.74207


  20936380.494 8 112074580.61308  87169372.93307
  20936386.351 7

  26498349.727 6 139249826.81406
                  26498357.214 7 103985323.74607  26498353.960 6 113027497.00306
  26498355.296 7 106697969.57007  26498356.150 7 105341646.73207
  23311698.957 8 122504152.13608
                  23311700.361 8  91480587.35408  23311702.123 8  99435347.88108
  23311698.686 8  93867007.51908  23311699.415 8  92673803.00908
  24218633.572 6 127270009.53806  99171560.00003  24218638.048 3  24218633.438 3
  24218638.772 6  24218643.143 7  95039471.65607

  23186880.363 7 121847941.11207  94946497.13504  23186884.944 4  23186879.773 4
  23186885.483 6  23186883.494 7  90990392.71907

  37105966.305 7 194993192.32607
                  37105965.318 6 145611791.45806

  36827249.663 7 193528546.29307
                  36827259.190 7 144518078.38907

  24326913.054 7 127839298.68607
                  24326917.024 8  95464728.49208  24326915.074 7 103765441.14507
  24326915.226 8  97955072.21808  24326916.047 8  96709901.42808
  36981418.251 7 194338674.44207
                  36981417.523 6 145123038.88106

  23854068.447 7 127379406.83207  99072931.00007
  23854077.827 7

  28827671.119 5 151490769.10005
                  28827674.265 6 113126435.21706  28827674.454 5 122963439.06005
  28827672.760 6 116077534.16306  28827673.389 6 114601982.26606
  20693607.019 8 108746092.95508  84737407.57907  20693609.837 7  20693606.930 7
  20693610.104 7  20693607.312 8  81206767.37708

  24010294.054 7 128393828.43407  99861928.04106
  24010303.204 6

  22252979.542 7 116940280.36907  91122352.51005  22252983.667 5  22252979.001 5
  22252983.873 7  22252982.686 8  87325593.30208

  24473521.930 6 130733179.66006 101681393.14705
  24473527.887 5

  24709859.224 6 129851222.74706 101182785.44904  24709860.289 4  24709858.057 4


 25  4 11  3 17 15.0000000  0 28G18E19E29G23R22R21G10R08E33R23G24R01
                                R07E13E26G28G08S33S31E07S35R09E08G32
                                R24G27R16G02
  22590533.901 7 118714358.44207  92504844.29305  22590535.724 5  22590533.696 5
  22590536.246 7  22590539.320 7  88650534.32607

  25825982.641 5 135716608.06405
                  25825988.395 6 101346951.58906  25825987.115 6 110159689.94206
  25825985.822 6 103990729.43306  25825986.980 7 102668858.08307
  23372158.704 7 122822009.68407
                  23372160.602 8  91718024.61908  23372162.256 8  99693400.01008
  23372159.259 8  94110631.16408  23372159.738 8  92914222.96508
  21804954.507 7 114586271.23407  89288280.93506  21804955.941 6  21804954.230 6
  21804956.135 7  21804958.935 8  85567956.53208

  19552423.722 8 104372298.76308  81178539.00407
  19552428.017 7

  23846404.271 6 127607126.21206  99250133.64206
  23846415.057 6

  21104144.963 8 110903383.13208  86418428.92107  21104147.817 7  21104144.646 7
  21104147.890 8  21104144.731 8  82817678.41108

  19698584.953 8 105485450.32708  82044435.71508
  19698589.770 8

  24354868.172 7 127985902.72907
                  24354870.292 8  95574013.38008  24354871.243 7 103884760.68807
  24354868.496 8  98067228.70908  24354869.420 8  96820624.11808
  19515590.463 8 104395361.27408


  23074664.916 6 121258384.95606  94487165.20404  23074668.920 4  23074664.653 4
  23074669.062 6  23074668.444 7  90550224.32407

  22687876.417 7 121279828.58707


  20944000.001 8 112115368.04408  87201096.48907
  20944006.088 7

  26504961.381 6 139284573.03606
                  26504969.170 7 104011270.60207  26504966.057 6 113055700.12206
  26504967.304 7 106724593.31407  26504968.146 7 105367932.03207
  23312880.876 8 122510363.82908
                  23312882.407 8  91485225.96008  23312884.160 8  99440389.84408
  23312880.713 8  93871767.13608  23312881.466 8  92678502.12008
  24208694.448 6 127217780.55706  99130862.20703  24208699.147 3  24208694.332 3
  24208699.888 6  24208704.224 7  95000469.65307

  23185555.698 6 121840979.04306  94941072.15904  23185560.248 4  23185555.117 4
  23185561.404 6  23185558.599 7  90985193.78407

  37105967.874 7 194993194.39707
                  37105965.738 6 145611793.00606

  36827246.882 7 193528535.33507
                  36827257.102 7 144518070.39007

  24331935.138 7 127865690.21707
                  24331939.130 8  95484436.46308  24331937.448 7 103786862.85207
  24331937.351 8  97975294.31008  24331938.176 8  96729866.45908
  36981424.234 7 194338717.70507
                  36981425.993 6 145123071.22706

  23847892.680 7 127346427.21507  99047280.25507
  23847901.463 7

  28835608.358 5 151532479.53105
                  28835611.433 6 113157582.76006  28835611.582 5 122997295.02605
  28835610.301 6 116109494.23606  28835610.474 6 114633536.07706
  20690895.904 8 108731847.33208  84726307.11507  20690898.947 7  20690895.815 7
  20690899.428 7  20690896.365 8  81196129.43908

  23998439.868 7 128330436.31507  99812623.11406
  23998448.048 6

  22257403.759 7 116963527.67407  91140467.29605  22257407.416 5  22257403.196 5
  22257408.079 7  22257406.501 8  87342953.29608

  24473382.587 7 130732431.94407 101680811.61406
  24473388.483 6

  24701048.687 6 129804925.64406 101146709.84504  24701050.366 4  24701047.516 4


 25  4 11  3 17 30.0000000  0 28G18E19E29G23R22R21G10R08E33R23G24R01
                                R07E13E26G28G08S33S31E07S35R09E08G32
                                R24G27R16G02
  22598804.427 7 118757822.72607  92538712.54805  22598806.701 5  22598804.217 5
  22598807.179 7  22598810.266 7  88682991.39207

  25818690.420 5 135678290.64305
                  25818696.480 6 101318338.04306  25818695.360 6 110128588.23606
  25818694.276 6 103961369.42206  25818695.347 7 102639871.30707
  23369594.358 8 122808534.04008
                  23369596.298 8  91707961.66608  23369597.796 8  99682462.00308
  23369594.912 8  94100305.69808  23369595.374 8  92904028.75508
  21809203.749 7 114608600.19907  89305680.12406  21809205.145 6  21809203.472 6
  21809205.313 7  21809207.997 8  85584630.75908

  19558217.956 8 104403229.63008  81202596.33507
  19558222.405 7

  23858689.887 6 127672867.72906  99301265.88106
  23858700.911 6

  21103394.959 8 110899440.50108  86415356.75907  21103397.537 7  21103394.642 7
  21103397.442 8  21103394.417 8  82814734.25908

  19698841.237 8 105486823.18908  82045503.50108
  19698845.987 8

  24349521.626 7 127957806.95307
                  24349523.860 8  95553032.79108  24349524.814 7 103861955.69307
  24349522.037 8  98045700.80208  24349522.943 8  96799369.86908
  19510927.297 8 104370420.10308


  23079661.461 6 121284640.20606  94507623.83804  23079665.087 4  23079661.198 4
  23079665.407 6  23079664.878 7  90569830.51307

  22680403.420 7 121239881.01407


  20951624.037 8 112156182.03808  87232840.71207
  20951630.400 7

  26511582.109 6 139319364.52506
                  26511589.705 7 104037251.22007  26511586.725 6 113083939.92206
  26511588.001 7 106751251.68207  26511588.759 7 105394251.52707
  23314077.238 8 122516649.94008
                  23314078.587 8  91489920.13408  23314080.417 8  99445492.20608
  23314076.945 8  93876583.76808  23314077.670 8  92683257.52308
  24198754.342 6 127165542.42406  99090157.29203  24198758.940 3  24198754.235 3
  24198758.948 6  24198762.866 7  94961460.78607

  23184255.393 7 121834145.06507  94935746.99104  23184259.833 4  23184254.803 4
  23184261.113 6  23184258.169 7  90980090.49907

  37105965.992 7 194993193.73107
                  37105965.582 6 145611792.34206

  36827244.414 7 193528521.67307
                  36827254.562 7 144518060.27107

  24336967.336 8 127892135.04408
                  24336971.365 8  95504184.23708  24336969.355 7 103808327.82007
  24336969.642 8  97995557.24108  24336970.450 8  96749871.81208
  36981432.086 7 194338758.49207
                  36981433.608 6 145123101.56606

  23841731.709 7 127313531.48807  99021694.73506
  23841741.020 6

  28843543.751 5 151574178.70805
                  28843546.524 6 113188721.87906  28843546.594 5 123031141.85205
  28843545.041 6 116141445.66106  28843545.382 6 114665081.34406
  20688205.696 8 108717708.78108  84715290.08407  20688208.430 7  20688205.603 7
  20688208.998 7  20688205.914 8  81185571.45808

  23986587.614 7 128267060.51507  99763330.90006
  23986595.773 6

  22261848.601 7 116986884.46907  91158667.40105  22261852.017 5  22261848.038 5
  22261852.616 7  22261851.170 8  87360395.06308

  24473271.657 7 130731841.57307 101680352.48205
  24473276.847 5

  24692240.911 6 129758636.16906 101110640.18804  24692241.359 4  24692239.740 4


 25  4 11  3 17 45.0000000  0 28G18E19E29G23R22R21G10R08E33R23G24R01
                                R07E13E26G28G08S33S31E07S35R09E08G32
                                R24G27R16G02
  22607091.162 7 118801370.20307  92572645.62505  22607093.704 5  22607090.943 5
  22607093.711 7  22607097.084 7  88715510.58107

  25811408.649 6 135640021.99706
                  25811414.122 6 101289760.89606  25811412.986 6 110097526.08606
  25811411.992 6 103932046.79906  25811412.916 7 102610921.42207
  23367046.697 8 122795146.33208
                  23367048.668 8  91697964.38508  23367050.130 8  99671595.38108
  23367047.277 8  94090047.60708  23367047.739 8  92893901.07008
  21813458.945 7 114630961.97707  89323104.88306  21813460.462 6  21813458.664 6
  21813460.388 7  21813463.338 8  85601329.47708

  19564045.375 8 104434334.31508  81226788.86107
  19564049.052 7

  23870980.194 6 127738642.36706  99352423.90306
  23870992.135 6

  21102650.735 8 110895530.10208  86412309.71107  21102653.424 7  21102650.418 7
  21102653.552 7  21102650.286 8  82811814.17308

  19699117.525 8 105488304.11308  82046655.35107
  19699122.325 7

  24344183.376 7 127929754.13407
                  24344185.593 8  95532084.28808  24344186.541 7 103839185.56707
  24344183.786 8  98024205.81308  24344184.639 8  96778148.12408
  19506298.365 8 104345656.99908


  23084683.923 7 121311037.80507  94528193.39404  23084688.203 4  23084683.664 4
  23084688.544 6  23084688.285 7  90589543.01107

  22672944.750 7 121200011.44307


  20959254.672 8 112197028.76508  87264610.39307
  20959261.214 7

  26518212.902 6 139354207.40906
                  26518220.232 7 104063270.24407  26518217.365 6 113112221.48006
  26518218.302 7 106777949.46607  26518219.156 7 105420609.93007
  23315288.858 8 122523016.87208
                  23315290.199 8  91494674.67908  23315291.903 8  99450660.18308
  23315288.533 8  93881462.34008  23315289.256 8  92688074.08108
  24188813.269 6 127113301.78806  99049450.41203  24188817.781 3  24188813.153 3
  24188818.166 6  24188822.413 7  94922450.05807

  23182980.204 7 121827445.45207  94930526.52704  23182984.781 4  23182979.605 4
  23182985.624 6  23182983.353 7  90975087.55807

  37105965.996 7 194993196.90507
                  37105966.092 6 145611794.88806

  36827241.530 7 193528511.03207
                  36827252.447 7 144518052.25207

  24342010.939 7 127918639.28607
                  24342014.959 8  95523976.36608  24342013.262 7 103829840.99907
  24342013.169 8  98015865.68908  24342014.020 8  96769922.10108
  36981441.186 7 194338803.41307
                  36981442.184 6 145123135.13906

  23835588.732 7 127280726.87907  98996180.11207
  23835597.799 7

  28851477.349 5 151615872.77705
                  28851480.493 6 113219857.19206  28851480.198 5 123064984.52105
  28851478.722 6 116173393.17006  28851479.328 6 114696622.75906
  20685536.669 8 108703683.58608  84704361.37607  20685539.488 7  20685536.576 7
  20685539.986 7  20685537.002 8  81175098.11708

  23974739.603 7 128203707.82607  99714056.66406
  23974748.264 6

  22266315.075 7 117010356.81207  91176957.53605  22266318.716 5  22266314.508 5
  22266319.425 7  22266317.793 8  87377923.10708

  24473191.511 7 130731414.75207 101680020.55805
  24473196.930 5

  24683434.386 6 129712360.71806 101074581.45204  24683434.892 4  24683433.233 4


 25  4 11  3 18  0.0000000  0 28G18E19E29G23R22R21G10R08E33R23G24R01
                                R07E13E26G28G08S33S31E07S35R09E08G32
                                R24G27R16G02
  22615393.212 7 118844996.69307  92606640.26305  22615395.580 5  22615392.998 5
  22615395.946 7  22615398.967 7  88748088.77607

  25804134.444 6 135601798.08506
                  25804140.324 6 101261217.18606  25804138.882 6 110066500.25306
  25804137.988 6 103902758.44606  25804139.062 7 102582005.38907
  23364514.783 8 122781842.56408
                  23364516.999 8  91688029.78008  23364518.575 8  99660796.88108
  23364515.550 8  94079853.83608  23364516.076 8  92883836.88108
  21817719.553 7 114653352.62407  89340552.13606  21817721.221 6  21817719.263 6
  21817721.289 7  21817724.154 8  85618049.76008

  19569903.668 8 104465608.50908  81251113.21207
  19569907.978 7

  23883278.045 6 127804445.65406  99403604.20406
  23883288.997 6

  21101911.964 8 110891647.96808  86409284.69107  21101914.685 7  21101911.643 7
  21101914.817 8  21101911.523 8  82808915.19608

  19699413.870 8 105489888.67208  82047887.79908
  19699418.634 8

  24338852.544 7 127901740.49107
                  24338854.686 8  95511165.04008  24338855.566 7 103816447.24407
  24338852.921 8  98002740.84308  24338853.799 8  96756956.01508
  19501701.189 8 104321068.25508


  23089733.815 6 121337573.57606  94548870.61804  23089737.900 4  23089733.547 4
  23089738.445 6  23089737.791 7  90609358.67507

  22665498.981 6 121160215.73406


  20966890.972 8 112237903.99708  87296402.22907
  20966896.461 7

  26524851.918 6 139389097.68906
                  26524859.466 7 104089324.66107  26524856.441 6 113140541.49106
  26524857.792 7 106804683.56507  26524858.572 7 105447004.18907
  23316514.830 8 122529460.73908
                  23316516.365 8  91499486.66308  23316518.088 8  99455890.59708
  23316514.738 8  93886399.85508  23316515.469 8  92692948.83108
  24178871.000 6 127061054.99506  99008738.75503  24178875.763 3  24178870.848 3
  24178875.138 6  24178879.774 7  94883434.73907

  23181730.260 7 121820876.25207  94925407.68204  23181734.627 4  23181729.657 4
  23181735.994 6  23181733.220 7  90970182.00707

  37105968.929 7 194993199.23407
                  37105966.584 6 145611796.66506

  36827239.924 7 193528500.02307
                  36827250.381 7 144518044.09507

  24347065.154 7 127945198.78107
                  24347069.139 8  95543809.76108  24347067.183 7 103851399.03707
  24347067.241 8  98036216.47108  24347068.116 8  96790014.19008
  36981450.460 7 194338847.47507
                  36981450.582 6 145123168.04606

  23829461.529 7 127248009.53807  98970733.35707
  23829470.565 7

  28859409.657 5 151657557.61405
                  28859412.751 6 113250985.66106  28859413.210 5 123098819.74105
  28859410.841 6 116205333.66306  28859411.571 6 114728157.23706
  20682888.633 8 108689767.74408  84693517.88107  20682891.407 7  20682888.540 7
  20682892.145 7  20682888.850 8  81164706.43808

  23962896.777 7 128140374.65707  99664797.60006
  23962905.252 6

  22270803.081 7 117033940.39807  91195334.36205  22270806.535 5  22270802.514 5
  22270806.445 7  22270805.598 8  87395534.24208

  24473141.476 7 130731147.69907 101679812.88806
  24473146.514 6

  24674630.440 6 129666095.50606 101038530.70104  24674631.313 4  24674629.300 4


 25  4 11  3 18 15.0000000  0 28G18E19E29G23R22R21G10R08E33R23G24R01
                                R07E13E26G28G08S33S31E07S35R09E08G32
                                R24G27R16G02
  22623710.158 7 118888703.39107  92640697.40305  22623712.700 5  22623709.926 5
  22623713.082 7  22623716.088 7  88780726.87307

  25796869.460 6 135563620.47606
                  25796875.280 6 101232708.02706  25796874.158 6 110035512.01406
  25796873.058 6 103873505.54306  25796874.083 7 102553124.35907
  23361999.770 8 122768624.07108
                  23362001.590 8  91678158.86008  23362003.072 8  99650067.61008
  23362000.143 8  94069725.41008  23362000.646 8  92873837.20908
  21821986.514 7 114675773.51907  89358022.96006  21821987.721 6  21821986.224 6
  21821987.732 7  21821990.698 8  85634792.64408

  19575794.338 8 104497053.45808  81275570.40307
  19575798.792 7

  23895581.348 6 127870278.42206  99454807.42906
  23895592.269 6

  21101178.873 8 110887795.45008  86406282.74707  21101181.598 7  21101178.552 7
  21101181.734 8  21101178.363 8  82806038.34308

  19699728.928 8 105491577.99108  82049201.73007
  19699733.926 7

  24333529.430 7 127873767.60407
                  24333531.610 8  95490276.21308  24333532.535 7 103793741.99707
  24333529.804 8  97981307.09308  24333530.717 8  96735794.72608
  19497138.323 8 104296655.74308


  23094810.336 6 121364248.69706  94569656.42304  23094813.987 4  23094810.068 4
  23094814.495 6  23094813.718 7  90629278.40507

  22658069.758 6 121120495.31406


  20974531.712 8 112278808.81308  87328217.08107
  20974537.842 7

  26531500.847 6 139424036.66806
                  26531508.289 7 104115415.42207  26531505.195 6 113168901.03506
  26531506.388 7 106831454.97307  26531507.222 7 105473435.27607
  23317756.067 8 122535982.97708
                  23317757.562 8  91504357.16708  23317759.230 8  99461184.62608
  23317755.871 8  93891397.41608  23317756.612 8  92697882.86408
  24168927.372 6 127008803.81606  98968023.68203  24168932.180 3  24168927.220 3
  24168932.296 6  24168936.285 7  94844416.13307

  23180505.334 7 121814438.78307  94920391.48304  23180509.680 4  23180504.744 4
  23180511.149 6  23180508.199 7  90965374.83307

  37105968.903 7 194993202.86407
                  37105967.259 6 145611799.36706

  36827239.754 7 193528490.51007
                  36827248.529 7 144518037.11407

  24352130.007 8 127971814.68308
                  24352133.964 8  95563685.28208  24352132.058 7 103873002.86107
  24352132.109 8  98056610.48408  24352132.944 8  96810148.95708
  36981459.175 7 194338892.17007
                  36981459.092 6 145123201.32406

  23823351.432 6 127215381.37706  98945355.95907
  23823360.322 7

  28867340.649 5 151699234.44905
                  28867343.213 6 113282108.07006  28867343.516 5 123132648.41205
  28867341.753 6 116237267.96706  28867342.302 6 114759685.59106
  20680261.494 8 108675962.58208  84682760.62907  20680264.360 7  20680261.405 7
  20680265.052 7  20680261.778 8  81154397.40808

  23951057.006 7 128077062.86107  99615555.14306
  23951065.461 6

  22275311.931 7 117057636.33007  91213798.73005  22275315.661 5  22275311.359 5
  22275316.488 7  22275314.760 8  87413229.25608

  24473122.117 7 130731041.98107 101679730.72806
  24473127.071 6

  24665829.449 6 129619842.23606 101002489.26004  24665830.212 4  24665828.354 4


 25  4 11  3 18 30.0000000  0 28G18E19E29G23R22R21G10R08E33R23G24R01
                                R07E13E26G28G08S33S31E07S35R09E08G32
                                R24G27R16G02
  22632042.471 7 118932486.94007  92674814.42905  22632044.464 5  22632042.248 5
  22632043.929 7  22632047.825 7  88813422.33707

  25789612.755 6 135525486.15106
                  25789618.633 6 101204231.18806  25789617.396 5 110004558.89305
  25789616.225 6 103844285.83206  25789617.253 7 102524276.08307
  23359499.819 8 122755487.65908
                  23359501.763 8  91668349.23008  23359503.319 8  99639404.95908
  23359500.377 8  94059659.87508  23359500.834 8  92863899.62608
  21826258.008 7 114698221.53807  89375514.92106  21826259.355 6  21826257.718 6
  21826259.842 7  21826262.375 8  85651555.76308

  19581716.520 8 104528665.63108  81300157.63507
  19581721.020 7

  23907888.729 6 127936137.26706  99506030.94706
  23907899.204 6

  21100450.782 8 110883969.39708  86403301.42307  21100453.510 7  21100450.456 7
  21100453.421 7  21100450.301 8  82803181.24508

  19700063.394 8 105493368.55008  82050594.40007
  19700068.308 7

  24328213.414 7 127845832.44907
                  24328215.774 8  95469415.57808  24328216.719 7 103771067.37807
  24328213.953 8  97959902.26508  24328214.807 8  96714661.99408
  19492606.537 8 104272416.56508


  23099912.228 6 121391059.77406  94590548.16404  23099916.269 4  23099911.956 4
  23099915.860 6  23099915.947 7  90649299.65407

  22650652.267 6 121080847.26406


  20982178.650 8 112319739.52608  87360052.07607
  20982184.079 7

  26538158.014 6 139459021.06506
                  26538165.684 7 104141540.13607  26538162.807 6 113197297.46006
  26538163.659 7 106858261.18407  26538164.569 7 105499900.73707
  23319011.423 8 122542580.48408
                  23319013.035 8  91509283.88708  23319014.716 8  99466539.75208
  23319011.357 8  93896452.66008  23319012.074 8  92702873.84508
  24158982.624 6 126956545.35006  98927302.91203  24158987.121 3  24158982.464 3
  24158988.312 6  24158992.001 7  94805392.11207

  23179304.711 7 121808129.86407  94915475.45204  23179309.335 4  23179304.112 4
  23179310.148 6  23179307.617 7  90960663.62607

  37105970.038 7 194993203.97307
                  37105967.411 6 145611800.34406

  36827234.227 7 193528477.94807
                  36827246.182 7 144518027.57007

  24357204.912 8 127998483.61308
                  24357208.818 8  95583600.39908  24357207.080 7 103894649.73307
  24357207.078 8  98077045.12608  24357207.865 8  96830323.83608
  36981466.647 7 194338934.97707
                  36981467.176 6 145123233.40306

  23817258.625 7 127182839.69207  98920045.83407
  23817266.470 7

  28875268.795 5 151740900.00905
                  28875272.136 6 113313222.12406  28875271.957 5 123166467.95705
  28875270.336 6 116269193.66606  28875270.775 6 114791205.46806
  20677654.867 8 108662264.88308  84672087.11807  20677657.771 7  20677654.769 7
  20677658.098 7  20677655.124 8  81144168.62908

  23939220.430 7 128013769.50807  99566327.05806
  23939228.723 6

  22279841.875 7 117081441.08607  91232347.89505  22279845.611 5  22279841.281 5
  22279845.904 7  22279844.659 8  87431005.53808

  24473131.395 7 130731094.24607 101679771.41706
  24473136.493 6

  24657028.730 6 129573597.96606 100966454.83604  24657029.589 4  24657027.657 4


 25  4 11  3 18 45.0000000  0 28G18E19E29G23R22R21G10R08E33R23G24R01
                                R07E13E26G28G08S33S31E07S35R09E08G32
                                R24G27R16G02
  22640389.479 7 118976352.79107  92708995.58705  22640391.977 5  22640389.256 5
  22640391.982 7  22640395.299 7  88846179.27407

  25782365.691 6 135487400.75006
                  25782371.083 6 101175790.89006  25782370.011 6 109973645.48506
  25782368.801 6 103815103.61106  25782369.732 7 102495464.82107
  23357016.613 8 122742438.94608
                  23357018.752 8  91658605.09208  23357020.185 8  99628813.49608
  23357017.225 8  94049661.53608  23357017.715 8  92854028.38808
  21830535.914 7 114720702.33807  89393032.42006  21830537.249 6  21830535.619 6
  21830537.531 7  21830540.309 8  85668343.36808

  19587671.061 8 104560450.52008  81324879.20107
  19587674.904 7

  23920200.451 6 128002027.52206  99557278.89306
  23920212.532 6

  21099728.766 8 110880175.48608  86400345.14707  21099731.527 7  21099728.445 7
  21099731.422 8  21099728.300 8  82800348.14508

  19700417.682 8 105495265.95408  82052070.17507
  19700422.564 7

  24322905.925 7 127817940.87907
                  24322908.220 8  95448587.48508  24322908.980 7 103748428.13407
  24322906.250 8  97938530.81708  24322907.197 8  96693562.22408
  19488109.293 8 104248356.92508


  23105040.683 6 121418012.22306  94611550.06604  23105045.154 4  23105040.415 4
  23105045.272 6  23105044.730 7  90669426.48507

  22643250.595 6 121041277.18306


  20989829.506 8 112360701.70808  87391911.56107
  20989837.046 7

  26544824.977 6 139494056.46406
                  26544832.647 7 104167702.90507  26544829.562 6 113225735.26106
  26544830.574 7 106885106.46507  26544831.615 7 105526404.76007
  23320282.484 8 122549258.98308
                  23320283.897 8  91514271.08808  23320285.610 8  99471960.61908
  23320282.250 8  93901569.95908  23320282.954 8  92707926.09608
  24149037.934 6 126904285.60806  98886581.15203  24149041.974 3  24149037.751 3
  24149043.162 6  24149047.043 7  94766367.11207

  23178129.581 7 121801955.11107  94910663.97104  23178134.238 4  23178128.982 4
  23178134.967 6  23178132.664 7  90956052.62607

  37105970.454 7 194993208.30807
                  37105968.421 6 145611803.46906

  36827234.585 7 193528469.09407
                  36827244.492 7 144518020.87007

  24362290.799 8 128025211.01608
                  24362295.031 8  95603559.17608  24362293.141 7 103916344.05507
  24362293.036 8  98097524.56708  24362293.906 8  96850542.94508
  36981477.245 7 194338981.58307
                  36981475.945 6 145123268.34806

  23811181.038 7 127150390.83907  98894807.90107
  23811189.064 7

  28883196.295 5 151782559.65005
                  28883199.690 6 113344331.68606  28883198.949 5 123200282.66405
  28883197.432 6 116301114.78606  28883198.125 6 114822720.80906
  20675069.951 8 108648680.25308  84661501.71007  20675072.708 7  20675069.862 7
  20675073.212 7  20675070.041 8  81134024.28608

  23927388.982 7 127950500.94607  99517118.22106
  23927397.201 6

  22284393.572 7 117105359.99507  91250986.01005  22284397.110 5  22284392.964 5
  22284397.912 7  22284396.317 8  87448867.07108

  24473172.379 6 130731310.40606 101679939.60606
  24473177.694 6

  24648230.930 6 129527368.53706 100930431.96304  24648232.088 4  24648229.862 4


 25  4 11  3 19  0.0000000  0 28G18E19E29G23R22R21G10R08E33R23G24R01
                                R07E13E26G28G08S33S31E07S35R09E08G32
                                R24G27R16G02
  22648751.368 7 119020295.67607  92743236.76805  22648753.920 5  22648751.154 5
  22648754.043 7  22648757.341 7  88878993.74107

  25775126.665 6 135449359.51606
                  25775132.210 6 101147383.55606  25775130.922 6 109942767.90606
  25775129.743 6 103785955.18206  25775130.653 7 102466686.94307
  23354549.071 8 122729472.80708
                  23354551.312 8  91648922.61708  23354552.820 8  99618289.05008
  23354549.816 8  94039726.46908  23354550.305 8  92844219.61708
  21834819.335 7 114743210.85907  89410571.51806  21834820.468 6  21834819.045 6
  21834820.701 7  21834823.425 8  85685151.67108

  19593657.100 8 104592402.77508  81349730.94407
  19593660.943 7

  23932519.806 6 128067943.57306  99608546.88106
  23932530.593 6

  21099012.057 8 110876408.62108  86397409.94307  21099014.681 7  21099011.736 7
  21099014.637 8  21099011.438 8  82797535.24708

  19700790.840 8 105497264.90108  82053624.93608
  19700795.739 8

  24317605.699 7 127790088.00207
                  24317607.987 8  95427788.28808  24317608.840 7 103725820.29807
  24317606.083 8  97917189.03508  24317606.938 8  96672491.73408
  19483643.888 8 104224471.88108


  23110195.503 6 121445100.75106  94632658.00804  23110199.678 4  23110195.222 4
  23110200.695 6  23110199.512 7  90689654.92707

  22635860.608 7 121001779.80507


  20997486.977 8 112401689.70108  87423791.09707
  20997493.341 7

  26551500.706 6 139529137.69906
                  26551508.323 7 104193899.91007  26551505.795 6 113254210.25406
  26551506.313 7 106911986.87007  26551507.390 7 105552943.46307
  23321567.545 8 122556013.48108
                  23321569.236 8  91519315.03608  23321570.944 8  99477443.17108
  23321567.534 8  93906745.48908  23321568.286 8  92713035.83408
  24139091.346 6 126852019.83306  98845854.67903  24139095.627 3  24139091.132 3
  24139097.000 6  24139101.591 7  94727337.61007

  23176979.498 7 121795909.37107  94905953.02404  23176983.417 4  23176978.899 4
  23176984.919 6  23176982.061 7  90951537.96807

  37105970.477 7 194993211.23707
                  37105968.815 6 145611805.70306

  36827232.729 7 193528458.93407
                  36827242.457 7 144518013.45107

  24367387.121 8 128051991.58108
                  24367391.126 8  95623557.66208  24367389.284 7 103938081.53407
  24367389.302 8  98118044.75008  24367390.067 8  96870802.27908
  36981483.733 7 194339025.70807
                  36981484.486 6 145123301.17006

  23805120.085 6 127118029.79506  98869638.29807
  23805130.287 7

  28891121.995 5 151824208.17705
                  28891125.120 5 113375433.01405  28891124.802 5 123234088.39705
  28891122.479 5 116333027.41105  28891123.419 6 114854227.78906
  20672505.270 8 108635203.55808  84651000.41507  20672508.152 7  20672505.172 7
  20672508.450 7  20672505.516 8  81123960.55308

  23915561.518 7 127887252.34407  99467924.93006
  23915570.084 6

  22288966.268 7 117129387.69407  91269708.89805  22288969.465 5  22288965.678 5
  22288969.965 7  22288968.716 8  87466809.83308

  24473242.770 6 130731685.22206 101680231.13106
  24473248.075 6

  24639435.835 6 129481149.07106 100894416.85604  24639436.920 4  24639434.749 4


 25  4 11  3 19 15.0000000  0 28G18E19E29G23R22R21G10R08E33R23G24R01
                                R07E13E26G28G08S33S31E07S35R09E08G32
                                R24G27R16G02
  22657128.508 7 119064317.50207  92777539.46305  22657131.085 5  22657128.289 5
  22657131.076 7  22657134.362 7  88911867.14207

  25767896.194 5 135411364.35105
                  25767901.741 6 101119010.65106  25767900.540 6 109911927.76406
  25767899.131 6 103756842.11106  25767900.321 7 102437943.95407
  23352098.042 8 122716591.30908
                  23352099.978 8  91639303.34808  23352101.482 8  99607833.30808
  23352098.502 8  94029856.25208  23352099.007 8  92834474.87308
  21839108.226 7 114765749.20807  89428133.87106  21839109.483 6  21839107.940 6
  21839109.581 7  21839112.364 8  85701982.25508

  19599674.069 8 104624524.20808  81374714.28307
  19599678.035 7

  23944842.075 6 128133886.92206  99659836.11306
  23944853.570 6

  21098300.579 8 110872670.93208  86394497.47307  21098303.407 7  21098300.244 7
  21098303.395 8  21098300.156 8  82794744.13308

  19701183.320 8 105499366.99708  82055259.91108
  19701188.413 8

  24312313.272 7 127762276.07307
                  24312315.459 8  95407019.66708  24312316.376 7 103703245.70307
  24312313.622 8  97895878.62308  24312314.491 8  96651452.21808
  19479211.917 8 104200763.96608


  23115376.333 6 121472327.23306  94653873.45304  23115380.746 4  23115376.038 4
  23115381.353 6  23115380.524 7  90709986.38607

  22628486.291 7 120962357.39207


  21005149.535 8 112442705.54008  87455692.30807
  21005155.352 7

  26558185.572 6 139564266.75506
                  26558193.342 7 104220132.61607  26558190.347 6 113282724.09006
  26558191.252 7 106938903.91307  26558192.224 7 105579518.33707
  23322867.998 8 122562846.10908
                  23322869.410 8  91524417.33308  23322871.050 8  99482989.13908
  23322867.760 8  93911980.88608  23322868.486 8  92718204.68208
  24129144.622 6 126799750.43506  98805125.40103  24129149.048 3  24129144.372 3
  24129150.822 6  24129154.455 7  94688305.40707

  23175853.728 7 121789994.72507  94901344.21504  23175857.833 4  23175853.143 4
  23175858.454 6  23175856.620 7  90947121.20407

  37105972.708 7 194993214.48507
                  37105969.508 6 145611808.07306

  36827231.428 7 193528448.57607
                  36827240.610 7 144518005.51307

  24372493.739 7 128078827.21007
                  24372497.714 8  95643597.25608  24372495.930 7 103959863.70707
  24372495.914 8  98138607.11608  24372496.718 8  96891103.26108
  36981493.204 7 194339070.52607
                  36981492.785 6 145123334.69206

  23799077.572 6 127085759.39306  98844539.15507
  23799085.822 7

  28899045.249 5 151865847.57205
                  28899048.664 6 113406527.46906  28899048.425 5 123267886.67205
  28899046.355 5 116364933.02305  28899047.139 6 114885727.82006
  20669961.599 8 108621836.82408  84640584.79807  20669964.555 7  20669961.506 7
  20669965.207 7  20669961.890 8  81113978.92208

  23903737.921 7 127824026.28107  99418749.18406
  23903745.970 6

  22293559.371 7 117153525.93207  91288517.91805  22293562.832 5  22293558.799 5
  22293563.306 7  22293561.992 8  87484835.15008

  24473342.442 7 130732220.99507 101680647.84206
  24473349.264 6

  24630643.236 6 129434941.82206 100858411.27504  24630644.163 4  24630642.168 4


 25  4 11  3 19 30.0000000  0 28G18E19E29G23R22R21G10R08E33R23G24R01
                                R07E13E26G28G08S33S31E07S35R09E08G32
                                R24G27R16G02
  22665520.060 7 119108416.77307  92811902.50205  22665522.831 5  22665519.819 5
  22665522.756 7  22665526.255 7  88944798.39107

  25760674.049 6 135373414.28206
                  25760679.890 6 101090671.39306  25760678.111 6 109881124.19606
  25760677.458 6 103727763.58406  25760678.557 7 102409235.06307
  23349662.553 8 122703793.16108
                  23349664.606 8  91629746.31208  23349666.005 8  99597445.21508
  23349663.063 8  94020049.90508  23349663.564 8  92824793.18208
  21843402.397 7 114788316.14407  89445718.49206  21843403.846 6  21843402.111 6
  21843404.238 7  21843406.764 8  85718834.18308

  19605722.028 8 104656813.27908  81399828.00107
  19605727.261 7

  23957170.421 6 128199856.09306  99711145.43406
  23957180.668 6

  21097594.583 8 110868961.15908  86391606.75907  21097597.445 7  21097594.248 7
  21097597.492 8  21097594.236 8  82791973.87108

  19701595.195 8 105501570.68408  82056973.90007
  19701599.820 7

  24307028.361 7 127734504.02007
                  24307030.562 8  95386280.82308  24307031.347 7 103680703.46607
  24307028.717 8  97874598.75908  24307029.623 8  96630442.86408
  19474813.429 8 104177232.21908


  23120583.407 6 121499690.17506  94675195.22904  23120587.682 4  23120583.121 4
  23120588.208 6  23120587.630 7  90730419.75607

  22621124.633 7 120923008.82607


  21012816.054 8 112483747.24508  87487613.63207
  21012822.397 7

  26564879.491 6 139599442.27506
                  26564887.221 7 104246400.03407  26564883.949 6 113311275.64606
  26564884.833 7 106965856.57307  26564885.899 7 105606128.37807
  23324182.731 8 122569755.68808
                  23324184.267 8  91529577.09408  23324185.973 8  99488597.56908
  23324182.575 8  93917275.25208  23324183.331 8  92723431.74508
  24119197.907 6 126747476.54006  98764392.60903  24119202.045 3  24119197.648 3
  24119202.773 6  24119207.427 7  94649269.82607

  23174752.580 7 121784209.86607  94896836.54904  23174757.117 4  23174752.013 4
  23174758.616 6  23174755.756 7  90942801.36307

  37105971.447 7 194993216.65007
                  37105969.808 6 145611809.67006

  36827228.065 7 193528437.58807
                  36827238.383 7 144517997.37307

  24377610.545 7 128105716.43607
                  24377614.557 8  95663676.87508  24377612.767 7 103981689.37407
  24377612.719 8  98159210.54808  24377613.569 8  96911444.78508
  36981499.415 7 194339114.36407
                  36981501.179 6 145123367.50706

  23793050.729 7 127053578.85607  98819509.91707
  23793059.014 7

  28906967.242 5 151907476.37505
                  28906970.051 6 113437614.04706  28906970.390 5 123301676.39805
  28906968.073 5 116396830.54405  28906968.846 6 114917219.87406
  20667438.786 8 108608578.74208  84630253.85307  20667441.580 7  20667438.688 7
  20667442.086 7  20667438.928 8  81104078.44108

  23891918.318 7 127760821.84107  99369590.23806
  23891926.464 6

  22298173.057 7 117177773.16707  91307411.86905  22298176.881 5  22298172.481 5
  22298177.313 7  22298176.039 8  87502941.85408

  24473472.174 6 130732916.56106 101681188.87006
  24473478.412 6

  24621852.056 6 129388745.77906 100822414.42604  24621853.253 4  24621850.974 4


 25  4 11  3 19 45.0000000  0 28G18E19E29G23R22R21G10R08E33R23G24R01
                                R07E13E26G28G08S33S31E07S35R09E08G32
                                R24G27R16G02
  22673926.881 7 119152590.61007  92846323.64505  22673928.641 5  22673926.645 5
  22673928.597 7  22673932.304 7  88977785.30407

  25753460.454 6 135335506.48206
                  25753466.298 6 101062363.72606  25753464.965 5 109850354.94205
  25753463.836 6 103698717.43006  25753464.855 7 102380558.15207
  23347242.515 8 122691075.56508
                  23347244.476 8  91620249.42708  23347245.969 8  99587122.50708
  23347242.934 8  94010305.27308  23347243.460 8  92815172.42408
  21847701.854 7 114810908.93207  89463323.25906  21847703.159 6  21847701.573 6
  21847703.081 7  21847706.007 8  85735705.41708

  19611802.637 8 104689266.98908  81425069.77007
  19611807.138 7

  23969502.756 6 128265847.63706  99762472.15806
  23969513.658 6

  21096893.642 8 110865276.53708  86388735.64107  21096896.241 7  21096893.312 7
  21096896.104 8  21096893.038 8  82789222.38608

  19702025.272 8 105503872.87908  82058764.52207
  19702029.919 7

  24301750.760 7 127706769.29207
                  24301752.798 8  95365569.84808  24301753.724 7 103658191.53207
  24301750.952 8  97853347.49408  24301751.861 8  96609461.74408
  19470446.691 8 104153874.34008


  23125816.517 6 121527186.60706  94696621.01604  23125820.348 4  23125816.222 4
  23125820.748 6  23125820.079 7  90750952.79307

  22613777.932 6 120883731.17606


  21020487.446 8 112524812.15008  87519553.00007
  21020493.361 7

  26571581.133 6 139634661.45406
                  26571589.059 7 104272700.06207  26571586.562 6 113339862.63506
  26571586.841 7 106992842.67907  26571587.895 7 105632771.44407
  23325511.649 8 122576739.52908
                  23325513.260 8  91534792.31108  23325514.884 8  99494266.28108
  23325511.538 8  93922626.51408  23325512.302 8  92728714.98508
  24109249.514 6 126695195.65206  98723654.37403  24109253.503 3  24109249.237 3
  24109254.539 6  24109258.422 7  94610229.07907

  23173676.075 7 121778551.99307  94892427.83304  23173680.533 4  23173675.512 4
  23173681.623 6  23173679.026 7  90938576.34907

  37105971.094 7 194993215.14707
                  37105969.548 6 145611808.54806

  36827225.293 7 193528423.10307
                  36827235.575 7 144517986.83507

  24382737.028 8 128132656.26908
                  24382741.102 8  95683794.29008  24382739.318 7 104003556.12907
  24382739.220 8  98179852.77008  24382740.056 8  96931824.60408
  36981507.974 7 194339154.62207
                  36981508.856 6 145123397.56406

  23787040.251 6 127021485.57906  98794548.55807
  23787049.296 7

  28914886.354 5 151949091.72305
                  28914889.162 6 113468690.55106  28914889.110 5 123335455.15705
  28914887.075 5 116428717.73805  28914887.969 6 114948701.72206
  20664935.883 8 108595426.49708  84620005.37207  20664938.782 7  20664935.781 7
  20664939.496 8  20664936.059 8  81094256.99008

  23880102.258 7 127697636.63907  99320446.25506
  23880110.429 6

  22302807.207 7 117202126.27707  91326388.33205  22302811.167 5  22302806.631 5
  22302811.782 7  22302810.287 8  87521127.62608

  24473632.177 6 130733769.21306 101681852.08106
  24473638.558 6

  24613062.813 6 129342558.42406 100786424.33604  24613063.841 4  24613061.722 4


 25  4 11  3 20  0.0000000  0 29G18E19E29G23R22R21G10R08R10E33R23G24
                                R01R07E13E26G28G08S33S31E07S35R09E08
                                G32R24G27R16G02
  22682348.086 7 119196846.49607  92880808.72405  22682350.133 5  22682347.854 5
  22682350.941 7  22682353.948 7  89010833.50707

  25746256.872 6 135297648.97806
                  25746262.241 6 101034093.60706  25746260.463 5 109819626.50405
  25746259.816 6 103669709.81606  25746260.727 7 102351919.28507
  23344839.101 8 122678446.23008
                  23344841.196 8  91610818.46408  23344842.664 8  99576871.44708
  23344839.628 8  94000628.28108  23344840.150 8  92805618.44708
  21852007.374 7 114833535.33207  89480954.21406  21852008.724 6  21852007.097 6
  21852009.247 7  21852011.747 8  85752601.74908

  19617914.155 8 104721892.91208  81450445.47407
  19617918.558 7

  23981840.791 6 128331869.27706  99813822.25906
  23981851.069 6

  21096198.776 8 110861624.86008  86385890.19307  21096201.373 7  21096198.441 7
  21096201.539 8  21096198.160 8  82786495.50108

  19702474.574 8 105506281.26208  82060637.73408
  19702479.802 8

  24598930.313 5 131126135.42315


  24296481.552 7 127679079.79807
                  24296483.656 8  95344892.65408  24296484.439 7 103635716.31207
  24296481.800 8  97832130.89608  24296482.698 8  96588514.84908
  19466114.024 8 104130698.45308


  23131075.531 6 121554824.06106  94718156.68404  23131079.718 4  23131075.232 4
  23131079.825 6  23131079.367 7  90771591.15707

  22606445.001 7 120844532.28907


  21028164.411 8 112565907.43508  87551515.97207
  21028170.528 7

  26578292.948 6 139669931.94606
                  26578300.769 7 104299038.37807  26578297.879 6 113368491.24206
  26578298.545 7 107019868.08907  26578299.653 7 105659453.30607
  23326856.343 8 122583805.47108
                  23326857.882 8  91540068.83308  23326859.505 8  99500001.62808
  23326856.124 8  93928040.68508  23326856.914 8  92734060.33108
  24099301.553 6 126642915.95006  98682917.07403  24099305.337 3  24099301.294 3
  24099305.677 6  24099309.773 7  94571189.16607

  23172624.379 7 121773028.84607  94888124.09804  23172629.367 4  23172623.803 4
  23172631.137 6  23172628.059 7  90934451.94407

  37105969.877 7 194993218.17607
                  37105970.121 6 145611810.90306

  36827224.260 7 193528412.29207
                  36827233.590 7 144517978.66507

  24387874.571 8 128159654.26608
                  24387878.622 8  95703955.13508  24387876.809 7 104025470.09007
  24387876.783 8  98200539.55008  24387877.593 8  96952248.41608
  36981516.510 7 194339198.85207
                  36981517.272 6 145123430.59706

  23781048.735 7 126989488.08807  98769661.70307
  23781057.404 7

  28922804.145 5 151990701.21205
                  28922807.284 6 113499762.71706  28922806.601 5 123369229.20305
  28922805.264 6 116460600.47306  28922805.925 6 114980179.17206
  20662454.820 8 108582387.79408  84609845.36807  20662457.563 7  20662454.722 7
  20662457.953 8  20662454.885 8  81084520.32508

  23868291.069 7 127634479.28407  99271323.93606
  23868298.919 6

  22307463.329 7 117226592.71707  91345453.09905  22307466.998 5  22307462.757 5
  22307467.124 7  22307466.153 8  87539398.03508

  24473823.272 7 130734786.57807 101682643.40606
  24473828.423 6

  24604277.246 6 129296387.80906 100750447.29804  24604277.943 4  24604276.142 4


 25  4 11  3 20 15.0000000  0 28G18E19E29G23R22R21G10R08R10E33R23G24
                                R01R07E13E26G28G08S33S31E07S35R09G32
                                R24G27R16G02
  22690785.105 7 119241184.31707  92915357.65205  22690787.418 5  22690784.886 5
  22690788.054 7  22690791.124 7  89043942.89307

  25739061.461 6 135259841.84706
                  25739067.591 6 101005861.11006  25739066.512 6 109788938.99506
  25739065.199 6 103640740.81406  25739066.172 7 102323318.53507
  23342452.722 8 122665905.18108
                  23342454.681 8  91601453.42108  23342456.168 8  99566692.05008
  23342453.106 8  93991018.93308  23342453.650 8  92796131.25108
  21856319.467 7 114856195.42607  89498611.43106  21856320.745 6  21856319.190 6
  21856320.929 7  21856323.788 8  85769523.24908

  19624059.157 8 104754690.86208  81475954.98607
  19624063.180 7

  23994183.221 6 128397920.53406  99865195.42706
  23994194.427 6

  21095510.189 8 110858006.20708  86383070.48007  21095512.748 7  21095509.863 7
  21095512.686 8  21095509.508 8  82783793.28008

  19702944.270 8 105508795.87508  82062593.55007
  19702949.406 7

  24590186.073 5 131079522.65505


  24291220.947 7 127651435.78507
                  24291223.125 8  95324249.42608  24291224.016 7 103613278.00507
  24291221.256 8  97810949.14208  24291222.178 8  96567602.35708
  19461816.005 8 104107705.03608


  23136361.240 6 121582602.34806  94739802.10804  23136365.543 4  23136360.963 4
  23136365.905 6  23136365.478 7  90792334.66707

  22599126.400 7 120805412.26207


  21035846.657 8 112607033.23408  87583502.70007
  21035852.920 7

  26585014.615 6 139705253.66806
                  26585022.505 7 104325414.98607  26585019.246 6 113397161.48606
  26585020.351 7 107046932.78407  26585021.172 7 105686173.96207
  23328216.618 8 122590953.59508
                  23328218.086 8  91545406.72508  23328219.846 8  99505803.68508
  23328216.359 8  93933517.82908  23328217.160 8  92739467.84908
  24089352.400 6 126590637.73506  98642180.93203  24089356.920 3  24089352.164 3
  24089357.090 6  24089361.287 7  94532150.37907

  23171599.701 7 121767640.41307  94883925.33104  23171603.948 4  23171599.102 4
  23171604.801 6  23171602.575 7  90930428.13407

  37105972.560 7 194993224.55207
                  37105971.408 6 145611815.60806

  36827223.200 7 193528405.83207
                  36827232.405 7 144517973.77907

  24393023.228 7 128186710.26307
                  24393027.225 8  95724159.29708  24393025.324 7 104047431.13407
  24393025.332 8  98221270.77308  24393026.174 8  96972716.10808
  36981526.169 7 194339247.25707
                  36981526.546 6 145123466.74206

  23775073.677 6 126957586.75606  98744849.63006
  23775082.834 6

  20659995.136 8 108569462.61208  84599773.82307  20659997.956 7  20659995.052 7
  20659998.316 7  20659995.310 8  81074868.43408

  23856485.245 7 127571349.93007  99222223.38206
  23856494.203 6

  22312140.784 7 117251172.25807  91364605.98405  22312144.427 5  22312140.194 5
  22312145.205 7  22312143.463 8  87557752.88408

  24474043.975 6 130735969.15006 101683563.24906
  24474049.837 6

  24595494.163 6 129250234.07606 100714483.40404  24595495.090 4  24595493.072 4


 25  4 11  3 20 30.0000000  0 28G18E19E29G23R22R21G10R08R10E33R23G24
                                R01R07E13E26G28G08S33S31E07S35R09G32
                                R24G27R16G02
  22699235.693 7 119285591.67807  92949960.76305  22699237.833 5  22699235.479 5
  22699238.544 6  22699241.645 7  89077104.19707

  25731873.984 6 135222073.05706
                  25731880.361 6 100977657.23806  25731879.074 5 109758282.56005
  25731877.956 6 103611801.15806  25731878.969 7 102294746.76907
  23340080.598 8 122653440.17108
                  23340082.652 8  91592145.15308  23340084.019 8  99556574.35808
  23340081.042 8  93981467.83508  23340081.615 8  92786701.56908
  21860635.800 7 114878877.01607  89516285.39406  21860636.943 6  21860635.528 6
  21860636.913 7  21860639.938 8  85786460.80108

  19630232.807 8 104787648.13208  81501588.40607
  19630237.143 7

  24006529.075 6 128463988.43406  99916581.53606
  24006541.360 6

  21094825.657 8 110854408.31508  86380266.94507  21094828.071 7  21094825.336 7
  21094828.103 8  21094824.826 8  82781106.56408

  19703431.469 8 105511403.71408  82064621.88607
  19703436.104 7

  24581436.091 5 131032881.54005


  24285966.673 7 127623825.20907
                  24285969.036 8  95303631.16208  24285969.998 7 103590866.83807
  24285967.124 8  97789793.01308  24285968.044 8  96546715.16108
  19457549.312 8 104084881.96408


  23141671.818 6 121610509.02506  94761547.56604  23141676.006 4  23141671.546 4
  23141676.635 6  23141675.766 7  90813174.07007

  22591820.512 7 120766358.81707


  21043532.989 8 112648176.50808  87615503.02807
  21043538.687 7

  26591743.312 6 139740614.37306
                  26591751.430 7 104351820.68907  26591748.573 6 113425863.33706
  26591749.205 7 107074027.32507  26591750.119 7 105712924.08407
  23329590.132 8 122598171.76408
                  23329591.666 8  91550796.92508  23329593.416 8  99511662.59108
  23329589.949 8  93939048.63708  23329590.726 8  92744928.35208
  24079401.977 6 126538349.16006  98601436.70903  24079406.589 3  24079401.749 3
  24079406.855 6  24079410.827 7  94493103.86407

  23170597.495 7 121762374.44407  94879821.99304  23170601.902 4  23170596.896 4
  23170602.583 6  23170600.523 7  90926495.76607

  37105972.699 7 194993223.09407
                  37105971.060 6 145611814.50106

  36827220.464 7 193528391.51107
                  36827229.552 7 144517963.24007

  24398180.313 7 128213811.83407
                  24398184.417 8  95744397.48408  24398182.778 7 104069429.16507
  24398182.526 8  98242036.91008  24398183.435 8  96993218.27108
  36981532.375 7 194339287.58207
                  36981534.134 6 145123496.93306

  23769116.092 6 126925769.71406  98720103.11906
  23769124.546 6

  20657554.542 8 108556638.69408  84589781.18507  20657557.667 7  20657554.453 7
  20657558.151 7  20657554.941 8  81065292.16008

  23844683.299 7 127508236.78807  99173135.45306
  23844691.604 6

  22316837.200 7 117275852.28507  91383837.18505  22316840.754 5  22316836.606 5
  22316841.103 7  22316839.833 8  87576182.79108

  24474294.099 6 130737304.32706 101684601.72505
  24474299.645 5

  24586712.633 6 129204085.27106 100678523.34704  24586713.342 4  24586711.569 4


 25  4 11  3 20 45.0000000  0 28G18E19E29G23R22R21G10R08R10E33R23G24
                                R01R07E13E26G28G08S33S31E07S35R09G32
                                R24G27R16G02
  22707701.387 7 119330078.36607  92984625.69105  22707703.459 5  22707701.177 5
  22707704.405 7  22707707.105 7  89110324.74307

  25724696.902 6 135184352.58006
                  25724702.307 6 100949489.44806  25724701.110 6 109727665.37406
  25724699.850 6 103582898.55706  25724700.888 7 102266211.57507
  23337724.917 8 122641061.17308
                  23337726.990 8  91582901.13208  23337728.367 8  99546526.49208
  23337725.325 8  93971982.65808  23337725.955 8  92777336.96808
  21864957.653 7 114901590.15707  89533983.94206  21864959.052 6  21864957.376 6
  21864959.306 7  21864962.116 8  85803421.89908

  19636438.509 8 104820774.68708  81527353.50507
  19636442.423 7

  24018881.449 6 128530082.88106  99967988.28606
  24018892.623 6

  21094146.564 8 110850841.27808  86377487.45207  21094149.256 7  21094146.247 7
  21094149.285 8  21094146.028 8  82778442.88708

  19703937.241 8 105514114.79308  82066730.51208
  19703942.391 8

  24572682.733 5 130986222.78805


  24280721.047 7 127596258.30807
                  24280723.224 8  95283045.51008  24280724.105 7 103568491.12107
  24280721.316 8  97768670.33708  24280722.214 8  96525860.99708
  19453316.498 8 104062239.74208


  23147008.883 6 121638553.90006  94783400.71304  23147012.968 4  23147008.588 4
  23147013.011 6  23147012.560 7  90834116.66707

  22584529.546 7 120727382.12707


  21051224.057 8 112689347.22508  87647524.67807
  21051230.002 7

  26598481.826 6 139776023.98606
                  26598489.580 7 104378262.90307  26598486.483 6 113454604.87806
  26598487.368 7 107101159.34707  26598488.363 7 105739711.19807
  23330978.863 8 122605470.07208
                  23330980.486 8  91556246.96708  23330982.091 8  99517586.55408
  23330978.759 8  93944640.85808  23330979.549 8  92750449.48508
  24069451.693 6 126486060.59306  98560692.48503  24069456.518 3  24069451.506 3
  24069456.620 6  24069460.491 7  94454057.34807

  23169620.844 7 121757240.90507  94875821.84904  23169625.152 4  23169620.250 4
  23169625.785 6  23169623.744 7  90922662.29907

  37105970.553 7 194993223.98107
                  37105970.975 6 145611815.30506

  36827218.304 7 193528378.63207
                  36827227.124 7 144517953.50507

  24403348.229 7 128240968.79807
                  24403352.252 8  95764677.03608  24403350.389 7 104091472.15107
  24403350.318 8  98262845.50008  24403351.236 8  97013762.34108
  36981540.773 7 194339329.32407
                  36981541.991 6 145123528.02306

  23763175.358 6 126894047.68306  98695430.48407
  23763183.973 7

  20655135.444 8 108543926.01108  84579875.22507  20655138.515 7  20655135.355 7
  20655139.053 7  20655135.789 8  81055798.95208

  23832885.968 7 127445150.33307  99124068.27006
  23832894.051 6

  22321554.818 7 117300642.57907  91403154.29605  22321558.195 5  22321554.233 5
  22321558.485 7  22321557.259 8  87594695.01108

  24474575.182 6 130738802.61006 101685767.10706
  24474580.277 6

  24577933.785 6 129157951.70106 100642575.17304  24577934.581 4  24577932.726 4


 25  4 11  3 21  0.0000000  0 28G18E19E29G23R22R21G10R08R10E33R23G24
                                R01R07E13E26G28G08S33S31E07S35R09G32
                                R24G27R16G02
  22716181.835 7 119374643.63307  93019351.84305  22716184.294 5  22716181.634 5
  22716184.530 7  22716187.766 7  89143603.96907

  25717527.642 5 135146680.08105
                  25717533.536 6 100921357.48206  25717532.038 5 109697087.10805
  25717530.827 6 103554032.70206  25717531.983 7 102237712.66507
  23335385.637 8 122628767.62208
                  23335387.612 8  91573720.90408  23335388.915 8  99536547.97408
  23335385.949 8  93962562.94708  23335386.550 8  92768037.00008
  21869285.486 7 114924334.30807  89551706.65606  21869287.194 6  21869285.205 6
  21869287.772 7  21869290.137 8  85820406.16608

  19642675.632 8 104854069.71408  81553249.61707
  19642679.804 7

  24031236.108 6 128596202.88306 100019414.92406
  24031249.430 6

  21093473.642 8 110847304.53208  86374731.56507  21093476.219 7  21093473.329 7
  21093476.293 8  21093472.988 8  82775801.83108

  19704462.521 8 105516928.24808  82068918.77508
  19704467.705 8

  24563925.835 5 130939546.18205


  24275483.335 7 127568734.66607
                  24275485.643 8  95262492.16808  24275486.499 7 103546150.52007
  24275483.801 8  97747580.81608  24275484.620 8  96505039.56608
  19449117.626 8 104039778.25608


  23152371.036 6 121666736.18606  94805360.92804  23152375.705 4  23152370.764 4
  23152376.105 6  23152375.450 7  90855161.86507

  22577252.454 7 120688481.59907


  21058920.352 8 112730544.56108  87679567.04407
  21058925.691 7

  26605229.314 6 139811481.84506
                  26605237.028 7 104404741.16107  26605233.775 6 113483385.59706
  26605234.760 7 107128328.34507  26605235.719 7 105766534.82707
  23332382.820 8 122612848.04608
                  23332384.434 8  91561756.49708  23332386.094 8  99523575.16608
  23332382.731 8  93950294.11608  23332383.522 8  92756030.87908
  24059501.468 6 126433771.81206  98519948.10103  24059505.530 3  24059501.290 3
  24059506.261 6  24059510.311 7  94415010.67207

  23168669.058 7 121752239.19907  94871924.42904  23168673.398 4  23168668.441 4
  23168674.497 6  23168671.915 7  90918927.28207

  37105973.803 7 194993225.58107
                  37105971.444 6 145611816.53606

  36827216.144 7 193528367.17807
                  36827224.982 7 144517944.99107

  24408526.476 7 128268180.37707
                  24408530.479 8  95784997.38108  24408528.556 7 104113559.48707
  24408528.458 8  98283695.94408  24408529.419 8  97034347.73708
  36981548.370 7 194339372.65307
                  36981550.268 6 145123560.44506

  23757252.792 6 126862420.52106  98670831.66107
  23757261.628 7

  20652737.441 8 108531323.90708  84570055.43207  20652740.379 7  20652737.352 7
  20652741.035 8  20652737.687 8  81046388.32908

  23821092.796 7 127382090.51807  99075021.81706
  23821101.611 6

  22326292.557 7 117325542.21107  91422556.60905  22326296.474 5  22326291.967 5
  22326297.012 7  22326295.629 8  87613288.89508

  24474885.191 6 130740463.23906 101687058.75006
  24474890.433 6

  24569157.687 6 129111833.02406 100606638.59704  24569158.150 4  24569156.632 4


 25  4 11  3 21 15.0000000  0 28G18E19E29G23R22R21G10R08R10E33R23G24
                                R01R07E13E26G28G08S33S31E07S35R09G32
                                R24G27R16G02
  22724677.012 7 119419287.23107  93054139.03105  22724679.670 5  22724676.807 5
  22724679.966 7  22724683.110 7  89176941.68507

  25710368.138 6 135109055.57606
                  25710373.641 6 100893261.34006  25710372.917 6 109666547.79106
  25710371.044 6 103525203.62006  25710372.173 7 102209250.05307
  23333062.522 8 122616559.37708
                  23333064.473 8  91564604.38208  23333065.804 8  99526638.70908
  23333062.788 8  93953208.60508  23333063.381 8  92758801.56708
  21873619.736 7 114947109.40807  89569453.48306  21873621.158 6  21873619.459 6
  21873621.236 7  21873624.135 8  85837413.55008

  19648944.796 8 104887532.81508  81579276.46707
  19648948.697 7

  24043597.983 6 128662347.92006 100070861.03106
  24043610.019 6

  21092806.246 8 110843797.98808  86371999.21007  21092808.928 7  21092805.938 7
  21092809.046 8  21092805.651 8  82773183.33008

  19705007.589 8 105519843.83708  82071186.45007
  19705012.014 7

  24555166.467 5 130892852.10305


  24270254.218 7 127541254.41007
                  24270256.301 8  95241971.22008  24270257.271 7 103523845.13507
  24270254.410 8  97726524.53808  24270255.277 8  96484250.95208
  19444952.670 8 104017497.72508


  23157760.117 6 121695055.57906  94827427.98704  23157764.542 4  23157759.840 4
  23157764.692 6  23157764.446 7  90876309.46607

  22569989.592 7 120649657.22207


  21066621.492 8 112771767.94908  87711629.67607
  21066627.217 7

  26611985.691 6 139846987.79006
                  26611993.757 7 104431255.31507  26611990.024 6 113512205.34506
  26611991.178 7 107155534.18107  26611992.283 7 105793394.82407
  23333802.055 8 122620305.65608
                  23333803.556 8  91567325.50408  23333805.192 8  99529628.43108
  23333801.873 8  93956008.39608  23333802.650 8  92761672.52208
  24049550.587 6 126381483.07806  98479203.74303  24049554.931 3  24049550.400 3
  24049555.604 6  24049559.989 7  94375964.02707

  23167742.056 7 121747369.19807  94868129.64304  23167746.588 4  23167741.430 4
  23167747.295 6  23167745.248 7  90915290.61807

  37105973.911 7 194993228.36407
                  37105972.088 6 145611818.49306

  36827215.460 7 193528357.00607
                  36827222.849 7 144517937.50707

  24413714.830 7 128295446.30107
                  24413718.988 8  95805358.29708  24413717.371 7 104135690.91207
  24413717.048 8  98304588.00908  24413717.941 8  97054974.22708
  36981557.166 7 194339417.26307
                  36981558.809 6 145123593.79906

  23751347.950 7 126830888.49507  98646306.81906
  23751356.416 6

  20650360.202 8 108518832.30108  84560321.73307  20650363.282 7  20650360.095 7
  20650363.783 7  20650360.604 8  81037060.21008

  23809305.655 7 127319057.81807  99025996.44606
  23809313.968 6

  22331051.828 7 117350550.79807  91442043.81705  22331055.429 5  22331051.252 5
  22331055.714 7  22331054.653 8  87631964.14208

  24475226.821 6 130742286.14306 101688476.57106
  24475231.697 6

  24560384.142 6 129065729.40906 100570713.74504  24560384.576 4  24560383.083 4


 25  4 11  3 21 30.0000000  0 28G18E19E29G23R22R21G10R08R10E33R23G24
                                R01R07E13E26G28G08S33S31E07S35R09G32
                                R24G27R16G02
  22733187.261 7 119464007.95007  93088986.32505  22733189.660 5  22733187.042 5
  22733190.211 7  22733193.105 7  89210336.99207

  25703217.556 6 135071478.14106
                  25703222.677 6 100865200.36306  25703221.251 5 109636046.71205
  25703220.394 6 103496410.60106  25703221.369 7 102180823.05507
  23330755.364 8 122604435.42008
                  23330757.386 8  91555550.80008  23330758.565 8  99516797.84608
  23330755.650 8  93943918.83708  23330756.252 8  92749629.89308
  21877959.626 7 114969914.50907  89587223.68706  21877960.809 6  21877959.349 6
  21877961.172 7  21877963.739 8  85854443.32108

  19655244.740 8 104921162.76408  81605433.08307
  19655249.059 7

  24055962.196 6 128728516.53706 100122325.45306
  24055975.281 6

  21092144.496 8 110840320.70708  86369289.65607  21092147.199 7  21092144.188 7
  21092147.431 8  21092143.900 8  82770586.68108

  19705570.705 8 105522860.19708  82073532.52407
  19705575.324 7

  24546403.679 5 130846140.14805


  24265032.646 7 127513816.73607
                  24265035.071 8  95221482.08008  24265035.989 8 103501574.30908
  24265033.158 8  97705500.88708  24265034.049 8  96463494.55808
  19440820.898 8 103995397.53208


  23163175.238 6 121723510.83006  94849600.90904  23163179.064 4  23163174.961 4
  23163180.152 6  23163179.291 7  90897558.51907

  22562740.056 7 120610907.94407


  21074326.256 8 112813016.17608  87743711.62607
  21074332.928 7

  26618751.137 6 139882540.74006
                  26618759.163 7 104457804.57507  26618756.006 6 113541063.22806
  26618756.865 7 107182776.02607  26618757.812 7 105820290.37507
  23335236.057 8 122627841.97908
                  23335237.674 8  91572953.28108  23335239.292 8  99535745.58008
  23335235.967 8  93961782.98808  23335236.762 8  92767373.70708
  24039600.291 6 126329193.73206  98438458.91803  24039604.570 3  24039600.095 3
  24039605.063 6  24039609.413 7  94336916.91607

  23166840.650 7 121742629.88307  94864436.68804  23166844.764 4  23166840.016 4
  23166845.969 6  23166843.313 7  90911751.53607

  37105974.429 7 194993232.01707
                  37105972.580 6 145611821.48206

  36827211.051 7 193528347.12007
                  36827221.074 7 144517930.15107

  24418913.561 7 128322765.35507
                  24418917.575 8  95825758.89408  24418915.813 7 104157865.46907
  24418915.697 8  98325520.79108  24418916.592 8  97075640.91608
  36981564.956 7 194339462.63107
                  36981567.283 6 145123627.71406

  23745459.810 6 126799451.33406  98621855.78807
  23745469.108 7

  20648003.900 8 108506450.10908  84550673.29607  20648007.023 7  20648003.784 7
  20648007.424 7  20648004.283 8  81027813.79108

  23797523.004 7 127256051.51307  98976991.62006
  23797531.301 6

  22335831.192 7 117375667.02007  91461614.90605  22335834.807 5  22335830.602 5
  22335835.039 7  22335834.039 8  87650719.77608

  24475598.507 6 130744270.46406 101690019.97906
  24475603.530 6

  24551613.603 6 129019639.98806 100534799.96904  24551614.303 4  24551612.526 4


 25  4 11  3 21 45.0000000  0 28G18E19E29G23R22R21G10R08R10E33R23G24
                                R01R07E13E26G28G08S33S31E07S35R09G32
                                R24G27R16G02
  22741711.643 7 119508804.45507  93123892.66205  22741714.317 5  22741711.420 5
  22741714.789 7  22741717.713 7  89243788.89807

  25696075.266 6 135033946.82306
                  25696080.684 6 100837173.81806  25696079.008 5 109605583.00805
  25696078.149 6 103467652.90006  25696079.338 7 102152430.93207
  23328463.991 8 122592394.57108
                  23328466.016 8  91546559.28608  23328467.200 8  99507024.45608
  23328464.278 8  93934692.75808  23328464.939 8  92740521.09608
  21882304.678 7 114992748.47107  89605016.38306  21882305.970 6  21882304.401 6
  21882306.306 7  21882308.926 8  85871494.65208

  19661575.438 8 104954958.11108  81631718.36307
  19661580.010 7

  24068331.664 6 128794707.29606 100173807.11906
  24068343.763 6

  21091488.129 8 110836871.58808  86366602.05007  21091490.809 7  21091487.821 7
  21091490.946 8  21091487.578 8  82768011.06008

  19706152.770 8 105525975.97808  82075955.92908
  19706157.657 8

  24537636.332 5 130799409.42105


  24259819.497 7 127486420.71907
                  24259821.751 8  95201024.03308  24259822.721 7 103479337.30407
  24259819.879 8  97684509.15808  24259820.736 8  96442769.66908
  19436722.805 8 103973476.75408


  23168615.732 6 121752100.58906  94871878.64304  23168619.965 4  23168615.451 4
  23168620.295 7  23168619.984 7  90918908.01507

  22555504.642 7 120572232.63107


  21082037.017 8 112854287.84508  87775811.79607
  21082042.487 7

  26625525.604 6 139918139.47406
                  26625533.314 7 104484388.02407  26625529.971 6 113569958.30006
  26625531.017 7 107210052.95607  26625532.034 7 105847220.56507
  23336684.964 8 122635455.96208
                  23336686.552 8  91578639.05708  23336688.247 8  99541925.76708
  23336684.859 8  93967617.08608  23336685.648 8  92773133.64308
  24029650.037 6 126276902.96206  98397712.98203  24029653.667 3  24029649.796 3
  24029654.975 6  24029658.485 7  94297868.76907

  23165962.976 7 121738020.04907  94860844.62404  23165967.454 4  23165962.337 4
  23165968.499 6  23165965.734 7  90908309.15407

  37105975.561 7 194993234.33607
                  37105973.099 6 145611823.31006

  36827210.814 7 193528336.12707
                  36827218.909 7 144517921.93907

  24424122.055 7 128350136.20207
                  24424126.173 8  95846198.16408  24424124.549 7 104180082.07207
  24424124.165 8  98346493.26308  24424125.093 8  97096346.78608
  36981574.614 7 194339505.98407
                  36981575.569 6 145123660.04606

  23739590.424 7 126768108.19107  98597477.85107
  23739599.322 7

  20645668.329 8 108494176.13208  84541109.18107  20645671.330 7  20645668.213 7
  20645671.657 7  20645668.617 8  81018648.18808

  23785745.381 7 127193070.77307  98928006.66406
  23785753.809 6

  22340630.790 7 117400889.45107  91481268.75105  22340634.517 5  22340630.200 5
  22340634.846 7  22340633.619 8  87669554.70208

  24475998.687 6 130746415.25906 101691688.19006
  24476004.982 6

  24542845.557 6 128973563.92306 100498896.60004  24542846.528 4  24542844.475 4


