     2.11           OBSERVATION DATA    M                   RINEX VERSION / TYPE
ssrcrin-13.7.0x                         11-APR-25 02:00     PGM / RUN BY / DATE 
(000000000000583293750002) Septentrio proprietary           COMMENT             
SEPT                                                        MARKER NAME         
Unknown                                                     MARKER NUMBER       
Unknown             Unknown                                 OBSERVER / AGENCY   
3083514             SEPT POLARX5E       5.4.0               REC # / TYPE / VERS 
Unknown             Unknown                                 ANT # / TYPE        
 -1908062.7325 -5042726.5803  3400841.8860                  APPROX POSITION XYZ 
        0.0000        0.0000        0.0000                  ANTENNA: DELTA H/E/N
     1     1                                                WAVELENGTH FACT L1/2
    14    C1    L1    L2    P2    P1    C2    C5    L5    C6# / TYPES OF OBSERV 
          L6    C7    L7    C8    L8                        # / TYPES OF OBSERV 
For GPS, L2 corresponds to the L2P carrier phase.           COMMENT             
For GLONASS, L2 corresponds to the L2CA carrier phase.      COMMENT             
  2025     4    11     2     0    0.0000000     GPS         TIME OF FIRST OBS   
                                                            END OF HEADER       
 25  4 11  2  0  0.0000000  0 27G18G15E29G23R22R21G10R08R06E33R23G24
                                R07E13E26G08S33S31E07S35G16E08G32E31
                                G27G29E23
  20868306.211 7 109664007.43707  85452626.59606  20868307.662 6  20868305.983 6
  20868308.056 7  20868310.786 8  81892159.86208

  22570020.116 7 118606745.08307  92421091.81205  22570022.681 5  22570019.821 5
  22570022.911 6

  24900402.272 7 130852947.81407
                  24900407.538 7  97715142.77407  24900407.789 7 106212010.83507
  24900405.301 7 100264197.16307  24900406.296 8  98989565.04008
  20754327.345 8 109065186.15108  84986136.32506  20754328.681 6  20754327.113 6
  20754329.023 7  20754331.652 8  81445067.87708

  19336482.007 8 103219585.84708  80281983.92407
  19336486.608 7

  20671016.163 8 110615045.49708  86034086.00707
  20671023.466 7

  21610019.656 8 113561753.91108  88489882.40006  21610023.087 6  21610019.308 6
  21610022.931 7  21610020.253 8  84802820.48808

  20714181.331 8 110923892.46308  86274327.06507
  20714188.542 7

  21621722.596 6 115377727.94006


  26199367.668 7 137678781.41707
                  26199372.292 7 102812192.55907  26199372.464 7 111752350.35807
  26199370.159 7 105494231.06307  26199371.195 8 104153214.88308
  22089857.717 7 118165921.51907


  22866727.600 7 120165645.93007  93635674.69405  22866733.193 5  22866727.377 5
  22866733.476 7  22866733.486 7  89734211.34507

  19184176.462 8 102694895.33808  79874061.95007
  19184182.448 7

  24928559.821 7 131000542.94507
                  24928565.784 7  97825149.80007  24928563.229 7 106331653.63407
  24928563.636 7 100377094.79807  24928564.664 8  99101122.37408
  23538376.532 8 123695341.31308
                  23538378.784 8  92370108.84908  23538380.344 8 100402220.15508
  23538376.907 8  94779734.26308  23538377.712 8  93574927.13008
  24696369.745 6 129780319.14806 101127560.31905  24696377.508 5  24696369.039 5
  24696379.163 6  24696376.465 7  96913909.26207

  37105612.648 7 194991312.86007
                  37105611.501 6 145610391.62606

  36827752.506 7 193531175.90807
                  36827763.115 7 144520060.37107

  23456292.717 8 123264149.40708
                  23456297.326 8  92048218.31508  23456295.521 8 100051844.12608
  23456295.592 8  94449435.99408  23456296.385 8  93248828.22808
  36978626.652 7 194324007.47107
                  36978630.334 6 145112088.16506

  25242816.601 6 132651878.65306 103365114.16002  25242824.155 2  25242815.712 2


  26466424.821 7 139082316.24507
                  26466429.607 7 103860377.25807  26466428.727 7 112891639.04707
  26466427.494 7 106569753.63107  26466428.439 8 105215063.01708
  22480202.586 7 118134668.99407  92053169.36805  22480208.004 5  22480202.475 5
  22480208.885 6  22480206.570 7  88217703.22007

  28348082.023 6 148970203.76106
                  28348091.484 6 111244027.79406  28348087.411 6 120917400.37606
  28348089.616 6 114146033.46506  28348090.747 6 112695037.20106
  22093312.109 7 116101215.88207  90468534.87105  22093316.123 5  22093311.582 5
  22093316.571 7  22093315.008 7  86699017.91507

  24543545.423 6 128977236.14406 100501801.72903  24543551.832 3  24543545.169 3
  24543552.761 6

  27894347.699 6 146585775.28706
                  27894360.055 6 109463431.88406  27894356.253 6 118981982.64106
  27894357.994 6 112318993.64306  27894358.730 7 110891216.83407
 25  4 11  2  0 15.0000000  0 27G18G15E29G23R22R21G10R08R06E33R23G24
                                R07E13E26G08S33S31E07S35G16E08G32E31
                                G27G29E23
  20871053.086 7 109678443.64307  85463875.58506  20871054.776 6  20871052.863 6
  20871055.214 8  20871057.918 8  81902940.14108

  22579446.270 7 118656278.78907  92459689.48105  22579448.436 5  22579445.980 5
  22579449.024 6

  24893343.480 7 130815853.37307
                  24893348.737 7  97687442.42407  24893348.545 7 106181901.74507
  24893346.368 7 100235774.18907  24893347.429 8  98961503.37908
  20756800.816 8 109078184.45308  84996264.87506  20756802.163 6  20756800.575 6
  20756802.363 7  20756805.137 8  81454774.40708

  19332467.510 8 103198153.86308  80265314.59707
  19332471.696 7

  20678294.292 8 110653988.87808  86064375.28507
  20678301.306 7

  21607365.440 8 113547805.09308  88479013.20406  21607368.723 6  21607365.092 6
  21607368.814 7  21607365.803 8  84792404.17708

  20707139.216 8 110886180.27108  86244995.40007
  20707145.755 7

  21631603.413 6 115430456.48106


  26193233.981 7 137646549.29107
                  26193238.663 7 102788123.15007  26193239.137 7 111726187.93207
  26193236.547 7 105469533.74707  26193237.573 7 104128831.52007
  22079323.330 7 118109568.99707


  22863272.435 7 120147490.00507  93621527.25805  22863278.257 5  22863272.207 5
  22863278.681 6  22863278.360 7  89720653.39707

  19186811.273 8 102708998.52208  79885031.09908
  19186817.200 8

  24932150.225 7 131019411.09807
                  24932156.269 7  97839239.65707  24932153.694 7 106346968.69607
  24932154.140 7 100391552.21307  24932155.166 8  99115396.00908
  23536138.747 8 123683581.92108
                  23536141.073 8  92361327.49608  23536142.558 8 100392675.20608
  23536139.192 8  94770723.82808  23536139.965 8  93566031.23608
  24688449.653 6 129738696.42706 101095127.09505  24688456.758 5  24688448.938 5
  24688458.107 6  24688455.843 7  96882827.43107

  37105614.088 7 194991320.63707
                  37105613.017 6 145610397.44806

  36827751.518 7 193531168.51507
                  36827761.545 7 144520055.05007

  23456485.332 8 123265162.02408
                  23456489.996 8  92048974.50608  23456488.252 8 100052666.06308
  23456488.219 8  94450211.90408  23456489.058 8  93249594.27808
  36978637.827 7 194324056.11907
                  36978639.626 6 145112124.48506

  25249013.900 6 132684444.20906 103390489.82902  25249021.194 2  25249013.015 2


  26473238.770 7 139118123.43407
                  26473243.425 7 103887116.38207  26473242.810 7 112920703.31507
  26473241.333 7 106597190.30207  26473242.329 8 105242150.91408
  22471695.270 7 118089966.05007  92018335.97205  22471701.328 5  22471695.150 5
  22471702.101 7  22471699.797 7  88184321.23007

  28350815.944 6 148984568.29206
                  28350825.532 6 111254754.51906  28350821.614 6 120929059.88106
  28350823.283 6 114157040.03506  28350824.312 6 112705903.85306
  22089689.424 7 116082176.50307  90453699.00906  22089693.009 6  22089688.897 6
  22089693.137 7  22089691.734 7  86684800.20807

  24554470.165 6 129034644.62406 100546535.55503  24554476.230 3  24554469.915 3
  24554476.696 6

  27900387.604 6 146617514.96206
                  27900399.807 6 109487133.49606  27900396.046 6 119007745.28806
  27900397.128 6 112343313.57906  27900398.609 6 110915227.60606
 25  4 11  2  0 30.0000000  0 27G18G15E29G23R22R21G10R08R06E33R23G24
                                R07E13E26G08S33S31E07S35G16E08G32E31
                                G27G29E23
  20873818.628 7 109692976.64307  85475199.99706  20873820.323 6  20873818.392 6
  20873820.448 7  20873823.433 8  81913792.69908

  22588884.471 7 118705875.22107  92498336.03005  22588886.377 5  22588884.176 5
  22588886.863 6

  24886296.194 7 130778819.95307
                  24886301.436 7  97659787.65007  24886301.530 7 106151842.18807
  24886299.013 7 100207397.98207  24886300.169 8  98933487.88908
  20759281.664 8 109091222.76408  85006424.60506  20759283.266 6  20759281.423 6
  20759283.585 7  20759286.252 8  81464510.81308

  19328478.313 8 103176860.33708  80248752.98107
  19328482.973 7

  20685596.130 8 110693065.91308  86094768.52707
  20685603.548 7

  21604719.195 8 113533900.17608  88468178.21006  21604722.658 6  21604718.842 6
  21604722.720 7  21604719.764 8  84782020.64508

  20700120.545 8 110848597.79508  86215764.64107
  20700127.199 7

  21641492.535 6 115483224.79206


  26187099.456 7 137614312.45507
                  26187104.252 7 102764050.23307  26187104.497 7 111700021.71007
  26187102.050 7 105444832.82907  26187103.044 7 104104444.60107
  22068794.695 7 118053247.12107


  22859841.217 7 120129458.42207  93607476.71205  22859846.707 5  22859840.998 5
  22859847.535 6  22859847.141 7  89707188.28907

  19189473.193 8 102723248.63208  79896114.52408
  19189479.346 8

  24935750.327 7 131038329.68807
                  24935756.394 7  97853367.15907  24935753.913 7 106362324.68707
  24935754.224 7 100406048.26207  24935755.256 8  99129707.78508
  23533908.523 8 123671861.42708
                  23533910.735 8  92352575.18308  23533912.191 8 100383161.81708
  23533908.867 8  94761743.19208  23533909.622 8  93557164.76208
  24680543.752 6 129697153.87206 101062756.33604  24680551.551 4  24680543.042 4
  24680552.325 6  24680550.400 7  96851805.47407

  37105616.968 7 194991330.96807
                  37105614.886 6 145610405.48906

  36827751.473 7 193531163.15207
                  36827760.669 7 144520050.97007

  23456697.807 8 123266278.10408
                  23456702.377 8  92049807.94908  23456700.582 8 100053571.98208
  23456700.593 8  94451067.09108  23456701.420 8  93250438.59308
  36978646.641 7 194324106.43907
                  36978649.307 6 145112162.00706

  25255216.018 6 132717037.70406 103415887.26102  25255223.370 2  25255215.178 2


  26480062.666 7 139153983.34007
                  26480067.388 7 103913894.87307  26480066.580 7 112949810.36807
  26480065.445 7 106624667.35807  26480066.257 8 105269278.69108
  22463203.264 7 118045338.59607  91983561.39905  22463208.987 5  22463203.126 5
  22463209.557 7  22463207.324 7  88150995.60907

  28353564.067 6 148999010.73306
                  28353573.669 6 111265539.44506  28353569.506 6 120940782.62406
  28353571.442 6 114168106.31606  28353572.723 6 112716829.45306
  22086092.582 7 116063277.81707  90438972.77405  22086096.572 5  22086092.046 5
  22086097.346 7  22086095.498 7  86670687.57707

  24565395.255 6 129092057.31306 100591272.66503  24565401.437 3  24565395.027 3
  24565402.110 5

  27906429.795 6 146649265.99806
                  27906442.067 6 109510843.57906  27906438.855 6 119033517.16406
  27906439.419 6 112367642.17706  27906440.643 6 110939246.95106
 25  4 11  2  0 45.0000000  0 27G18G15E29G23R22R21G10R08R06E33R23G24
                                R07E13E26G08S33S31E07S35G16E08G32E31
                                G27G29E23
  20876602.419 7 109707605.28307  85486598.93106  20876604.069 6  20876602.187 6
  20876604.471 7  20876607.171 8  81924716.68308

  22598333.437 7 118755532.82007  92537030.23905  22598336.356 5  22598333.129 5
  22598336.322 6

  24879260.114 7 130741846.51407
                  24879265.524 7  97632177.65707  24879265.763 7 106121831.31007
  24879263.234 7 100179067.73307  24879264.313 8  98905517.76808
  20761770.400 8 109104299.76408  85016614.47606  20761771.741 6  20761770.159 6
  20761771.825 7  20761774.743 8  81474276.10608

  19324515.121 8 103155704.39608  80232298.37407
  19324519.246 7

  20692923.392 8 110732275.27108  86125264.67607
  20692931.090 7

  21602081.335 8 113520037.88508  88457376.43606  21602084.808 6  21602080.987 6
  21602084.681 7  21602081.909 8  84771668.94108

  20693126.702 8 110811143.83908  86186633.82107
  20693132.991 7

  21651389.561 6 115536031.21006


  26180963.933 7 137582069.78107
                  26180968.556 7 102739972.94407  26180968.926 7 111673850.73107
  26180966.435 7 105420127.44007  26180967.472 7 104080053.26207
  22058270.851 7 117996955.01707


  22856433.429 7 120111550.24407  93593522.33105  22856438.914 5  22856433.206 5
  22856439.763 6  22856439.257 7  89693815.34207

  19192162.185 8 102737644.21208  79907311.09908
  19192168.262 8

  24939359.952 7 131057297.52507
                  24939365.843 7  97867531.45107  24939363.127 7 106377720.65107
  24939363.686 7 100420582.05407  24939364.723 8  99144056.82708
  23531685.247 8 123660178.73408
                  23531687.564 8  92343851.10208  23531689.097 8 100373679.12208
  23531685.672 8  94752791.53208  23531686.466 8  93548326.89108
  24672653.944 6 129655690.58106 101030447.33003  24672661.113 3  24672653.247 3
  24672661.851 6  24672660.005 7  96820842.70307

  37105617.737 7 194991341.56407
                  37105616.970 6 145610413.20506

  36827749.537 7 193531158.63407
                  36827759.770 7 144520047.58007

  23456929.542 8 123267496.36308
                  23456934.191 8  92050717.70908  23456932.453 8 100054560.83608
  23456932.458 8  94452000.58008  23456933.220 8  93251360.21708
  36978655.499 7 194324158.48507
                  36978659.096 6 145112201.03606

  25261423.755 5 132749657.57305 103441305.24002  25261431.033 2  25261422.892 2


  26486896.334 7 139189894.46507
                  26486901.049 7 103940711.61507  26486900.078 7 112978959.00707
  26486898.868 7 106652183.66807  26486899.921 8 105296445.21508
  22454725.029 7 118000785.64907  91948844.88505  22454730.693 5  22454724.900 5
  22454731.201 7  22454729.218 7  88117725.62707

  28356326.441 6 149013529.72406
                  28356336.579 6 111276381.51406  28356332.191 6 120952567.51206
  28356334.628 6 114179231.22006  28356335.587 6 112727812.94306
  22082523.062 7 116044518.76007  90424355.33906  22082526.706 6  22082522.530 6
  22082527.374 7  22082525.689 7  86656679.20407

  24576321.134 6 129149472.55606 100636011.74503  24576327.967 3  24576320.875 3
  24576327.853 5

  27912473.404 6 146681026.86706
                  27912485.942 6 109534561.01906  27912483.078 6 119059297.01106
  27912483.665 6 112391978.34106  27912484.676 6 110963273.75306
 25  4 11  2  1  0.0000000  0 27G18G15E29G23R22R21G10R08R06E33R23G24
                                R07E13E26G08S33S31E07S35G16E08G32E31
                                G27G29E23
  20879403.746 7 109722327.52107  85498070.80106  20879405.675 6  20879403.518 6
  20879405.901 8  20879408.709 8  81935710.55208

  22607794.155 7 118805249.17007  92575770.23405  22607797.052 5  22607793.847 5
  22607796.957 6

  24872235.447 7 130704931.05907
                  24872240.713 7  97604610.97507  24872240.708 7 106091867.51207
  24872238.466 7 100150781.91107  24872239.488 8  98877591.51508
  20764265.784 8 109117413.20008  85026832.74306  20764267.175 6  20764265.543 6
  20764267.492 7  20764270.113 8  81484068.61508

  19320576.942 8 103134684.25208  80215949.38007
  19320581.889 7

  20700275.470 8 110771614.56308  86155861.87507
  20700282.446 7

  21599451.285 8 113506215.97608  88446606.12506  21599454.604 6  21599450.941 6
  21599454.492 7  21599451.675 8  84761347.39908

  20686155.733 8 110773816.31008  86157601.35307
  20686162.151 7

  21661290.792 6 115588873.07306


  26174826.977 7 137549819.22907
                  26174831.566 7 102715889.76807  26174831.988 7 111647673.35007
  26174829.295 7 105395416.00307  26174830.354 8 104055655.95808
  22047753.090 7 117940691.47107


  22853048.425 7 120093763.61107  93579662.65005  22853054.187 5  22853048.206 5
  22853054.963 7  22853054.566 7  89680533.16307

  19194878.446 8 102752183.03608  79918619.07208
  19194884.317 8

  24942978.124 7 131076312.53507
                  24942984.301 7  97881730.96007  24942981.796 7 106393154.90107
  24942982.083 7 100435151.99007  24942983.174 8  99158441.54908
  23529469.046 8 123648531.86008
                  23529471.271 8  92335153.77708  23529472.742 8 100364225.49908
  23529469.371 8  94743867.31308  23529470.137 8  93539516.11908
  24664778.585 6 129614304.71006 100998198.67503  24664785.777 3  24664777.937 3
  24664786.703 6  24664784.621 7  96789937.75407

  37105619.025 7 194991351.14507
                  37105618.736 6 145610420.22206

  36827749.300 7 193531152.88307
                  36827758.607 7 144520043.39107

  23457180.342 8 123268814.59308
                  23457185.018 8  92051702.11508  23457183.306 8 100055630.84008
  23457183.258 8  94453010.66508  23457184.047 8  93252357.46308
  36978665.851 7 194324209.10707
                  36978668.629 6 145112238.94606

  25267635.533 5 132782301.34105 103466741.82602  25267643.020 2  25267634.706 2


  26493739.475 7 139225854.47907
                  26493743.940 7 103967564.86907  26493743.227 7 113008147.33307
  26493741.826 7 106679737.44207  26493742.880 8 105323648.72708
  22446260.792 7 117956305.30907  91914184.93805  22446266.309 5  22446260.649 5
  22446266.994 7  22446264.709 7  88084509.85807

  28359103.733 6 149028122.91906
                  28359113.674 6 111287279.00206  28359109.275 6 120964412.61706
  28359111.775 6 114190412.99906  28359112.769 6 112738852.57106
  22078979.542 7 116025897.28707  90409845.10906  22078983.169 6  22078979.015 6
  22078983.780 7  22078982.144 7  86642773.56507

  24587246.367 6 129206887.87206 100680750.89503  24587253.720 3  24587246.086 3
  24587254.086 5

  27918519.064 6 146712795.19506
                  27918531.481 6 109558284.00606  27918528.038 6 119085082.92706
  27918529.215 6 112416320.22106  27918530.122 7 110987306.18707
 25  4 11  2  1 15.0000000  0 27G18G15E29G23R22R21G10R08R06E33R23G24
                                R07E13E26G08S33S31E07S35G16E08G32E31
                                G27G29E23
  20882223.911 7 109737146.35307  85509617.93706  20882225.632 6  20882223.679 6
  20882225.886 8  20882228.669 8  81946776.56008

  22617266.684 7 118855026.55907  92614557.78305  22617269.268 5  22617266.389 5
  22617269.611 6

  24865222.292 7 130668076.71307
                  24865227.590 7  97577089.93107  24865227.564 7 106061953.30407
  24865225.243 7 100122542.91507  24865226.311 8  98849711.49508
  20766768.668 8 109130565.96008  85037081.65006  20766770.063 6  20766768.423 6
  20766770.182 7  20766773.029 8  81493890.48208

  19316665.683 8 103113803.29508  80199708.65107
  19316670.027 7

  20707650.863 8 110811086.60008  86186562.33007
  20707658.969 7

  21596829.129 8 113492437.30808  88435869.51306  21596832.610 6  21596828.781 6
  21596832.806 7  21596829.709 8  84751058.14508

  20679209.329 8 110736618.57208  86128669.82907
  20679215.647 7

  21671200.319 6 115641753.17206


  26168689.002 7 137517563.80307
                  26168693.424 7 102691802.97007  26168693.788 7 111621492.02907
  26168691.328 7 105370700.84307  26168692.305 8 104031254.98008
  22037241.474 7 117884459.33607


  22849687.753 7 120076101.78707  93565900.22605  22849693.374 5  22849687.539 5
  22849693.823 7  22849693.531 7  89667344.18007

  19197621.775 8 102766867.64408  79930040.43108
  19197627.348 8

  24946606.179 7 131095377.74607
                  24946612.308 7  97895967.96107  24946609.622 7 106408629.90807
  24946610.081 7 100449760.39307  24946611.157 8  99172864.25208
  23527259.808 8 123636923.90808
                  23527262.275 8  92326485.50508  23527263.828 8 100354803.46108
  23527260.383 8  94734972.91508  23527261.196 8  93530734.78408
  24656917.787 6 129572999.51306 100966012.86603  24656925.822 3  24656917.126 3
  24656927.109 6  24656924.280 7  96759093.03807

  37105622.365 7 194991362.63607
                  37105620.967 6 145610429.14706

  36827748.030 7 193531149.08307
                  36827757.852 7 144520040.54407

  23457450.816 8 123270235.69208
                  23457455.405 8  92052763.33808  23457453.676 8 100056784.33408
  23457453.665 8  94454099.57108  23457454.446 8  93253432.52708
  36978676.046 7 194324261.03507
                  36978678.444 6 145112277.55806

  25273853.221 5 132814971.58805 103492199.08602  25273860.087 2  25273852.421 2


  26500592.193 7 139261866.12207
                  26500596.755 7 103994456.66407  26500595.690 7 113037377.54707
  26500594.595 7 106707330.76007  26500595.646 8 105350891.28508
  22437811.282 7 117911900.79407  91879584.07805  22437816.445 5  22437811.135 5
  22437817.228 7  22437814.783 7  88051350.70707

  28361895.772 6 149042793.09906
                  28361905.023 6 111298233.98006  28361901.507 6 120976320.23006
  28361902.826 6 114201653.77206  28361904.206 6 112749950.44606
  22075462.838 7 116007416.54507  90395444.54706  22075466.502 6  22075462.315 6
  22075467.185 7  22075465.460 7  86628973.02707

  24598173.066 6 129264305.88006 100725492.13603  24598179.932 3  24598172.767 3
  24598180.607 6

  27924565.938 6 146744573.67706
                  27924578.529 6 109582014.57706  27924575.073 6 119110877.06106
  27924576.299 6 112440669.87806  27924577.441 6 111011346.29906
 25  4 11  2  1 30.0000000  0 27G18G15E29G23R22R21G10R08R06E33R23G24
                                R07E13E26G08S33S31E07S35G16E08G32E31
                                G27G29E23
  20885061.505 7 109752059.47207  85521238.54706  20885063.489 6  20885061.264 6
  20885063.669 8  20885066.553 8  81957912.97908

  22626750.031 7 118904862.50507  92653390.95905  22626752.971 5  22626749.732 5
  22626753.522 6

  24858220.306 7 130631281.26507
                  24858225.586 7  97549612.85907  24858225.743 7 106032086.91607
  24858223.297 7 100094349.05307  24858224.336 8  98821876.02808
  20769278.631 8 109143755.52808  85047359.23606  20769279.962 6  20769278.386 6
  20769280.390 7  20769282.913 8  81503739.83208

  19312779.553 8 103093059.44108  80183574.53907
  19312783.514 7

  20715052.041 8 110850688.70108  86217363.95307
  20715059.381 7

  21594214.658 8 113478699.42408  88425164.67906  21594218.352 6  21594214.310 6
  21594218.387 7  21594215.436 8  84740799.34508

  20672286.723 8 110699548.13308  86099837.31007
  20672293.363 7

  21681116.939 6 115694668.65806


  26162549.582 7 137485301.24907
                  26162553.927 7 102667710.83107  26162554.534 7 111595304.90607
  26162551.879 7 105345980.20707  26162552.892 7 104006848.59107
  22026734.702 7 117828256.78707


  22846350.313 7 120058562.65307  93552233.41405  22846355.844 5  22846350.099 5
  22846356.077 7  22846355.775 7  89654246.83107

  19200391.638 8 102781695.47208  79941573.19107
  19200397.559 7

  24950243.354 7 131114490.82307
                  24950249.396 7  97910240.70207  24950246.627 7 106424143.75707
  24950247.138 7 100464405.46607  24950248.290 8  99187323.15908
  23525057.872 8 123625352.58708
                  23525060.265 8  92317844.59708  23525061.859 8 100345411.16608
  23525058.470 8  94726106.58808  23525059.239 8  93521981.16608
  24649072.781 6 129531772.87606 100933888.29503  24649080.848 3  24649072.138 3
  24649081.337 6  24649078.992 7  96728306.98607

  37105625.849 7 194991373.11207
                  37105622.953 6 145610436.80906

  36827748.603 7 193531143.95507
                  36827757.016 7 144520036.45407

  23457740.165 8 123271757.20308
                  23457744.902 8  92053899.54408  23457743.198 8 100058019.33608
  23457743.230 8  94455265.41008  23457743.956 8  93254583.55008
  36978687.748 7 194324312.56207
                  36978688.228 6 145112316.20206

  25280074.321 5 132847665.48405 103517674.77302  25280082.023 2  25280073.566 2


  26507454.329 7 139297926.79007
                  26507458.997 7 104021385.06507  26507458.018 7 113066647.55207
  26507456.739 7 106734961.64607  26507457.758 8 105378170.93008
  22429374.936 7 117867569.92207  91845040.59805  22429380.488 5  22429374.771 5
  22429380.883 7  22429378.833 7  88018246.55707

  28364701.314 6 149057537.71706
                  28364711.120 6 111309244.55406  28364706.704 6 120988288.24906
  28364709.196 6 114212951.56506  28364710.171 6 112761104.63506
  22071972.236 7 115989074.26507  90381151.87306  22071976.168 6  22071971.704 6
  22071976.471 7  22071974.957 7  86615275.88707

  24609099.258 6 129321723.91706 100770233.40703  24609106.266 3  24609098.963 3
  24609106.824 5

  27930614.782 6 146776359.64506
                  27930627.465 6 109605750.76806  27930623.949 6 119136677.29806
  27930625.302 6 112465025.26506  27930626.165 7 111035392.09207
 25  4 11  2  1 45.0000000  0 27G18G15E29G23R22R21G10R08R06E33R23G24
                                R07E13E26G08S33S31E07S35G16E08G32E31
                                G27G29E23
  20887916.555 7 109767063.27707  85532929.82306  20887918.647 6  20887916.305 6
  20887918.898 8  20887921.713 8  81969117.11208

  22636244.632 7 118954753.03907  92692266.67605  22636246.655 5  22636244.346 5
  22636247.071 6

  24851228.939 7 130594541.18907
                  24851234.186 7  97522177.13907  24851234.070 7 106002265.45307
  24851231.717 7 100066197.60407  24851232.896 8  98794082.44408
  20771794.671 8 109156978.13408  85057662.56506  20771796.153 6  20771794.421 6
  20771796.234 7  20771799.112 8  81513613.85508

  19308918.604 8 103072449.33108  80167544.46607
  19308923.054 7

  20722476.296 8 110890417.01008  86248263.73607
  20722483.627 7

  21591607.697 8 113464998.54308  88414488.67606  21591611.181 6  21591607.362 6
  21591611.378 7  21591608.237 8  84730568.17908

  20665386.925 8 110662601.47208  86071101.04507
  20665393.737 7

  21691039.105 6 115747615.29006


  26156408.167 7 137453027.92807
                  26156412.538 7 102643610.66507  26156413.086 7 111569109.06707
  26156410.522 7 105321251.34107  26156411.450 7 103982434.07507
  22016233.572 7 117772080.60207


  22843035.195 7 120041142.85107  93538659.57905  22843040.865 5  22843034.976 5
  22843041.210 7  22843040.895 7  89641238.57007

  19203187.387 8 102796661.93808  79953213.78607
  19203193.569 7

  24953888.749 7 131133648.12507
                  24953894.913 7  97924546.47507  24953892.243 7 106439693.51607
  24953892.730 7 100479084.42907  24953893.803 8  99201815.52708
  23522862.416 8 123613814.38608
                  23522864.579 8  92309228.42208  23522866.200 8 100336045.75508
  23522862.790 8  94717265.63808  23522863.579 8  93513252.60408
  24641241.543 6 129490621.40506 100901822.28003  24641249.503 3  24641240.917 3
  24641250.100 6  24641248.443 7  96697577.07207

  37105626.095 7 194991379.60607
                  37105624.169 6 145610441.51406

  36827745.048 7 193531135.18707
                  36827755.182 7 144520030.04607

  23458048.190 8 123273375.37708
                  23458052.837 8  92055107.93708  23458051.166 8 100059332.80408
  23458051.127 8  94456505.32908  23458051.854 8  93255807.70608
  36978694.532 7 194324359.43507
                  36978697.292 6 145112351.07506

  25286299.504 6 132880379.08706 103543165.79202  25286307.389 2  25286298.785 2


  26514325.020 7 139334032.54907
                  26514329.706 7 104048347.14907  26514328.887 7 113095954.15807
  26514327.512 7 106762627.08207  26514328.500 8 105405484.69008
  22420952.569 7 117823309.26807  91810551.84205  22420957.891 5  22420952.400 5
  22420958.397 7  22420956.297 7  87985194.84707

  28367520.334 6 149072352.91006
                  28367530.454 6 111320307.83306  28367526.469 6 121000313.54606
  28367528.565 6 114224303.46706  28367529.565 6 112772312.22606
  22068507.654 7 115970866.89907  90366964.33306  22068511.349 6  22068507.136 6
  22068511.604 7  22068510.174 7  86601679.49807

  24620024.427 6 129379137.95806 100814971.56603  24620031.612 3  24620024.123 3
  24620032.535 6

  27936664.186 6 146808149.15506
                  27936676.935 6 109629489.60406  27936673.968 6 119162480.42506
  27936674.570 6 112489383.40306  27936675.680 6 111059440.57506
 25  4 11  2  2  0.0000000  0 27G18G15E29G23R22R21G10R08R06E33R23G24
                                R07E13E26G08S33S31E07S35G16E08G32E31
                                G27G29E23
  20890790.954 7 109782166.78507  85544698.78306  20890792.738 6  20890790.700 6
  20890792.966 8  20890795.826 8  81980395.70708

  22645749.967 7 119004706.59807  92731191.50405  22645752.605 5  22645749.686 5
  22645753.319 6

  24844249.543 7 130557865.60107
                  24844254.980 7  97494789.57807  24844255.087 7 105972496.34607
  24844252.700 7 100038095.59007  24844253.744 8  98766337.65508
  20774319.035 8 109170242.62608  85067998.53406  20774320.290 6  20774318.785 6
  20774320.445 7  20774323.274 8  81523519.16408

  19305084.474 8 103051982.45308  80151625.79407
  19305088.498 7

  20729925.784 8 110930280.39808  86279268.56407
  20729933.190 7

  21589009.140 8 113451343.52908  88403848.42106  21589012.739 6  21589008.796 6
  21589012.722 7  21589009.792 8  84720371.26908

  20658513.198 8 110625788.02208  86042468.39307
  20658518.519 7

  21700968.750 6 115800601.70606


  26150266.560 7 137420752.90207
                  26150270.875 7 102619509.22207  26150271.323 7 111542911.82907
  26150268.706 7 105296521.16307  26150269.685 7 103958018.26507
  22005738.126 7 117715940.14407


  22839744.619 7 120023851.59007  93525185.90705  22839750.274 5  22839744.409 5
  22839750.474 7  22839750.587 7  89628326.31307

  19206011.147 8 102811775.97608  79964969.14908
  19206016.723 8

  24957544.345 7 131152858.67307
                  24957550.523 7  97938892.00707  24957547.959 7 106455286.48807
  24957548.427 7 100493804.19607  24957549.475 8  99216348.17608
  23520674.740 8 123602318.39508
                  23520676.990 8  92300643.76508  23520678.619 8 100326714.60108
  23520675.178 8  94708457.03308  23520675.958 8  93504555.97308
  24633427.071 6 129449554.38406 100869822.05903  24633433.751 3  24633426.450 3
  24633435.323 6  24633433.562 7  96666910.20507

  37105628.625 7 194991390.34607
                  37105626.181 6 145610449.70406

  36827743.778 7 193531130.97707
                  36827754.391 7 144520026.91207

  23458376.090 7 123275099.13007
                  23458380.925 8  92056395.16908  23458379.121 8 100060731.96108
  23458379.079 8  94457826.13608  23458379.852 8  93257111.72608
  36978705.000 7 194324411.12507
                  36978707.058 6 145112389.70506

  25292530.617 5 132913120.94205 103568678.82102  25292538.238 2  25292529.862 2


  26521205.842 7 139370192.16307
                  26521210.550 7 104075349.44307  26521209.628 7 113125304.49207
  26521208.507 7 106790333.79807  26521209.460 8 105432839.19508
  22412545.145 7 117779128.02707  91776124.96105  22412550.338 5  22412544.976 5
  22412551.368 7  22412548.753 7  87952202.43507

  28370355.007 6 149087247.48606
                  28370364.837 6 111331430.34206  28370360.201 6 121012403.27006
  28370362.656 6 114235716.13606  28370363.841 6 112783579.81506
  22065070.242 7 115952803.55307  90352889.00606  22065073.932 6  22065069.724 6
  22065074.625 7  22065072.930 7  86588190.64607

  24630951.851 6 129436556.65706 100859713.33203  24630958.460 3  24630951.579 3
  24630958.676 6

  27942715.446 6 146839950.95606
                  27942728.606 6 109653237.60406  27942725.059 6 119188293.49106
  27942726.615 6 112513750.91506  27942727.409 7 111083498.33007
 25  4 11  2  2 15.0000000  0 27G18G15E29G23R22R21G10R08R06E33R23G24
                                R07E13E26G08S33S31E07S35G16E08G32E31
                                G27G29E23
  20893683.170 7 109797365.62007  85556542.02506  20893684.992 6  20893682.916 6
  20893685.076 7  20893688.026 8  81991745.47308

  22655266.760 7 119054718.48307  92770161.77405  22655269.644 5  22655266.474 5
  22655269.645 6

  24837281.898 7 130521250.21307
                  24837287.273 7  97467446.95907  24837287.062 7 105942776.09807
  24837284.974 7 100010039.67407  24837286.013 8  98738638.38908
  20776850.193 8 109183544.47208  85078363.60406  20776851.573 6  20776849.943 6
  20776851.586 7  20776854.504 8  81533452.35308

  19301276.362 8 103031654.60208  80135815.24907
  19301280.882 7

  20737399.240 8 110970274.36408  86310374.97407
  20737406.805 7

  21586418.364 8 113437729.82708  88393240.34806  21586422.145 6  21586418.020 6
  21586421.897 7  21586419.129 8  84710205.20208

  20651661.357 8 110589103.01408  86013935.65607
  20651668.468 7

  21710905.267 6 115853622.95006


  26144123.718 7 137388471.82907
                  26144127.923 7 102595403.26207  26144128.242 7 111516709.67307
  26144125.891 7 105271786.34207  26144126.767 7 103933597.87207
  21995249.232 7 117659831.37607


  22836478.499 7 120006684.66007  93511809.11605  22836483.396 5  22836478.298 5
  22836484.000 7  22836483.788 7  89615506.90007

  19208861.146 8 102827032.70508  79976835.50308
  19208866.702 8

  24961209.309 7 131172118.05607
                  24961215.476 7  97953274.00107  24961212.748 7 106470919.09607
  24961213.376 7 100508561.36907  24961214.413 8  99230917.75908
  23518494.419 8 123590860.29208
                  23518496.582 8  92292087.39808  23518498.196 8 100317414.20008
  23518494.733 8  94699677.45408  23518495.537 8  93495887.99908
  24625627.549 6 129408567.60006 100837884.35003  24625633.953 3  24625626.937 3
  24625636.326 6  24625634.030 7  96636303.26907

  37105627.874 7 194991401.68907
                  37105628.337 6 145610458.19106

  36827743.805 7 193531126.20407
                  36827753.559 7 144520023.32907

  23458723.342 7 123276923.91207
                  23458728.125 8  92057757.84808  23458726.238 8 100062213.12608
  23458726.292 8  94459224.35908  23458727.074 8  93258492.17608
  36978713.281 7 194324462.79707
                  36978716.896 6 145112428.21906

  25298765.473 5 132945886.21805 103594210.13802  25298773.253 2  25298764.754 2


  26528096.144 7 139406400.93507
                  26528100.972 7 104102388.45707  26528100.188 7 113154694.72107
  26528098.724 7 106818078.17307  26528099.774 8 105460230.88908
  22404151.668 7 117735021.97807  91741756.67205  22404157.210 5  22404151.503 5
  22404157.818 7  22404155.720 7  87919266.16707

  28373203.111 6 149102216.75106
                  28373213.282 6 111342608.67806  28373209.188 5 121024553.63305
  28373211.431 6 114247186.08106  28373212.403 6 112794903.95706
  22061659.247 7 115934879.88207  90338922.52406  22061663.081 6  22061658.729 6
  22061663.559 7  22061662.100 7  86574806.10907

  24641877.231 6 129493975.24506 100904455.02803  24641884.990 3  24641876.995 3
  24641885.034 6

  27948769.185 6 146871760.28906
                  27948781.846 6 109676991.21106  27948778.450 6 119214112.70006
  27948779.295 6 112538124.20606  27948780.582 6 111107561.77706
 25  4 11  2  2 30.0000000  0 27G18G15E29G23R22R21G10R08R06E33R23G24
                                R07E13E26G08S33S31E07S35G16E08G32E31
                                G27G29E23
  20896593.351 7 109812659.02107  85568458.95706  20896595.249 6  20896593.097 6
  20896595.563 8  20896598.297 8  82003165.85708

  22664794.905 7 119104787.50707  92809176.57605  22664797.447 5  22664794.624 5
  22664797.606 6

  24830325.628 7 130484694.35407
                  24830330.814 7  97440148.80207  24830330.986 7 105913104.16707
  24830328.661 7  99982029.38807  24830329.639 8  98710984.16708
  20779388.349 8 109196882.76108  85088757.07506  20779389.738 6  20779388.095 6
  20779389.785 7  20779392.693 8  81543412.75908

  19297494.182 8 103011465.31908  80120112.47507
  19297498.377 7

  20744896.956 8 111010397.63108  86341581.94607
  20744904.885 7

  21583835.474 8 113424156.55708  88382663.78206  21583839.219 6  21583835.130 6
  21583839.144 7  21583836.235 8  84700069.32908

  20644834.507 8 110552545.91208  85985502.41507
  20644841.376 7

  21720847.859 6 115906677.94706


  26137979.333 7 137356183.96007
                  26137983.735 7 102571292.23007  26137984.171 7 111490502.01507
  26137981.543 7 105247046.31807  26137982.543 7 103909172.34607
  21984765.939 7 117603753.97407


  22833235.059 6 119989641.59206  93498528.84305  22833240.200 5  22833234.845 5
  22833240.549 6  22833240.441 7  89602779.96707

  19211737.519 8 102842431.06608  79988812.01408
  19211743.698 8

  24964883.771 7 131191425.51007
                  24964889.585 7  97967691.89707  24964887.164 7 106486590.71907
  24964887.481 7 100523355.38107  24964888.517 8  99245523.71308
  23516321.036 8 123579439.40708
                  23516323.247 8  92283558.82508  23516324.884 8 100308144.00208
  23516321.439 8  94690926.39208  23516322.208 8  93487248.18208
  24617843.104 6 129367660.57506 100806008.82003  24617850.048 3  24617842.492 3
  24617850.993 6  24617849.484 7  96605755.88807

  37105631.156 7 194991411.77907
                  37105630.335 6 145610465.50506

  36827743.787 7 193531121.33707
                  36827752.539 7 144520019.75107

  23459089.679 7 123278848.84607
                  23459094.440 8  92059195.30908  23459092.698 8 100063775.58308
  23459092.609 8  94460699.31708  23459093.358 8  93259948.38608
  36978723.615 7 194324514.50607
                  36978726.555 6 145112467.06806

  25305004.822 6 132978673.59006 103619758.62802  25305012.540 2  25305004.103 2


  26534995.793 7 139442657.84507
                  26535000.394 7 104129463.40207  26534999.508 7 113184124.01907
  26534998.206 7 106845859.41907  26534999.251 8 105487658.98308
  22395772.872 7 117690990.54507  91707446.52005  22395778.310 5  22395772.703 5
  22395778.880 7  22395776.593 7  87886385.62307

  28376066.126 6 149117259.75706
                  28376076.215 6 111353842.06906  28376071.641 6 121036763.85406
  28376073.483 6 114258712.52206  28376075.001 6 112806283.86606
  22058275.142 7 115917095.24807  90325064.37706  22058278.747 6  22058274.619 6
  22058279.520 7  22058277.808 7  86561525.38907

  24652803.483 6 129551392.53706 100949195.71503  24652810.510 3  24652803.247 3
  24652811.372 5

  27954823.659 6 146903576.06906
                  27954836.330 6 109700749.66706  27954833.100 6 119239937.11606
  27954833.937 6 112562502.44406  27954834.971 6 111131630.12806
 25  4 11  2  2 45.0000000  0 27G18G15E29G23R22R21G10R08R06E33R23G24
                                R07E13E26G08S33S31E07S35G16E08G32E31
                                G27G29E23
  20899521.179 7 109828045.00707  85580448.02706  20899523.085 6  20899520.920 6
  20899523.273 8  20899526.173 8  82014655.38908

  22674333.235 7 119154911.16407  92848233.94505  22674335.843 5  22674332.958 5
  22674336.479 6

  24823380.164 7 130448196.13007
                  24823385.332 7  97412893.68707  24823385.414 7 105883479.02207
  24823383.236 7  99954063.25807  24823384.226 8  98683373.54608
  20781932.990 8 109210255.32208  85099177.25106  20781934.417 6  20781932.731 6
  20781934.660 7  20781937.415 8  81553398.76308

  19293737.797 8 102991412.95608  80104516.19607
  19293741.825 7

  20752419.582 8 111050648.11008  86372887.85207
  20752426.626 7

  21581259.933 8 113410621.53908  88372117.02306  21581263.601 6  21581259.589 6
  21581263.580 7  21581260.608 8  84689962.01508

  20638031.799 8 110516114.87208  85957167.19607
  20638038.148 7

  21730796.077 6 115959764.16206


  26131833.406 7 137323887.32007
                  26131837.833 7 102547174.64107  26131838.328 7 111464287.23707
  26131835.666 7 105222299.57707  26131836.660 8 103884740.18108
  21974288.847 7 117547706.31007


  22830014.617 7 119972720.56307  93485343.66205  22830020.457 5  22830014.412 5
  22830020.818 7  22830020.438 7  89590144.18207

  19214640.266 8 102857968.70908  80000896.85108
  19214646.046 8

  24968566.317 7 131210779.03507
                  24968572.458 7  97982144.19407  24968569.950 7 106502299.74707
  24968570.325 7 100538184.70107  24968571.390 8  99260164.52108
  23514154.377 8 123568053.81008
                  23514156.577 8  92275056.59708  23514158.241 8 100298902.45108
  23514154.809 8  94682202.37208  23514155.590 8  93478635.05808
  24610073.789 6 129326831.47706 100774193.99803  24610080.318 3  24610073.181 3
  24610081.375 6  24610079.898 7  96575266.71607

  37105632.154 7 194991419.41007
                  37105631.681 6 145610471.49406

  36827742.915 7 193531113.76707
                  36827751.167 7 144520014.28807

  23459474.603 7 123280871.80907
                  23459479.353 8  92060705.97108  23459477.619 8 100065417.60208
  23459477.501 8  94462249.38908  23459478.280 8  93261478.75308
  36978732.201 7 194324562.69307
                  36978735.726 6 145112502.99706

  25311247.217 5 133011480.66305 103645322.50502  25311255.685 2  25311246.475 2


  26541903.900 7 139478960.61907
                  26541908.628 7 104156572.60007  26541907.904 7 113213590.53507
  26541906.427 7 106873675.81207  26541907.411 8 105515121.77908
  22387407.758 7 117647031.90207  91673193.09705  22387413.201 5  22387407.589 5
  22387413.726 7  22387411.495 7  87853559.43407

  28378942.095 5 149132374.26005
                  28378952.076 6 111365128.84306  28378948.354 6 121049032.08506
  28378949.813 6 114270293.71706  28378951.301 6 112817717.84706
  22054917.179 7 115899447.67007  90311313.03306  22054920.612 6  22054916.656 6
  22054921.548 7  22054919.613 7  86548347.02207

  24663729.448 6 129608806.24506 100993933.62103  24663735.815 3  24663729.212 3
  24663736.582 5

  27960878.833 6 146935395.99006
                  27960891.528 6 109724511.21506  27960888.490 6 119265764.91506
  27960888.962 6 112586883.86106  27960890.303 6 111155701.61106
 25  4 11  2  3  0.0000000  0 27G18G15E29G23R22R21G10R08R06E33R23G24
                                R07E13E26G08S33S31E07S35G16E08G32E31
                                G27G29E23
  20902467.674 7 109843528.87807  85592513.37506  20902469.540 6  20902467.420 6
  20902469.835 8  20902472.640 8  82026218.01208

  22683882.449 7 119205094.32207  92887337.67705  22683885.435 5  22683882.172 5
  22683885.928 6

  24816446.862 7 130411760.93507
                  24816451.894 7  97385685.63707  24816452.050 7 105853905.03507
  24816449.739 7  99926145.43407  24816450.791 8  98655810.60808
  20784485.281 8 109223667.29008  85109628.13806  20784486.618 6  20784485.027 6
  20784486.939 7  20784489.594 8  81563414.19908

  19290007.791 8 102971503.07508  80089030.73807
  19290012.434 7

  20759966.286 8 111091030.61908  86404296.44607
  20759973.109 7

  21578692.781 8 113397129.93408  88361604.08606  21578696.223 6  21578692.446 6
  21578695.904 7  21578693.264 8  84679887.12208

  20631252.958 8 110479815.12908  85928934.09807
  20631259.309 7

  21740750.965 6 116012886.41206


  26125686.623 7 137291587.24107
                  26125691.251 7 102523054.48207  26125691.800 7 111438069.67007
  26125689.191 7 105197550.19807  26125690.128 8 103860305.41208
  21963817.225 7 117491693.77607


  22826819.185 7 119955927.13107  93472257.90305  22826824.754 5  22826818.980 5
  22826825.168 7  22826824.758 7  89577603.66207

  19217569.815 8 102873650.29908  80013093.64707
  19217575.264 7

  24972259.015 7 131230183.91707
                  24972265.098 7  97996634.84307  24972262.328 7 106518050.45107
  24972262.984 7 100553053.37107  24972264.020 8  99274844.18008
  23511995.512 8 123556708.88008
                  23511997.761 8  92266584.74808  23511999.285 8 100289693.91608
  23511996.014 8  94673509.51608  23511996.709 8  93470052.70508
  24602320.045 6 129286085.90106 100742444.25203  24602326.792 3  24602319.442 3
  24602328.099 6  24602326.096 7  96544839.88307

  37105636.442 7 194991429.26607
                  37105633.524 6 145610478.80606

  36827740.987 7 193531108.11607
                  36827750.156 7 144520009.91407

  23459879.198 7 123282997.95907
                  23459883.906 8  92062293.69508  23459882.146 8 100067143.38608
  23459882.077 8  94463878.52608  23459882.863 8  93263087.18408
  36978742.387 7 194324613.39307
                  36978745.572 6 145112540.73906

  25317494.956 6 133044312.38606 103670905.61602  25317503.476 2  25317494.214 2


  26548821.684 7 139515314.24607
                  26548826.620 7 104183719.77907  26548825.658 7 113243098.34707
  26548824.263 7 106901531.18007  26548825.275 8 105542623.05408
  22379057.728 7 117603151.53207  91639000.65905  22379062.942 5  22379057.581 5
  22379063.527 7  22379061.241 7  87820791.68507

  28381833.161 5 149147565.28605
                  28381843.163 6 111376472.74606  28381838.843 6 121061362.45106
  28381840.733 6 114281933.57006  28381842.169 6 112829209.72906
  22051585.462 7 115881942.55807  90297672.69906  22051589.567 6  22051584.921 6
  22051589.779 7  22051588.354 7  86535275.03007

  24674655.129 6 129666221.06306 101038672.38203  24674662.194 3  24674654.875 3
  24674662.554 6

  27966935.791 6 146967225.06106
                  27966948.141 6 109748279.56006  27966945.400 6 119291600.13706
  27966946.462 6 112611272.26006  27966947.210 6 111179779.98706
 25  4 11  2  3 15.0000000  0 27G18G15E29G23R22R21G10R08R06E33R23G24
                                R07E13E26G08S33S31E07S35G16E08G32E31
                                G27G29E23
  20905432.393 7 109859107.06307  85604652.21706  20905433.966 6  20905432.148 6
  20905434.170 7  20905437.038 8  82037851.06508

  22693442.573 7 119255332.82907  92926484.53905  22693445.514 5  22693442.296 5
  22693445.860 6

  24809524.685 7 130375385.31007
                  24809529.855 7  97358522.06907  24809529.764 7 105824379.39607
  24809527.665 7  99898273.24107  24809528.693 8  98628292.72708
  20787044.268 8 109237114.94908  85120106.83306  20787045.621 6  20787044.009 6
  20787046.123 7  20787048.662 8  81573456.28308

  19286304.448 8 102951732.44808  80073653.59407
  19286308.641 7

  20767536.539 8 111131541.62808  86435805.00307
  20767543.914 7

  21576132.882 8 113383678.01508  88351122.08606  21576136.452 6  21576132.556 6
  21576136.481 7  21576133.413 8  84669841.87208

  20624497.961 8 110443643.32208  85900800.51807
  20624504.493 7

  21750712.521 6 116066040.55206


  26119539.114 7 137259280.14307
                  26119543.323 7 102498929.10507  26119543.782 7 111411846.40807
  26119541.289 7 105172795.44807  26119542.269 7 103835865.35007
  21953352.662 7 117435713.41007


  22823647.391 7 119939257.87907  93459268.91005  22823653.050 5  22823647.186 5
  22823653.219 7  22823652.602 7  89565155.90107

  19220525.418 8 102889472.09408  80025399.49107
  19220530.894 7

  24975960.685 7 131249636.58107
                  24975966.785 7  98011161.17607  24975964.356 7 106533839.94807
  24975964.657 7 100567958.65407  24975965.763 8  99289559.98908
  23509843.888 8 123545401.11908
                  23509845.917 8  92258140.65108  23509847.488 8 100280515.54908
  23509844.162 8  94664845.14208  23509844.906 8  93461498.47008
  24594581.747 6 129245420.45406 100710756.94303  24594588.636 3  24594581.135 3
  24594589.300 6  24594587.681 7  96514472.89107

  37105636.352 7 194991438.07707
                  37105635.259 6 145610485.29806

  36827739.709 7 193531101.57707
                  36827748.810 7 144520004.98407

  23460302.613 7 123285223.59707
                  23460307.478 8  92063955.71408  23460305.636 8 100068949.91808
  23460305.561 8  94465583.90108  23460306.366 8  93264770.88108
  36978753.204 7 194324663.02007
                  36978754.923 6 145112577.82306

  25323746.843 5 133077164.75805 103696504.76502  25323755.234 2  25323746.039 2


  26555748.698 7 139551714.87607
                  26555753.347 7 104210902.05907  26555752.372 7 113272644.30807
  26555751.129 7 106929422.56607  26555752.154 8 105570159.88708
  22370721.698 7 117559346.00507  91604866.53805  22370727.042 5  22370721.555 5
  22370726.984 7  22370725.341 7  87788079.84307

  28384737.740 6 149162829.03306
                  28384747.970 6 111387870.97706  28384743.013 6 121073751.82006
  28384745.513 6 114293629.15206  28384746.748 6 112840756.63106
  22048280.718 7 115864576.35707  90284140.60306  22048284.921 6  22048280.168 6
  22048285.215 7  22048283.688 7  86522306.78007

  24685579.712 6 129723633.15006 101083408.99503  24685587.655 3  24685579.408 3
  24685587.946 6

  27972993.954 6 146999059.34306
                  27973006.527 6 109772051.80706  27973003.035 6 119317439.55906
  27973004.093 6 112635664.68706  27973005.168 6 111203862.32306
 25  4 11  2  3 30.0000000  0 27G18G15E29G23R22R21G10R08R06E33R23G24
                                R07E13E26G08S33S31E07S35G16E08G32E31
                                G27G29E23
  20908414.838 7 109874781.50207  85616866.05706  20908416.722 6  20908414.588 6
  20908416.896 7  20908419.817 8  82049555.99508

  22703013.467 7 119305628.61907  92965676.04005  22703016.360 5  22703013.195 5
  22703016.931 6

  24802614.266 7 130339071.25407
                  24802619.484 7  97331404.48007  24802619.675 7 105794903.74407
  24802617.323 7  99870448.23807  24802618.310 8  98600821.43108
  20789610.212 8 109250600.06008  85130614.71106  20789611.733 6  20789609.944 6
  20789611.980 7  20789614.807 8  81583526.33008

  19282626.888 8 102932103.23108  80058386.43507
  19282631.545 7

  20775131.128 8 111172182.57108  86467414.59707
  20775138.187 7

  21573581.009 8 113370267.56608  88340672.38906  21573584.532 6  21573580.683 6
  21573584.304 7  21573581.569 8  84659827.58608

  20617767.945 8 110407601.35808  85872767.91207
  20617773.890 7

  21760680.065 6 116119228.19606


  26113389.815 7 137226968.05007
                  26113394.463 7 102474799.96507  26113395.014 7 111385619.07807
  26113392.603 7 105148036.86307  26113393.439 7 103811421.48807
  21942893.946 7 117379767.39307


  22820498.674 7 119922714.99807  93446378.38905  22820505.251 5  22820498.469 5
  22820504.571 7  22820504.589 7  89552802.48607

  19223507.493 8 102905435.36508  80037815.37507
  19223513.343 7

  24979671.824 7 131269138.94307
                  24979678.090 7  98025724.61007  24979675.655 7 106549669.78107
  24979675.815 7 100582902.00507  24979676.937 8  99304313.38108
  23507699.465 8 123534132.54608
                  23507701.577 8  92249725.81908  23507703.183 8 100271368.98608
  23507699.832 8  94656210.78508  23507700.557 8  93452973.87608
  24586858.781 6 129204837.31306 100679133.77003  24586865.777 3  24586858.160 3
  24586867.124 6  24586864.751 7  96484167.36107

  37105637.014 7 194991447.32007
                  37105636.976 6 145610492.24006

  36827738.872 7 193531095.69807
                  36827747.630 7 144520000.68507

  23460745.218 7 123287550.53307
                  23460750.253 8  92065693.37008  23460748.410 8 100070838.66608
  23460748.330 8  94467366.88308  23460749.151 8  93266531.20008
  36978762.044 7 194324713.35707
                  36978764.496 6 145112615.60506

  25330002.973 6 133110039.42506 103722121.28802  25330011.128 2  25330002.164 2


  26562684.681 7 139588164.18707
                  26562689.275 7 104238120.67607  26562688.726 7 113302229.76707
  26562687.300 7 106957351.22807  26562688.217 8 105597733.52608
  22362400.649 7 117515617.46407  91570792.40705  22362405.674 5  22362400.502 5
  22362406.308 7  22362403.979 7  87755425.47407

  28387656.860 6 149178167.23406
                  28387666.535 6 111399324.80706  28387661.872 5 121086201.63905
  28387663.997 6 114305381.78406  28387665.492 6 112852359.86506
  22045003.010 7 115847351.11807  90270718.35306  22045007.030 6  22045002.452 6
  22045007.348 7  22045005.829 7  86509443.78807

  24696505.549 6 129781044.02406 101128144.66903  24696512.764 3  24696505.219 3
  24696513.179 5

  27979053.041 6 147030900.45506
                  27979065.481 6 109795829.17206  27979062.359 6 119343284.56406
  27979063.360 6 112660062.32406  27979064.426 6 111227949.82406
 25  4 11  2  3 45.0000000  0 27G18G15E29G23R22R21G10R08R06E33R23G24
                                R07E13E26G08S33S31E07S35G16E08G32E31
                                G27G29E23
  20911415.779 7 109890550.63107  85629153.68406  20911417.507 6  20911415.529 6
  20911417.672 7  20911420.602 8  82061331.64008

  22712595.313 7 119355979.59307  93004910.53805  22712597.701 5  22712595.050 5
  22712598.707 6

  24795715.503 7 130302817.30207
                  24795720.513 7  97304331.77507  24795720.556 7 105765476.87107
  24795718.402 7  99842669.28307  24795719.374 8  98573395.60108
  20792183.258 8 109264120.90908  85141150.43706  20792184.758 6  20792182.986 6
  20792185.027 7  20792187.731 8  81593623.06608

  19278975.998 8 102912614.23408  80043228.32707
  19278980.382 7

  20782750.050 8 111212951.79608  86499123.98107
  20782757.556 7

  21571036.358 8 113356896.85808  88330253.66006  21571040.193 6  21571036.028 6
  21571040.021 7  21571037.172 8  84649842.97608

  20611060.380 8 110371687.53808  85844835.00407
  20611066.985 7

  21770653.621 6 116172447.23406


  26107239.812 7 137194649.37407
                  26107244.468 7 102450665.92907  26107244.974 7 111359386.41707
  26107242.465 7 105123273.23207  26107243.380 7 103786972.65307
  21932441.858 7 117323854.59307


  22817374.425 7 119906297.11907  93433585.27305  22817380.678 5  22817374.224 5
  22817381.119 7  22817380.089 7  89540542.41907

  19226515.696 8 102921538.62208  80050340.12508
  19226521.209 8

  24983392.275 7 131288689.41707
                  24983398.352 7  98040323.97607  24983395.802 7 106565538.66407
  24983396.214 7 100597882.23207  24983397.292 8  99319103.17808
  23505562.153 8 123522901.64808
                  23505564.386 8  92241339.11608  23505565.983 8 100262253.00408
  23505562.625 8  94647605.30108  23505563.390 8  93444477.78208
  24579151.916 6 129164335.11206 100647573.66903  24579158.851 3  24579151.299 3
  24579160.020 6  24579157.562 7  96453922.27107

  37105641.025 7 194991456.14907
                  37105638.706 6 145610498.92206

  36827737.285 7 193531088.95407
                  36827746.422 7 144519995.70007

  23461207.198 8 123289977.02408
                  23461212.042 8  92067505.38108  23461210.191 8 100072808.24308
  23461210.014 8  94469226.16308  23461210.882 8  93268366.84508
  36978771.479 7 194324762.67907
                  36978773.847 6 145112652.28306

  25336262.412 5 133142934.12905 103747753.43702  25336270.885 2  25336261.581 2


  26569629.678 7 139624660.27607
                  26569634.400 7 104265374.23607  26569633.447 7 113331853.20607
  26569632.047 7 106985315.76207  26569633.157 7 105625342.57207
  22354093.605 7 117471964.45407  91536777.13805  22354098.732 5  22354093.440 5
  22354099.369 7  22354097.042 7  87722827.51707

  28390588.968 6 149193578.03306
                  28390599.444 6 111410832.82406  28390594.863 5 121098710.38305
  28390596.608 6 114317190.03506  28390598.116 6 112864018.00206
  22041751.602 7 115830265.29907  90257404.73906  22041755.615 6  22041751.048 6
  22041756.096 7  22041754.552 7  86496684.92207

  24707429.691 6 129838451.75206 101172877.89903  24707436.312 3  24707429.343 3
  24707437.751 5

  27985113.131 6 147062746.51106
                  27985125.751 6 109819610.20906  27985122.847 6 119369133.55306
  27985123.472 6 112684463.75406  27985124.526 6 111252041.05606
 25  4 11  2  4  0.0000000  0 27G18G15E29G23R22R21G10R08R06E33R23G24
                                R07E13E26G08S33S31E07S35G16E08G32E31
                                G27G29E23
  20914435.311 7 109906418.02307  85641517.88106  20914437.006 6  20914435.066 6
  20914437.310 7  20914440.049 8  82073180.66308

  22722188.004 7 119406388.84907  93044190.45305  22722190.673 5  22722187.745 5
  22722190.895 6

  24788828.878 7 130266627.15107
                  24788833.650 7  97277306.70507  24788833.752 7 105736101.77507
  24788831.617 7  99814939.20507  24788832.570 8  98546018.02708
  20794763.658 8 109277680.92008  85151716.67806  20794765.148 6  20794763.390 6
  20794765.380 7  20794768.110 8  81603749.04008

  19275351.889 8 102893269.32108  80028182.29707
  19275356.354 7

  20790393.581 8 111253852.74708  86530935.81107
  20790400.621 7

  21568500.373 8 113343569.34108  88319868.59606  21568504.031 6  21568500.056 6
  21568503.923 7  21568500.974 8  84639890.61708

  20604378.860 8 110335905.88808  85817004.85707
  20604385.377 7

  21780632.181 6 116225700.79506


  26101089.496 7 137162327.76007
                  26101093.923 7 102426529.69307  26101094.421 7 111333151.36207
  26101091.779 7 105098507.34807  26101092.743 7 103762521.59207
  21921996.643 7 117267978.83107


  22814274.587 7 119890008.01907  93420892.50305  22814280.779 5  22814274.373 5
  22814280.740 7  22814280.480 7  89528378.52907

  19229550.225 8 102937784.46108  80062975.77907
  19229556.206 7

  24987122.448 7 131308291.57007
                  24987128.562 7  98054961.94207  24987126.228 7 106581449.49307
  24987126.358 7 100612902.05207  24987127.465 8  99333932.07108
  23503432.997 8 123511712.09908
                  23503435.161 8  92232983.28908  23503436.761 8 100253170.58208
  23503433.285 8  94639031.49508  23503434.088 8  93436012.96508
  24571460.076 6 129123917.67106 100616079.61403  24571467.701 3  24571459.446 3
  24571468.324 6  24571466.388 7  96423740.49007

  37105642.170 7 194991467.23807
                  37105640.777 6 145610507.12706

  36827736.690 7 193531084.72807
                  36827745.622 7 144519992.62707

  23461688.545 8 123292506.57508
                  23461693.345 8  92069394.34008  23461691.483 8 100074861.45308
  23461691.355 8  94471164.39508  23461692.221 8  93270280.44108
  36978781.339 7 194324814.89107
                  36978783.791 6 145112691.32506

  25342527.549 5 133175852.04305 103773403.65302  25342535.199 2  25342526.695 2


  26576584.266 7 139661206.47107
                  26576589.002 7 104292665.20907  26576588.013 7 113361517.31907
  26576586.502 7 107013318.67707  26576587.688 7 105652989.51707
  22345801.651 7 117428390.78407  91502823.68105  22345806.757 5  22345801.486 5
  22345807.849 7  22345805.150 7  87690288.80807

  28393535.923 6 149209064.78506
                  28393546.473 6 111422397.58506  28393542.051 5 121111280.78705
  28393544.073 6 114329056.45806  28393545.161 6 112875733.59706
  22038528.007 7 115813322.54507  90244202.60506  22038531.566 6  22038527.462 6
  22038531.637 7  22038530.450 7  86484032.87207

  24718354.168 6 129895859.57906 101217611.20903  24718361.040 3  24718353.833 3
  24718361.868 6

  27991174.825 6 147094600.78506
                  27991187.681 6 109843397.39606  27991183.884 6 119394989.22306
  27991185.396 6 112708871.48006  27991186.329 6 111276138.51206
 25  4 11  2  4 15.0000000  0 27G18G15E29G23R22R21G10R08R06E33R23G24
                                R07E13E26G08S33S31E07S35G16E08G32E31
                                G27G29E23
  20917472.552 7 109922378.99807  85653954.99806  20917474.293 6  20917472.311 6
  20917474.466 8  20917477.365 8  82085099.56008

  22731790.781 7 119456851.20907  93083511.75305  22731793.304 5  22731790.536 5
  22731793.667 6

  24781953.154 7 130230496.16307
                  24781958.136 7  97250325.82707  24781958.180 7 105706774.71707
  24781956.068 7  99787254.47107  24781957.048 8  98518685.22108
  20797350.442 8 109291275.21808  85162309.63806  20797352.022 6  20797350.165 6
  20797352.211 7  20797355.005 8  81613900.63208

  19271754.612 8 102874064.03108  80013244.85107
  19271758.460 7

  20798059.897 8 111294880.08608  86562845.95807
  20798067.581 7

  21565971.418 8 113330280.15808  88309513.39906  21565975.186 6  21565971.101 6
  21565975.150 7  21565972.135 8  84629966.88808

  20597720.334 8 110300251.51608  85789273.71707
  20597726.724 7

  21790618.321 6 116278983.68806


  26094937.148 7 137129998.48207
                  26094941.723 7 102402387.73107  26094942.288 7 111306910.08907
  26094939.765 7 105073735.59707  26094940.658 7 103738064.73607
  21911556.750 7 117212135.82207


  22811198.770 6 119873843.22906  93408296.59105  22811204.594 5  22811198.556 5
  22811205.191 7  22811204.549 7  89516307.46307

  19232610.656 8 102954168.23708  80075718.72808
  19232616.920 8

  24990861.631 7 131327940.70207
                  24990867.658 7  98069634.98507  24990865.094 7 106597398.46207
  24990865.490 7 100627957.87807  24990866.583 8  99348796.50508
  23501310.611 8 123500559.27508
                  23501312.832 8  92224654.88308  23501314.300 8 100244117.96808
  23501310.989 8  94630485.83008  23501311.758 8  93427575.93008
  24563783.818 6 129083580.50406 100584648.11203  24563791.145 3  24563783.184 3
  24563791.839 6  24563790.708 7  96393618.65807

  37105640.292 7 194991476.00707
                  37105642.467 6 145610513.62806

  36827735.237 7 193531078.11507
                  36827744.289 7 144519987.59907

  23462188.547 8 123295134.30808
                  23462193.388 8  92071356.62008  23462191.501 8 100076994.36408
  23462191.380 8  94473177.86508  23462192.255 8  93272268.31708
  36978790.537 7 194324864.13507
                  36978793.240 6 145112727.95506

  25348794.906 6 133208788.11606 103799068.07302  25348802.630 2  25348794.057 2


  26583547.305 7 139697797.77007
                  26583551.978 7 104319989.87207  26583551.262 7 113391218.04407
  26583549.739 7 107041356.15907  26583550.836 7 105680670.59007
  22337524.069 7 117384891.89707  91468928.50805  22337529.130 5  22337523.904 5
  22337529.872 7  22337527.576 7  87657805.93707

  28396496.351 6 149224622.51306
                  28396506.889 6 111434015.34606  28396502.202 5 121123908.79505
  28396504.443 6 114340977.30306  28396505.787 6 112887502.90106
  22035329.812 7 115796518.25707  90231108.36606  22035333.860 6  22035329.249 6
  22035334.013 7  22035332.606 7  86471484.22807

  24729277.409 6 129953262.58106 101262340.76403  24729284.923 3  24729277.074 3
  24729285.053 5

  27997237.289 6 147126458.23706
                  27997249.967 6 109867186.95806  27997246.681 6 119420847.49506
  27997247.869 6 112733281.65406  27997248.664 6 111300238.38106
 25  4 11  2  4 30.0000000  0 27G18G15E29G23R22R21G10R08R06E33R23G24
                                R07E13E26G08S33S31E07S35G16E08G32E31
                                G27G29E23
  20920528.313 7 109938437.63507  85666468.21706  20920530.159 6  20920528.081 6
  20920530.362 8  20920533.224 8  82097091.39408

  22741403.975 7 119507370.46107  93122877.37705  22741406.725 5  22741403.730 5
  22741407.140 6

  24775089.640 7 130194428.56107
                  24775094.690 7  97223392.28107  24775094.796 7 105677499.10307
  24775092.565 7  99759618.30807  24775093.568 8  98491400.36708
  20799944.846 7 109304907.76207  85172932.39606  20799946.176 6  20799944.578 6
  20799946.465 7  20799949.229 8  81624080.77508

  19268183.705 8 102855002.86308  79998419.51407
  19268187.994 7

  20805751.582 8 111336037.91408  86594857.57207
  20805758.672 7

  21563450.617 8 113317033.27008  88299191.16306  21563454.376 6  21563450.291 6
  21563454.284 7  21563451.349 8  84620074.74708

  20591086.676 8 110264728.77408  85761644.96207
  20591093.525 7

  21800609.137 6 116332299.69706


  26088784.682 7 137097665.71607
                  26088788.964 7 102378243.17707  26088789.541 7 111280665.98407
  26088786.947 7 105048961.17207  26088787.898 7 103713605.24607
  21901124.432 7 117156330.03207


  22808147.360 7 119857807.07407  93395800.92605  22808153.311 5  22808147.155 5
  22808153.309 7  22808152.884 7  89504332.45407

  19235698.079 8 102970693.21508  80088571.49007
  19235703.792 7

  24994610.337 7 131347640.90607
                  24994616.499 7  98084346.17007  24994614.112 7 106613388.88607
  24994614.291 7 100643052.83307  24994615.430 8  99363699.57508
  23499196.180 8 123489447.33408
                  23499198.255 8  92216357.01408  23499199.837 8 100235098.54008
  23499196.517 8  94621971.49208  23499197.226 8  93419169.82608
  24556124.614 6 129043327.98806 100553282.56003  24556130.898 3  24556123.984 3
  24556133.123 6  24556130.728 7  96363560.02107

  37105644.339 7 194991487.20807
                  37105644.461 6 145610522.20606

  36827732.451 7 193531073.85607
                  36827743.399 7 144519984.47607

  23462708.202 8 123297864.20208
                  23462712.833 8  92073395.19208  23462710.985 8 100079210.19208
  23462710.863 8  94475269.61108  23462711.724 8  93274333.47508
  36978799.816 7 194324916.08007
                  36978803.028 6 145112766.88406

  25355065.684 6 133241745.97306 103824749.42702  25355074.621 2  25355064.830 2


  26590519.415 7 139734438.02107
                  26590524.509 7 104347351.07007  26590523.500 7 113420958.47907
  26590522.226 7 107069431.12707  26590523.241 7 105708388.67207
  22329261.283 7 117341472.05907  91435094.92305  22329266.672 5  22329261.100 5
  22329267.148 7  22329265.020 7  87625382.09707

  28399471.363 6 149240255.12706
                  28399481.340 6 111445689.02606  28399476.672 5 121136597.56505
  28399478.961 6 114352955.50806  28399480.605 6 112899328.84006
  22032159.330 7 115779856.55107  90218125.23406  22032163.238 6  22032158.767 6
  22032163.773 7  22032161.932 7  86459042.06407

  24740200.878 6 130010664.14206 101307069.18703  24740207.877 3  24740200.548 3
  24740208.714 6

  28003300.576 5 147158322.66505
                  28003313.827 6 109890981.70606  28003310.230 6 119446711.38006
  28003311.636 6 112757697.15306  28003312.314 7 111324343.50807
 25  4 11  2  4 45.0000000  0 27G18G15E29G23R22R21G10R08R06E33R23G24
                                R07E13E26G08S33S31E07S35G16E08G32E31
                                G27G29E23
  20923602.302 7 109954591.21107  85679055.41406  20923604.074 6  20923602.074 6
  20923603.947 8  20923607.136 8  82109154.12508

  22751027.548 7 119557943.40307  93162284.84105  22751030.569 5  22751027.303 5
  22751031.038 6

  24768237.761 7 130158421.68507
                  24768242.656 7  97196504.07407  24768242.520 7 105648272.77707
  24768240.582 7  99732028.66607  24768241.643 8  98464161.44308
  20802545.690 8 109318575.64108  85183582.69206  20802547.117 6  20802545.422 6
  20802547.212 7  20802550.114 8  81634287.30908

  19264639.193 8 102836083.29008  79983704.30007
  19264643.450 7

  20813465.986 8 111377323.04708  86626968.21307
  20813473.896 7

  21560937.364 8 113303825.75208  88288899.60306  21560941.051 6  21560937.043 6
  21560940.861 7  21560937.967 8  84610212.00808

  20584477.426 8 110229334.83108  85734116.38507
  20584483.701 7

  21810604.817 5 116385645.53305


  26082630.967 7 137065326.73207
                  26082634.964 7 102354093.97107  26082635.617 7 111254416.84307
  26082633.115 7 105024181.98607  26082633.966 7 103689141.05007
  21890698.951 7 117100559.30207


  22805119.569 7 119841896.99607  93383403.49705  22805125.575 5  22805119.341 5
  22805125.799 7  22805125.160 7  89492451.59407

  19238811.007 8 102987356.48008  80101531.81308
  19238816.717 8

  24998368.374 7 131367389.41107
                  24998374.495 7  98099093.42207  24998371.996 7 106629418.50707
  24998372.436 7 100658184.79207  24998373.458 8  99378639.18108
  23497088.664 8 123478373.63008
                  23497090.983 8  92208087.70008  23497092.499 8 100226110.15008
  23497089.224 8  94613486.45008  23497089.969 8  93410792.64808
  24548479.793 6 129003157.55406 100521980.96403  24548486.749 3  24548479.163 3
  24548488.455 6  24548486.415 7  96333562.67107

  37105648.654 7 194991496.96707
                  37105646.357 6 145610529.37706

  36827732.089 7 193531068.56807
                  36827742.398 7 144519980.48907

  23463246.335 8 123300693.37308
                  23463251.210 8  92075507.88808  23463249.377 8 100081506.60108
  23463249.184 8  94477437.42708  23463250.089 8  93276473.73108
  36978810.396 7 194324966.75807
                  36978812.718 6 145112804.72506

  25361341.340 6 133274722.51506 103850445.34102  25361349.707 2  25361340.491 2


  26597500.731 7 139771124.16107
                  26597505.747 7 104374746.55707  26597504.475 7 113450736.18607
  26597503.244 7 107097541.27907  26597504.369 7 105736141.49207
  22321013.350 7 117298128.70607  91401320.93805  22321018.652 5  22321013.158 5
  22321019.312 7  22321017.009 7  87593015.37807

  28402459.175 5 149255959.62605
                  28402470.165 6 111457416.35406  28402465.229 5 121149344.69505
  28402467.502 6 114364988.77606  28402469.022 6 112911209.14306
  22029015.574 7 115763334.74507  90205251.11306  22029019.325 6  22029015.016 6
  22029019.564 7  22029017.995 7  86446704.36507

  24751122.570 6 130068061.15306 101351794.06203  24751130.302 3  24751122.249 3
  24751130.898 5

  28009365.413 6 147190190.97206
                  28009378.034 6 109914779.36406  28009373.990 6 119472578.44206
  28009375.466 6 112782115.62306  28009376.746 6 111348451.56806
 25  4 11  2  5  0.0000000  0 27G18G15E29G23R22R21G10R08R06E33R23G24
                                R07E13E26G08S33S31E07S35G16E08G32E31
                                G27G29E23
  20926694.098 7 109970838.58607  85691715.69606  20926695.865 6  20926693.870 6
  20926695.954 7  20926698.955 8  82121286.89108

  22760660.971 7 119608568.38207  93201732.84805  22760664.272 5  22760660.708 5
  22760664.570 6

  24761397.426 7 130122474.48807
                  24761402.168 7  97169660.43507  24761402.080 7 105619094.88807
  24761400.086 7  99704484.75007  24761401.053 8  98436967.66508
  20805153.144 8 109332277.58708  85194259.53206  20805154.520 6  20805152.876 6
  20805154.653 7  20805157.507 8  81644519.27608

  19261121.324 8 102817304.42908  79969098.52407
  19261125.407 7

  20821205.704 8 111418734.28008  86659176.92407
  20821213.067 7

  21558431.200 8 113290656.31908  88278637.71906  21558434.966 6  21558430.874 6
  21558434.854 7  21558431.870 8  84600377.70408

  20577891.867 8 110194068.53308  85706687.07507
  20577897.567 7

  21820609.012 6 116439019.31906


  26076475.403 7 137032980.41007
                  26076479.797 7 102329939.28307  26076480.203 7 111228161.72907
  26076477.790 7 104999397.17407  26076478.630 7 103664671.30007
  21880279.636 7 117044822.41307


  22802116.180 7 119826112.04707  93371103.57105  22802121.758 5  22802115.966 5
  22802121.818 7  22802121.197 7  89480664.17507

  19241949.093 8 103004156.39708  80114598.41908
  19241954.931 8

  25002135.332 7 131387185.07807
                  25002141.485 7  98113875.88807  25002139.091 7 106645486.40507
  25002139.467 7 100673352.88907  25002140.460 8  99393614.46208
  23494988.696 8 123467337.08708
                  23494990.824 8  92199846.13108  23494992.298 8 100217151.92008
  23494989.051 8  94605029.88508  23494989.787 8  93402443.58108
  24540851.162 6 128963068.26406 100490742.61203  24540858.040 3  24540850.514 3
  24540859.202 6  24540857.592 7  96303625.92707

  37105645.926 7 194991504.22607
                  37105647.806 6 145610534.65706

  36827732.040 7 193531060.59007
                  36827740.980 7 144519974.44107

  23463803.550 8 123303620.53508
                  23463808.217 8  92077693.77108  23463806.384 8 100083882.55508
  23463806.180 8  94479680.33108  23463807.115 8  93278688.12508
  36978820.296 7 194325015.31807
                  36978821.988 6 145112841.06106

  25367619.760 6 133307716.13906 103876154.56902  25367628.255 2  25367618.911 2


  26604490.372 7 139807854.78507
                  26604495.287 7 104402175.25507  26604494.565 7 113480549.98707
  26604492.899 7 107125685.50707  26604494.020 7 105763927.95407
  22312779.546 7 117254860.87307  91367605.79705  22312784.951 5  22312779.336 5
  22312785.516 7  22312783.272 7  87560705.04007

  28405461.732 6 149271734.55506
                  28405471.921 6 111469196.32606  28405467.340 5 121162149.03605
  28405469.721 6 114377076.06006  28405470.916 6 112923142.77206
  22025897.779 7 115746951.77907  90192485.17306  22025901.813 6  22025897.212 6
  22025902.108 7  22025900.394 7  86434470.34207

  24762043.831 6 130125452.28506 101396514.36003  24762051.704 3  24762043.514 3
  24762051.936 5

  28015429.904 6 147222061.72506
                  28015443.165 6 109938578.86306  28015439.697 6 119498447.49306
  28015440.612 6 112806535.98306  28015441.630 6 111372561.49906
 25  4 11  2  5 15.0000000  0 27G18G15E29G23R22R21G10R08R06E33R23G24
                                R07E13E26G08S33S31E07S35G16E08G32E31
                                G27G29E23
  20929804.551 7 109987184.69907  85704452.92206  20929806.442 6  20929804.319 6
  20929806.637 7  20929809.476 8  82133493.40208

  22770305.739 7 119659250.06507  93241225.03605  22770308.449 5  22770305.476 5
  22770308.825 6

  24754569.216 7 130086592.02807
                  24754573.778 7  97142865.13707  24754574.020 7 105589969.54707
  24754571.825 7  99676990.43407  24754572.814 8  98409822.85708
  20807768.025 8 109346018.38708  85204966.65206  20807769.346 6  20807767.757 6
  20807769.429 7  20807772.280 8  81654780.26908

  19257630.854 8 102798671.65908  79954606.37907
  19257634.884 7

  20828968.671 8 111460276.19308  86691487.27107
  20828975.685 7

  21555933.570 8 113277529.79508  88268409.27206  21555937.024 6  21555933.244 6
  21555936.897 7  21555934.002 8  84590575.45008

  20571330.317 8 110158935.03708  85679361.08207
  20571336.893 7

  21830616.337 6 116492425.88906


  26070319.357 7 137000631.75307
                  26070323.854 7 102305782.86207  26070324.561 7 111201904.73707
  26070321.986 7 104974610.57407  26070322.860 7 103640199.79007
  21869867.369 7 116989125.32907


  22799136.609 7 119810457.40507  93358905.18405  22799142.701 5  22799136.386 5
  22799142.494 7  22799142.236 7  89468974.06907

  19245114.193 8 103021097.63208  80127774.93508
  19245119.844 8

  25005912.047 7 131407032.85607
                  25005918.494 7  98128697.26907  25005915.987 7 106661596.61907
  25005916.248 7 100688560.92407  25005917.380 8  99408629.17008
  23492896.290 8 123456342.77608
                  23492898.637 8  92191636.09608  23492900.163 8 100208227.97308
  23492896.915 8  94596605.67308  23492897.626 8  93394126.45708
  24533239.100 6 128923065.34506 100459571.56403  24533245.890 3  24533238.479 3
  24533246.653 6  24533245.446 7  96273753.68107

  37105650.098 7 194991515.16007
                  37105649.796 6 145610543.14106

  36827731.025 7 193531055.64807
                  36827739.938 7 144519970.70507

  23464379.936 8 123306650.53208
                  23464384.833 8  92079956.44308  23464382.918 8 100086341.97508
  23464382.778 8  94482002.03108  23464383.708 8  93280980.31108
  36978828.662 7 194325066.63907
                  36978831.723 6 145112879.34106

  25373903.101 6 133340731.38806 103901880.64402  25373910.589 2  25373902.274 2


  26611489.363 7 139844634.55207
                  26611494.249 7 104429640.64907  26611493.252 7 113510403.68907
  26611491.960 7 107153867.40007  26611493.049 7 105791751.59707
  22304561.357 7 117211673.67007  91333953.48505  22304566.699 5  22304561.138 5
  22304567.557 7  22304564.995 7  87528454.92607

  28408478.274 6 149287584.71106
                  28408488.188 6 111481032.43106  28408483.023 5 121175014.37305
  28408486.081 6 114389220.94106  28408487.218 6 112935133.26406
  22022807.400 7 115730712.64407  90179831.31506  22022811.617 6  22022806.833 6
  22022811.981 7  22022810.202 7  86422343.73107

  24772964.738 6 130182842.01006 101441233.56103  24772972.470 3  24772964.425 3
  24772972.721 5

  28021496.507 6 147253939.55306
                  28021509.093 6 109962383.63506  28021506.213 6 119524322.28606
  28021507.020 6 112830961.77206  28021507.901 6 111396676.78006
 25  4 11  2  5 30.0000000  0 27G18G15E29G23R22R21G10R08R06E33R23G24
                                R07E13E26G08S33S31E07S35G16E08G32E31
                                G27G29E23
  20932933.618 7 110003627.47707  85717265.46806  20932935.402 6  20932933.390 6
  20932935.572 7  20932938.457 8  82145772.09308

  22779960.487 7 119709985.98107  93280759.49705  22779963.084 5  22779960.215 5
  22779962.999 6

  24747752.744 7 130050772.32007
                  24747757.516 7  97116116.70007  24747757.739 7 105560895.13607
  24747755.651 7  99649544.21207  24747756.487 8  98382725.52908
  20810389.739 8 109359795.81008  85215702.30106  20810391.081 6  20810389.476 6
  20810391.401 7  20810394.032 8  81665068.59908

  19254167.321 8 102780183.10608  79940226.40207
  19254171.656 7

  20836755.556 8 111501946.38508  86723897.41107
  20836762.990 7

  21553443.066 8 113264443.94508  88258212.52206  21553446.844 6  21553442.745 6
  21553446.482 7  21553443.850 8  84580803.56408

  20564793.513 8 110123932.04408  85652136.57007
  20564800.381 7

  21840630.455 6 116545862.55806


  26064162.788 7 136968278.74407
                  26064167.345 7 102281623.18207  26064167.934 7 111175644.19807
  26064165.461 7 104949820.63807  26064166.250 7 103615724.98407
  21859462.712 7 116933465.86907


  22796182.316 7 119794931.20807  93346806.88005  22796188.206 5  22796182.093 5
  22796188.299 7  22796187.782 7  89457379.86507

  19248304.642 8 103038177.50808  80141059.28408
  19248310.568 8

  25009698.785 7 131426930.64707
                  25009704.898 7  98143555.99707  25009702.464 7 106677747.40707
  25009702.660 7 100703807.27107  25009703.807 8  99423681.70808
  23490812.030 8 123445388.65808
                  23490814.155 8  92183456.07708  23490815.663 8 100199336.64608
  23490812.345 8  94588212.26708  23490813.130 8  93385839.74508
  24525643.259 6 128883146.94406 100428466.35603  24525649.582 3  24525642.638 3
  24525650.941 6  24525649.009 7  96243944.55107

  37105652.580 7 194991525.77407
                  37105651.831 6 145610550.96106

  36827728.087 7 193531051.39507
                  36827739.053 7 144519967.78507

  23464975.826 8 123309781.13208
                  23464980.569 8  92082294.24508  23464978.692 8 100088883.06008
  23464978.487 8  94484400.81408  23464979.440 8  93283348.60408
  36978839.748 7 194325117.77707
                  36978841.440 6 145112917.44406

  25380188.540 5 133373765.66005 103927621.54202  25380196.962 2  25380187.709 2


  26618497.236 7 139881461.12507
                  26618502.135 7 104457141.00007  26618501.025 7 113540295.36607
  26618499.798 7 107182085.14707  26618500.909 7 105819610.64807
  22296358.059 7 117168565.21207  91300362.53005  22296363.418 5  22296357.823 5
  22296364.148 7  22296361.667 7  87496263.60207

  28411507.832 5 149303507.78505
                  28411518.187 6 111492922.99106  28411514.222 5 121187938.91005
  28411515.978 6 114401421.69906  28411517.136 6 112947178.91906
  22019744.498 7 115714615.35507  90167287.98206  22019748.319 6  22019743.935 6
  22019748.450 7  22019747.006 7  86410323.04107

  24783885.851 6 130240227.92606 101485949.78603  24783892.544 3  24783885.534 3
  24783893.418 6

  28027563.165 6 147285822.06106
                  28027576.525 6 109986191.91206  28027573.235 6 119550200.88906
  28027574.273 6 112855391.13206  28027574.926 6 111420795.59906
 25  4 11  2  5 45.0000000  0 27G18G15E29G23R22R21G10R08R06E33R23G24
                                R07E13E26G08S33S31E07S35G16E08G32E31
                                G27G29E23
  20936079.835 7 110020161.17007  85730148.86106  20936081.631 6  20936079.607 6
  20936081.643 7  20936084.728 8  82158118.67908

  22789624.214 7 119760769.96807  93320331.40705  22789627.236 5  22789623.946 5
  22789627.265 6

  24740947.251 7 130015009.69507
                  24740952.070 7  97089410.89007  24740952.043 7 105531867.06607
  24740950.240 7  99622141.71807  24740951.058 8  98355671.37608
  20813017.136 8 109373603.95608  85226461.88906  20813018.683 6  20813016.873 6
  20813019.241 7  20813021.704 8  81675379.86808

  19250729.686 8 102761833.23008  79925954.28607
  19250733.938 7

  20844565.301 8 111543738.82908  86756402.63407
  20844573.154 7

  21550959.452 8 113251392.86508  88248042.86306  21550963.265 6  21550959.131 6
  21550963.108 7  21550960.254 8  84571057.64508

  20558280.266 8 110089054.17008  85625009.36907
  20558287.360 7

  21850649.812 6 116599323.20406


  26058004.609 7 136935915.61907
                  26058008.616 7 102257455.95407  26058009.407 7 111149375.45907
  26058006.919 7 104925022.95907  26058007.703 7 103591242.53207
  21849063.498 7 116877838.89507


  22793251.132 7 119779527.89707  93334804.33105  22793256.901 5  22793250.918 5
  22793257.327 7  22793256.500 7  89445877.42907

  19251519.913 8 103055389.79508  80154446.62308
  19251525.792 8

  25013493.595 7 131446872.69007
                  25013499.661 7  98158447.77707  25013497.146 7 106693934.12207
  25013497.537 7 100719087.52207  25013498.672 8  99438767.72408
  23488733.985 8 123434469.07008
                  23488736.173 8  92175301.85408  23488737.752 8 100190473.35208
  23488734.467 8  94579845.32408  23488735.199 8  93377579.16108
  24518061.655 6 128843307.53506 100397422.72603  24518069.180 3  24518061.056 3
  24518070.078 6  24518067.497 7  96214194.40407

  37105651.404 7 194991531.39407
                  37105652.944 6 145610555.03706

  36827729.097 7 193531041.62207
                  36827737.358 7 144519960.40107

  23465589.686 8 123313006.45208
                  23465594.345 8  92084702.77108  23465592.428 8 100091501.01608
  23465592.229 8  94486872.17208  23465593.193 8  93285788.54608
  36978846.281 7 194325164.16807
                  36978850.280 6 145112952.09506

  25386478.001 6 133406812.80106 103953372.48702  25386485.632 2  25386477.188 2


  26625512.719 7 139918328.47007
                  26625517.858 7 104484671.78007  26625517.154 7 113570220.14807
  26625515.563 7 107210334.12507  26625516.545 7 105847500.52807
  22288168.708 7 117125529.87807  91266828.55705  22288174.071 5  22288168.476 5
  22288174.324 7  22288172.279 7  87464126.89307

  28414550.992 5 149319497.70905
                  28414561.017 6 111504863.48306  28414556.874 5 121200917.71405
  28414558.667 6 114413673.68606  28414560.039 6 112959275.15906
  22016707.056 7 115698654.17207  90154850.71206  22016710.943 6  22016706.489 6
  22016711.386 7  22016709.628 7  86398403.99007

  24794803.734 6 130297603.83706 101530658.22403  24794810.931 3  24794803.444 3
  24794811.131 5

  28033630.028 6 147317703.20606
                  28033643.316 6 110009999.13706  28033639.773 6 119576078.35206
  28033640.724 6 112879819.43606  28033641.818 6 111444913.36006
 25  4 11  2  6  0.0000000  0 27G18G15E29G23R22R21G10R08R06E33R23G24
                                R07E13E26G08S33S31E07S35G16E08G32E31
                                G27G29E23
  20939245.617 7 110036797.10207  85743111.92006  20939247.325 6  20939245.394 6
  20939247.635 7  20939250.471 8  82170541.60708

  22799299.235 7 119811612.89107  93359949.24405  22799302.374 5  22799298.963 5
  22799302.529 6

  24734154.640 7 129979315.59307
                  24734159.715 7  97062756.25407  24734159.912 7 105502894.61807
  24734157.800 7  99594791.73807  24734158.641 8  98328669.06908
  20815652.701 8 109387454.01408  85237254.14306  20815654.243 6  20815652.433 6
  20815654.239 7  20815657.226 8  81685722.44508

  19247320.189 8 102743633.81508  79911799.19407
  19247324.891 7

  20852399.493 8 111585664.88308  86789011.77407
  20852407.651 7

  21548484.787 8 113238387.76208  88237909.03506  21548488.490 6  21548484.466 6
  21548488.440 7  21548485.442 8  84561346.06408

  20551792.129 8 110054312.77908  85597988.32507
  20551799.480 7

  21860674.003 6 116652818.64206


  26051846.355 7 136903553.77207
                  26051850.297 7 102233289.67407  26051850.944 7 111123107.74507
  26051848.642 7 104900226.24807  26051849.411 7 103566761.03607
  21838673.331 7 116822255.91107


  22790345.490 7 119764259.00707  93322906.52405  22790351.473 5  22790345.276 5
  22790351.426 7  22790351.042 7  89434475.37307

  19254762.226 8 103072745.82808  80167945.75607
  19254768.043 7

  25017299.106 7 131466870.32707
                  25017305.189 7  98173381.06207  25017302.606 7 106710165.96607
  25017303.031 7 100734410.38307  25017304.103 8  99453895.79608
  23486664.950 8 123423595.45808
                  23486667.036 8  92167181.94908  23486668.475 8 100181647.36908
  23486665.345 8  94571513.59308  23486666.031 8  93369353.34508
  24510497.634 6 128803558.64906 100366449.61503  24510505.274 3  24510497.053 3
  24510505.179 6  24510503.379 7  96184511.85607

  37105654.194 7 194991543.76707
                  37105655.081 6 145610564.50006

  36827728.100 7 193531037.74607
                  36827736.643 7 144519957.47707

  23466223.500 8 123316337.68608
                  23466228.294 8  92087190.38908  23466226.344 8 100094204.94808
  23466226.144 8  94489424.68708  23466227.112 8  93288308.61208
  36978857.169 7 194325217.17507
                  36978860.355 6 145112991.77206

  25392770.938 6 133439883.69506 103979141.92302  25392778.896 2  25392770.098 2


  26632538.366 7 139955247.62307
                  26632543.349 7 104512241.25507  26632542.537 7 113600186.97207
  26632540.929 7 107238622.80407  26632542.041 7 105875429.60307
  22279995.241 7 117082579.21707  91233360.55905  22280000.705 5  22279995.013 5
  22280001.293 7  22279998.963 7  87432053.40507

  28417608.536 6 149335565.59206
                  28417618.703 6 111516862.22006  28417613.984 6 121213959.83206
  28417616.032 6 114425985.42306  28417617.627 6 112971430.40006
  22013697.450 7 115682840.50707  90142528.38906  22013701.711 6  22013696.869 6
  22013702.187 7  22013700.383 7  86386595.09807

  24805722.018 6 130354980.66506 101575367.36203  24805729.538 3  24805721.732 3
  24805730.011 5

  28039698.988 6 147349593.95406
                  28039711.512 6 110033813.54906  28039708.421 6 119601963.61706
  28039709.778 6 112904255.12306  28039710.637 6 111469038.40906
 25  4 11  2  6 15.0000000  0 27G18G15E29G23R22R21G10R08R06E33R23G24
                                R07E13E26G08S33S31E07S35G16E08G32E31
                                G27G29E23
  20942428.854 7 110053525.23007  85756146.81906  20942430.678 6  20942428.631 6
  20942430.902 7  20942433.745 8  82183033.38608

  22808984.047 7 119862504.23407  93399604.80705  22808986.620 5  22808983.770 5
  22808987.265 6

  24727373.580 7 129943680.03707
                  24727378.414 7  97036145.32407  24727378.658 7 105473969.68807
  24727376.651 7  99567486.60807  24727377.367 8  98301711.04008
  20818294.251 8 109401335.75508  85248071.08006  20818295.895 6  20818293.983 6
  20818296.110 7  20818298.890 8  81696088.67408

  19243937.432 8 102725574.95908  79897753.41707
  19243941.285 7

  20860257.481 8 111627713.87608  86821716.52107
  20860265.606 7

  21546016.704 8 113225418.39908  88227803.05306  21546020.476 6  21546016.383 6
  21546020.315 7  21546017.499 8  84551661.16908

  20545328.871 8 110019697.61608  85571065.45707
  20545335.137 7

  21870704.203 6 116706338.35906


  26045686.289 7 136871183.15307
                  26045690.410 7 102209116.83307  26045691.298 7 111096832.91307
  26045688.647 7 104875422.81407  26045689.465 7 103542272.89807
  21828288.890 7 116766707.16007


  22787463.598 7 119749114.70107  93311105.79705  22787469.772 5  22787463.384 5
  22787469.371 7  22787469.069 7  89423166.34307

  19258029.261 8 103090234.71108  80181548.21808
  19258034.891 8

  25021113.005 7 131486913.43407
                  25021119.276 7  98188348.30907  25021116.736 7 106726434.71207
  25021116.979 7 100749768.07307  25021118.200 8  99469058.26408
  23484602.434 8 123412757.80808
                  23484604.669 8  92159088.90608  23484606.128 8 100172850.57808
  23484602.988 8  94563209.42408  23484603.683 8  93361154.73808
  24502948.807 6 128763890.45706 100335539.38503  24502956.250 3  24502948.235 3
  24502956.685 6  24502954.957 7  96154889.56707

  37105655.719 7 194991550.81307
                  37105656.705 6 145610569.62406

  36827725.390 7 193531030.08507
                  36827735.149 7 144519951.86707

  23466875.587 7 123319764.62507
                  23466880.412 8  92089749.48108  23466878.529 8 100096986.55908
  23466878.301 8  94492050.53408  23466879.240 8  93290901.08108
  36978865.813 7 194325265.78407
                  36978869.705 6 145113028.09606

  25399066.242 5 133472967.95105 104004921.78402  25399074.878 2  25399065.379 2


  26639571.617 7 139992208.22207
                  26639576.670 7 104539841.68107  26639575.798 7 113630187.44307
  26639574.378 7 107266943.25207  26639575.420 7 105903390.04007
  22271836.738 7 117039703.27707  91199950.79205  22271841.711 5  22271836.515 5
  22271842.369 7  22271839.985 7  87400035.72607

  28420679.336 5 149351701.14905
                  28420689.176 6 111528911.44106  28420684.631 5 121227056.80405
  28420687.074 6 114438348.99106  28420688.174 6 112983636.79506
  22010714.367 7 115667164.33107  90130313.19806  22010718.705 6  22010713.795 6
  22010719.019 7  22010717.325 7  86374888.88207

  24816638.949 6 130412348.04206 101620069.15103  24816646.074 3  24816638.654 3
  24816646.611 5

  28045767.228 6 147381483.94306
                  28045780.549 6 110057627.40506  28045777.207 6 119627848.29806
  28045777.859 6 112928690.20506  28045779.076 6 111493162.87806
 25  4 11  2  6 30.0000000  0 27G18G15E29G23R22R21G10R08R06E33R23G24
                                R07E13E26G08S33S31E07S35G16E08G32E31
                                G27G29E23
  20945630.687 7 110070350.84607  85769257.67906  20945632.485 6  20945630.464 6
  20945632.516 7  20945635.569 8  82195597.95708

  22818678.440 7 119913448.94207  93439301.94805  22818681.013 5  22818678.150 5
  22818681.528 6

  24720604.728 7 129908108.43307
                  24720609.402 7  97009582.16807  24720609.356 7 105445096.66607
  24720607.438 7  99540230.48907  24720608.279 8  98274801.40108
  20820943.160 8 109415254.27708  85258916.68006  20820944.490 6  20820942.888 6
  20820944.769 7  20820947.455 8  81706482.37508

  19240581.665 8 102707662.38908  79883821.43707
  19240586.039 7

  20868139.719 8 111669890.98608  86854520.91607
  20868147.460 7

  21543556.651 8 113212489.97208  88217728.97206  21543560.257 6  21543556.330 6
  21543560.364 7  21543557.351 8  84542006.84408

  20538889.074 8 109985214.12808  85544245.00607
  20538895.230 7

  21880739.426 6 116759887.10906


  26039525.593 7 136838809.11607
                  26039529.916 7 102184941.45407  26039530.666 7 111070555.31607
  26039528.027 7 104850616.76207  26039528.884 7 103517782.18007
  21817911.720 7 116711198.64907


  22784606.349 7 119734100.46007  93299406.41605  22784612.481 5  22784606.135 5
  22784612.963 7  22784611.997 7  89411954.45407

  19261322.157 8 103107861.55608  80195257.99408
  19261328.095 8

  25024936.737 7 131507007.35207
                  25024943.064 7  98203353.49207  25024940.441 7 106742744.70407
  25024940.751 7 100765164.70307  25024941.952 8  99484259.17108
  23482548.118 8 123401961.51108
                  23482550.151 8  92151026.73808  23482551.696 8 100164087.35608
  23482548.551 8  94554936.94308  23482549.214 8  93352987.41408
  24495417.081 6 128724308.51606 100304696.36703  24495424.034 3  24495416.518 3
  24495424.849 6  24495422.792 7  96125331.68907

  37105658.858 7 194991559.18507
                  37105658.091 6 145610575.68606

  36827724.957 7 193531023.19507
                  36827733.826 7 144519946.39807

  23467546.964 8 123323292.44708
                  23467551.743 8  92092383.90208  23467549.911 8 100099850.06408
  23467549.580 8  94494753.68208  23467550.565 8  93293569.86608
  36978876.826 7 194325315.34807
                  36978878.988 6 145113065.04006

  25405366.911 6 133506070.47306 104030715.86602  25405374.191 2  25405366.080 2


  26646614.110 7 140029215.32807
                  26646618.969 7 104567476.83107  26646618.064 7 113660225.66707
  26646616.516 7 107295299.32107  26646617.711 7 105931385.65207
  22263692.723 7 116996907.60007  91166603.56005  22263697.951 5  22263692.500 5
  22263698.626 7  22263696.066 7  87368077.97107

  28423763.497 6 149367909.39206
                  28423773.555 6 111541014.99806  28423769.505 5 121240212.84005
  28423771.565 6 114450768.28606  28423772.583 6 112995898.22106
  22007758.706 7 115651631.02407  90118209.33806  22007762.953 6  22007758.143 6
  22007763.468 7  22007761.386 7  86363289.34607

  24827555.522 6 130469710.82206 101664767.35003  24827561.730 3  24827555.218 3
  24827563.069 5

  28051836.912 6 147413378.20206
                  28051850.048 6 110081444.43506  28051846.675 6 119653736.39006
  28051847.434 6 112953128.54606  28051848.365 6 111517290.56806
 25  4 11  2  6 45.0000000  0 27G18G15E29G23R22R21G10R08R06E33R23G24
                                R07E13E26G08S33S31E07S35G16E08G32E31
                                G27G29E23
  20948851.414 8 110087275.92808  85782446.04706  20948853.225 6  20948851.191 6
  20948853.452 7  20948856.307 8  82208236.80808

  22828383.326 7 119964448.52207  93479041.85505  22828386.129 5  22828383.054 5
  22828386.105 6

  24713847.947 7 129872602.83707
                  24713852.726 7  96983068.30007  24713853.071 7 105416277.23207
  24713850.997 7  99513024.94807  24713851.724 8  98247941.69608
  20823598.916 8 109429211.50408  85269792.43806  20823600.446 6  20823598.639 6
  20823600.906 7  20823603.482 8  81716904.97608

  19237253.996 8 102689898.31408  79870004.92307
  19237258.017 7

  20876045.485 8 111712197.89208  86887426.26707
  20876053.310 7

  21541104.457 8 113199604.25208  88207688.16806  21541108.162 6  21541104.131 6
  21541108.030 7  21541105.258 8  84532384.41208

  20532474.189 8 109950864.38008  85517528.57007
  20532480.705 7

  21890779.371 6 116813466.52106


  26033364.618 7 136806433.67807
                  26033369.051 7 102160765.03307  26033369.606 7 111044276.56907
  26033367.261 7 104825809.65207  26033368.016 7 103493290.41407
  21807543.377 7 116655732.37707


  22781774.208 7 119719218.47207  93287810.09305  22781780.352 5  22781773.976 5
  22781780.458 7  22781780.061 7  89400841.32307

  19264641.097 8 103125627.93508  80209076.28308
  19264647.078 8

  25028770.556 7 131527154.03107
                  25028776.845 7  98218398.07907  25028774.284 7 106759097.52407
  25028774.684 7 100780601.76407  25028775.751 8  99499499.99508
  23480501.879 8 123391208.63808
                  23480503.973 8  92142997.00008  23480505.440 8 100155359.37708
  23480502.294 8  94546697.73008  23480503.013 8  93344852.93808
  24487901.233 6 128684815.00306 100273922.26503  24487908.431 3  24487900.643 3
  24487909.392 6  24487907.290 7  96095839.85107

  37105659.296 7 194991571.40007
                  37105660.443 6 145610585.03006

  36827725.015 7 193531019.47207
                  36827733.088 7 144519943.75307

  23468237.872 8 123326922.97408
                  23468242.547 8  92095095.01808  23468240.609 8 100102796.93008
  23468240.477 8  94497535.52208  23468241.440 8  93296316.34408
  36978886.749 7 194325368.26207
                  36978889.107 6 145113104.60806

  25411669.292 6 133539192.62206 104056525.26102  25411677.216 2  25411668.425 2


  26653665.264 7 140066270.62807
                  26653670.236 7 104595147.98307  26653669.197 7 113690303.00207
  26653668.046 7 107323692.33007  26653669.138 7 105959417.73107
  22255564.289 7 116954194.27807  91133320.50405  22255569.852 5  22255564.066 5
  22255570.425 7  22255567.960 7  87336181.71907

  28426861.442 6 149384192.14606
                  28426872.368 6 111553174.14006  28426867.198 5 121253429.33105
  28426869.820 6 114463244.62006  28426870.998 6 113008215.96006
  22004830.197 7 115636242.59607  90106218.36406  22004834.662 6  22004829.634 6
  22004834.624 7  22004833.028 7  86351797.99607

  24838471.078 6 130527070.59906 101709463.21903  24838476.616 3  24838470.783 3
  24838477.556 5

  28057907.285 6 147445278.32506
                  28057920.232 6 110105265.84006  28057916.662 6 119679629.28806
  28057917.749 6 112977571.41006  28057918.973 6 111541422.69306
 25  4 11  2  7  0.0000000  0 27G18G15E29G23R22R21G10R08R06E33R23G24
                                R07E13E26G08S33S31E07S35G16E08G32E31
                                G27G29E23
  20952090.105 7 110104295.55507  85795708.08806  20952091.999 6  20952089.869 6
  20952092.126 7  20952095.069 8  82220946.26608

  22838097.499 7 120015497.70507  93518820.41105  22838100.241 5  22838097.222 5
  22838100.821 6

  24707103.269 7 129837158.45607
                  24707107.785 7  96956600.14207  24707108.294 7 105387507.47907
  24707106.110 7  99485866.31307  24707106.845 8  98221128.30008
  20826261.341 8 109443202.38708  85280694.42106  20826262.886 6  20826261.064 6
  20826263.148 7  20826265.874 8  81727352.70708

  19233952.924 8 102672278.07808  79856300.31607
  19233957.211 7

  20883975.063 8 111754629.53508  86920428.64007
  20883982.351 7

  21538659.549 8 113186756.24508  88197676.74706  21538663.231 6  21538659.228 6
  21538662.988 7  21538660.342 8  84522790.13208

  20526083.435 8 109916643.58508  85490912.44607
  20526090.358 7

  21900825.118 6 116867071.25706


  26027202.800 7 136774051.96507
                  26027206.943 7 102136583.92107  26027207.668 7 111017992.75007
  26027204.988 7 104800997.72707  26027205.950 7 103468793.89607
  21797180.532 7 116600304.01607


  22778966.794 7 119704464.02807  93276313.15005  22778972.517 5  22778966.571 5
  22778972.927 7  22778972.225 7  89389823.42407

  19267984.898 8 103143528.36908  80222998.85107
  19267990.989 7

  25032613.556 7 131547348.55107
                  25032619.729 7  98233478.39407  25032617.220 7 106775489.17007
  25032617.569 7 100796075.47607  25032618.659 8  99514777.00808
  23478462.864 8 123380494.34908
                  23478465.132 8  92134996.08008  23478466.662 8 100146662.72408
  23478463.389 8  94538488.09308  23478464.150 8  93336747.65908
  24480402.768 6 128645405.21406 100243213.39903  24480408.715 3  24480402.183 3
  24480409.721 6  24480407.632 7  96066410.52407

  37105664.144 7 194991581.04807
                  37105662.308 6 145610592.36106

  36827721.652 7 193531014.00507
                  36827732.104 7 144519939.76707

  23468947.157 7 123330651.17607
                  23468952.040 8  92097879.07408  23468950.095 8 100105823.06408
  23468949.913 8  94500392.20208  23468950.903 8  93299136.71208
  36978895.495 7 194325419.03407
                  36978898.712 6 145113142.52406

  25417974.395 6 133572329.14006 104082345.80602  25417983.004 2  25417973.550 2


  26660725.130 6 140103368.93806
                  26660729.796 7 104622851.24107  26660728.675 7 113720415.24607
  26660727.516 7 107352118.27507  26660728.667 7 105987482.33207
  22247451.150 7 116911558.59107  91100097.93705  22247456.459 5  22247450.918 5
  22247456.925 7  22247454.552 7  87304343.44207

  28429973.548 6 149400544.14806
                  28429983.942 6 111565385.02806  28429978.767 5 121266702.05005
  28429981.067 6 114475774.04606  28429982.625 6 113020586.11506
  22001928.642 7 115620994.17707  90094336.49206  22001932.843 6  22001928.079 6
  22001933.458 7  22001931.352 7  86340411.20307

  24849384.089 6 130584422.13406 101754152.66403  24849390.791 3  24849383.808 3
  24849391.499 5

  28063978.087 6 147477179.11706
                  28063990.980 6 110129087.77806  28063987.367 6 119705522.72306
  28063988.413 6 113002014.78506  28063989.513 6 111565555.35306
 25  4 11  2  7 15.0000000  0 27G18G15E29G23R22R21G10R08R06E33R23G24
                                R07E13E26G08S33S31E07S35G16E08G32E31
                                G27G29E23
  20955347.796 7 110121413.64407  85809046.85206  20955349.464 6  20955347.573 6
  20955349.685 7  20955352.500 8  82233729.24408

  22847821.987 7 120066600.00507  93558640.35505  22847825.005 5  22847821.710 5
  22847825.191 6

  24700371.050 7 129801779.29007
                  24700375.370 7  96930180.67707  24700375.702 7 105358790.64507
  24700373.653 7  99458757.63507  24700374.370 8  98194364.22808
  20828930.984 8 109457230.66108  85291625.53906  20828932.351 6  20828930.716 6
  20828932.482 7  20828935.376 8  81737828.36208

  19230679.669 8 102654805.94508  79842710.88207
  19230683.966 7

  20891928.392 8 111797189.34408  86953530.68207
  20891936.193 7

  21536222.233 8 113173949.66008  88187697.59906  21536226.192 6  21536221.907 6
  21536226.052 7  21536223.308 8  84513226.78708

  20519718.025 8 109882555.68008  85464399.67107
  20519724.503 7

  21910876.551 6 116920704.78406


  26021040.502 7 136741667.94207
                  26021044.389 7 102112401.08507  26021045.086 7 110991707.03507
  26021042.677 7 104776184.02107  26021043.437 7 103444295.62607
  21786826.533 7 116544917.63107


  22776184.433 7 119689841.24007  93264918.80205  22776189.684 5  22776184.210 5
  22776190.227 7  22776189.696 7  89378903.85407

  19271354.843 8 103161566.26508  80237028.32408
  19271360.492 8

  25036466.400 7 131567594.81107
                  25036472.401 7  98248597.34707  25036469.744 7 106791922.81407
  25036470.329 7 100811588.83107  25036471.391 8  99530093.16208
  23476432.170 8 123369822.64508
                  23476434.368 8  92127026.95108  23476435.877 8 100138000.62408
  23476432.646 8  94530311.07608  23476433.398 8  93328674.58608
  24472919.052 6 128606083.32706 100212573.00703  24472925.660 3  24472918.476 3
  24472926.508 6  24472925.027 7  96037046.84507

  37105665.767 7 194991592.85707
                  37105664.552 6 145610600.93606

  36827722.542 7 193531010.34707
                  36827731.375 7 144519937.08807

  23469675.931 8 123334480.81908
                  23469680.801 8  92100738.88208  23469678.863 8 100108931.55108
  23469678.665 8  94503326.61508  23469679.666 8  93302033.82308
  36978908.163 7 194325471.22007
                  36978908.733 6 145113181.46906

  25424283.257 6 133605483.54906 104108180.35002  25424292.316 2  25424282.426 2


  26667793.694 7 140140513.88307
                  26667798.403 7 104650589.32707  26667797.296 7 113750565.34707
  26667795.933 7 107380579.97307  26667797.136 7 106015582.22507
  22239353.459 7 116869004.60507  91066939.04205  22239358.633 5  22239353.223 5
  22239359.053 7  22239356.723 7  87272566.17107

  28433099.291 5 149416969.14705
                  28433109.699 6 111577650.41106  28433104.348 5 121280033.99805
  28433106.619 6 114488359.39406  28433108.334 6 113033011.48406
  21999054.592 7 115605889.75407  90082566.82706  21999058.520 6  21999054.016 6
  21999058.869 7  21999057.079 7  86329131.94307

  24860296.296 6 130641768.96506 101798838.41803  24860304.430 3  24860295.988 3
  24860304.550 5

  28070049.032 5 147509084.20205
                  28070062.407 6 110152912.89006  28070059.174 6 119731419.62906
  28070059.817 6 113026461.44106  28070060.953 6 111589691.24106
 25  4 11  2  7 30.0000000  0 27G18G15E29G23R22R21G10R08R06E33R23G24
                                R07E13E26G08S33S31E07S35G16E08G32E31
                                G27G29E23
  20958622.907 7 110138625.39607  85822458.59706  20958624.793 6  20958622.688 6
  20958624.970 7  20958627.827 8  82246582.16308

  22857555.506 7 120117750.40407  93598497.77905  22857558.748 5  22857555.216 5
  22857559.010 6

  24693649.947 7 129766460.64107
                  24693654.388 7  96903806.40207  24693654.886 7 105330122.93607
  24693652.683 7  99431695.33407  24693653.405 8  98167645.94208
  20831606.770 8 109471291.38808  85302581.94706  20831608.099 6  20831606.507 6
  20831608.377 7  20831611.023 8  81748328.25408

  19227433.477 8 102637477.30708  79829233.06207
  19227437.530 7

  20899904.074 8 111839872.29808  86986728.52807
  20899912.214 7

  21533792.477 8 113161179.61408  88177746.92906  21533796.107 6  21533792.151 6
  21533796.369 7  21533793.273 8  84503690.73208

  20513376.721 8 109848595.74108  85437986.40307
  20513382.436 7

  21920931.351 6 116974361.75706


  26014876.410 7 136709276.83107
                  26014880.510 7 102088212.96007  26014881.225 7 110965415.58007
  26014878.762 7 104751364.89807  26014879.583 7 103419792.00007
  21776480.458 7 116489569.17907


  22773425.816 7 119675345.52307  93253623.46805  22773431.211 5  22773425.593 5
  22773431.636 7  22773431.222 7  89368079.15907

  19274748.986 8 103179736.67908  80251160.87608
  19274755.034 8

  25040327.887 7 131587888.01607
                  25040334.191 7  98263751.34307  25040331.546 7 106808394.56607
  25040331.892 7 100827138.16107  25040333.076 8  99545444.82608
  23474408.680 8 123359188.80908
                  23474410.776 8  92119086.11308  23474412.292 8 100129369.27008
  23474409.072 8  94522163.08008  23474409.833 8  93320630.17008
  24465452.733 6 128566844.72006 100181997.52703  24465458.967 3  24465452.152 3
  24465459.595 6  24465458.168 7  96007745.36607

  37105665.870 7 194991601.54107
                  37105666.238 6 145610607.48306

  36827720.892 7 193531003.96907
                  36827729.882 7 144519932.32407

  23470423.266 8 123338406.96108
                  23470427.898 8  92103670.75008  23470425.907 8 100112118.36708
  23470425.837 8  94506334.97008  23470426.789 8  93305003.93508
  36978916.109 7 194325521.19907
                  36978918.137 6 145113218.90906

  25430594.470 6 133638650.65606 104134024.76802  25430604.248 2  25430593.616 2


  26674869.908 7 140177700.39107
                  26674874.821 7 104678358.45307  26674873.748 7 113780749.18807
  26674872.478 7 107409073.51307  26674873.577 7 106043713.55807
  22231270.335 7 116826527.72007  91033840.21605  22231275.509 5  22231270.112 5
  22231275.991 7  22231273.586 7  87240846.47807

  28436237.702 6 149433462.06406
                  28436248.173 6 111589966.49006  28436243.479 5 121293421.05505
  28436245.663 6 114500996.79806  28436246.953 6 113045488.22206
  21996206.653 7 115590924.56407  90070905.65006  21996210.771 6  21996206.090 6
  21996211.318 7  21996209.310 7  86317956.65607

  24871208.075 6 130699105.90706 101843516.47603  24871215.386 3  24871207.771 3
  24871214.647 5

  28076120.784 5 147540988.45405
                  28076133.381 6 110176737.38506  28076130.160 6 119757315.85006
  28076131.585 6 113050907.45906  28076132.343 6 111613826.49806
 25  4 11  2  7 45.0000000  0 27G18G15E29G23R22R21G10R08R06E33R23G24
                                R07E13E26G08S33S31E07S35G16E08G32E31
                                G27G29E23
  20961916.310 7 110155932.74107  85835944.83006  20961918.286 6  20961916.091 6
  20961918.178 7  20961921.335 8  82259506.46808

  22867298.616 7 120168950.31207  93638393.78705  22867301.497 5  22867298.295 5
  22867301.554 6

  24686940.681 7 129731204.55207
                  24686945.292 7  96877478.84607  24686945.909 7 105301506.02207
  24686943.695 7  99404680.96807  24686944.339 8  98140974.97908
  20834288.899 8 109485386.36508  85313565.04106  20834290.276 6  20834288.631 6
  20834290.598 7  20834293.243 8  81758853.71808

  19224214.550 8 102620294.44508  79815868.62707
  19224218.734 7

  20907904.494 8 111882680.16308  87020023.48907
  20907912.207 7

  21531369.712 8 113148447.85408  88167826.09006  21531373.346 6  21531369.391 6
  21531373.389 7  21531370.480 8  84494183.26308

  20507058.828 8 109814765.95408  85411674.39807
  20507065.537 7

  21930991.683 6 117028043.73306


  26008711.631 7 136676880.65607
                  26008715.803 7 102064021.04207  26008716.465 7 110939120.01107
  26008713.963 7 104726541.88707  26008714.754 7 103395284.53507
  21766141.181 7 116434260.71307


  22770691.883 7 119660978.99807  93242428.80305  22770697.391 5  22770691.669 5
  22770697.544 6  22770697.288 7  89357350.95307

  19278168.603 8 103198041.20308  80265397.72908
  19278174.174 8

  25044198.798 7 131608230.10807
                  25044205.083 7  98278941.85507  25044202.431 7 106824905.98707
  25044202.888 7 100842724.94907  25044204.061 8  99560833.47508
  23472392.629 8 123348594.90008
                  23472394.854 8  92111175.07908  23472396.273 8 100120770.32008
  23472393.154 8  94514045.67108  23472393.891 8  93312615.94808
  24458001.648 6 128527691.61906 100151488.68603  24458008.506 3  24458001.090 3
  24458009.461 6  24458007.278 7  95978507.72907

  37105665.163 7 194991609.29307
                  37105667.615 6 145610613.54706

  36827720.051 7 193530996.23507
                  36827728.522 7 144519926.54607

  23471188.973 7 123342431.41707
                  23471193.714 8  92106676.03408  23471191.692 8 100115384.97608
  23471191.699 8  94509418.65608  23471192.626 8  93308048.42008
  36978924.851 7 194325570.06707
                  36978927.433 6 145113255.35506

  25436910.445 6 133671832.02506 104159880.25802  25436918.734 2  25436909.578 2


  26681954.357 6 140214930.12106
                  26681959.444 7 104706159.85507  26681958.156 7 113810968.11207
  26681957.040 7 107437600.17307  26681958.201 7 106071877.58907
  22223202.648 7 116784130.02207  91000803.10005  22223207.454 5  22223202.438 5
  22223207.850 7  22223205.524 7  87209185.91507

  28439389.473 6 149450024.56506
                  28439399.839 6 111602334.59606  28439395.123 5 121306864.66405
  28439397.299 6 114513687.53606  28439398.552 6 113058017.64906
  21993385.858 7 115576100.61707  90059354.53706  21993389.817 6  21993385.291 6
  21993390.281 7  21993388.447 7  86306886.83407

  24882116.291 6 130756434.58506 101888188.10303  24882124.701 3  24882115.952 3
  24882124.687 5

  28082192.085 5 147572893.48705
                  28082205.206 6 110200562.46706  28082201.532 6 119783212.73406
  28082202.333 6 113075354.07206  28082203.438 6 111637962.34506
 25  4 11  2  8  0.0000000  0 27G18G15E29G23R22R21G10R08R06E33R23G24
                                R07E13E26G08S33S31E07S35G16E08G32E31
                                G27G29E23
  20965228.528 8 110173338.53708  85849507.78106  20965230.498 6  20965228.309 6
  20965230.716 7  20965233.500 8  82272504.29508

  22877051.296 7 120220202.15107  93678330.25705  22877054.240 5  22877050.966 5
  22877054.579 6

  24680244.197 7 129696013.95007
                  24680248.734 7  96851200.20107  24680249.115 7 105272942.25307
  24680247.029 7  99377716.78707  24680247.726 8  98114353.56808
  20836978.007 8 109499518.28808  85324576.92406  20836979.461 6  20836977.739 6
  20836979.689 7  20836982.468 8  81769406.77208

  19221023.692 8 102603260.52008  79802620.01707
  19221027.906 7

  20915928.356 8 111925615.59208  87053417.68607
  20915935.669 7

  21528954.849 8 113135757.13008  88157937.23806  21528958.383 6  21528954.541 6
  21528958.231 7  21528955.509 8  84484706.44708

  20500766.230 8 109781069.01708  85385465.71607
  20500772.861 7

  21941056.547 6 117081753.18906


  26002546.177 7 136644482.26407
                  26002550.596 7 102039827.48407  26002551.019 7 110912822.64707
  26002548.638 7 104701717.18507  26002549.513 7 103370775.40607
  21755810.050 7 116378995.54807


  22767982.972 7 119646744.72907  93231337.19805  22767988.500 5  22767982.740 5
  22767989.004 7  22767988.591 7  89346721.50107

  19281613.331 8 103216482.05408  80279740.60608
  19281619.311 8

  25048080.003 7 131628623.90807
                  25048085.967 7  98294170.97807  25048083.359 7 106841459.39107
  25048083.739 7 100858351.35707  25048084.875 8  99576261.24008
  23470384.765 8 123338043.81508
                  23470387.040 8  92103296.02808  23470388.469 8 100112206.13108
  23470385.313 8  94505961.08008  23470386.079 8  93304634.12608
  24450567.620 6 128488627.08106 100121048.83503  24450574.859 3  24450567.079 3
  24450575.940 6  24450573.327 7  95949336.22307

  37105670.395 7 194991618.92907
                  37105669.565 6 145610620.57506

  36827717.547 7 193530990.37307
                  36827727.467 7 144519922.22007

  23471974.032 8 123346556.88708
                  23471978.731 8  92109756.76008  23471976.791 8 100118733.58508
  23471976.710 8  94512579.73908  23471977.691 8  93311169.32408
  36978934.555 7 194325620.62907
                  36978936.980 6 145113293.12606

  25443226.774 6 133705029.93506 104185748.69302  25443236.130 2  25443225.903 2


  26689047.917 6 140252205.66706
                  26689052.839 7 104733995.46007  26689051.739 7 113841224.21607
  26689050.472 7 107466161.92907  26689051.536 7 106100076.26907
  22215150.096 7 116741814.53507  90967830.03805  22215155.028 5  22215149.900 5
  22215155.612 7  22215153.208 7  87177586.73807

  28442555.203 5 149466659.35205
                  28442565.609 6 111614756.61706  28442560.367 6 121320366.87106
  28442562.929 6 114526433.62806  28442564.179 6 113070601.70006
  21990592.123 7 115561420.78807  90047915.71906  21990596.256 6  21990591.533 6
  21990596.655 7  21990594.953 7  86295924.63307

  24893025.033 6 130813757.45406 101932855.19603  24893032.965 3  24893024.676 3
  24893032.615 5

  28088263.880 5 147604801.88005
                  28088276.977 6 110224390.03606  28088273.518 6 119809112.30406
  28088274.951 6 113099803.24006  28088275.772 6 111662100.71506
 25  4 11  2  8 15.0000000  0 27G18G15E29G23R22R21G10R08R06E33R23G24
                                R07E13E26G08S33S31E07S35G16E08G32E31
                                G27G29E23
  20968559.615 7 110190843.05607  85863147.65406  20968561.472 6  20968559.392 6
  20968561.792 7  20968564.530 8  82285575.83808

  22886814.413 7 120271505.75507  93718307.06405  22886816.875 5  22886814.083 5
  22886817.512 6

  24673560.123 7 129660889.19807
                  24673564.681 7  96824970.73407  24673565.242 7 105244431.93807
  24673563.036 7  99350803.06307  24673563.661 8  98087781.97108
  20839674.076 8 109513687.27908  85335617.69606  20839675.728 6  20839673.808 6
  20839676.004 7  20839678.688 8  81779987.51208

  19217860.463 8 102586376.10308  79789487.70107
  19217864.648 7

  20923974.905 8 111968678.25908  87086910.84907
  20923982.910 7

  21526547.449 8 113123107.54608  88148080.42406  21526551.220 6  21526547.141 6
  21526551.157 7  21526548.347 8  84475260.33608

  20494498.309 8 109747505.49408  85359360.79507
  20494504.779 7

  21951126.299 6 117135489.79806


  25996380.739 7 136612081.96807
                  25996384.697 7 102015632.49707  25996385.584 7 110886523.73307
  25996383.104 7 104676891.02307  25996383.901 8 103346264.83408
  21745486.715 7 116323774.34407


  22765299.706 7 119632643.16207  93220348.99405  22765305.043 5  22765299.470 5
  22765305.456 7  22765305.149 7  89336191.13707

  19285083.986 8 103235059.21508  80294189.51208
  19285089.610 8

  25051970.428 7 131649069.66707
                  25051976.683 7  98309438.91007  25051973.892 7 106858054.96707
  25051974.426 7 100874017.57307  25051975.580 8  99591728.31608
  23468385.354 8 123327535.89708
                  23468387.498 8  92095449.21708  23468388.898 8 100103676.98608
  23468385.769 8  94497909.56908  23468386.486 8  93296684.96608
  24443150.636 6 128449651.55306 100090678.35603  24443158.163 3  24443150.104 3
  24443158.907 6  24443156.698 7  95920231.19607

  37105670.650 7 194991630.48107
                  37105671.532 6 145610629.25906

  36827719.108 7 193530986.74107
                  36827726.823 7 144519919.57307

  23472778.447 7 123350783.50507
                  23472783.056 8  92112913.00008  23472781.289 8 100122164.28108
  23472780.980 8  94515818.32608  23472781.984 8  93314366.73708
  36978944.880 7 194325673.13207
                  36978946.979 6 145113332.34006

  25449547.338 5 133738244.22805 104211629.88602  25449556.004 2  25449546.484 2


  26696149.803 7 140289526.98807
                  26696154.687 7 104761865.25507  26696153.671 7 113871517.48307
  26696152.374 7 107494758.76907  26696153.622 7 106128309.58407
  22207113.317 7 116699581.68807  90934921.37405  22207118.431 5  22207113.148 5
  22207119.043 7  22207116.407 7  87146049.28307

  28445734.465 5 149483366.35205
                  28445744.714 6 111627232.59006  28445739.501 5 121333927.70605
  28445742.094 6 114539235.05606  28445743.499 6 113083240.39906
  21987826.123 7 115546885.36107  90036589.42606  21987830.150 6  21987825.538 6
  21987830.537 7  21987829.012 7  86285070.27607

  24903931.934 6 130871074.28806 101977517.58303  24903939.681 3  24903931.581 3
  24903940.539 5

  28094336.816 6 147636713.51806
                  28094349.663 6 110248220.07506  28094345.872 6 119835014.54206
  28094347.196 6 113124254.95706  28094348.396 6 111686241.59006
 25  4 11  2  8 30.0000000  0 27G18G15E29G23R22R21G10R08R06E33R23G24
                                R07E13E26G08S33S31E07S35G16E08G32E31
                                G27G29E23
  20971908.059 7 110208440.47607  85876859.92106  20971910.176 6  20971907.831 6
  20971910.538 7  20971913.221 8  82298716.75808

  22896585.503 7 120322854.90907  93758319.36105  22896588.832 5  22896585.164 5
  22896589.133 6

  24666887.777 7 129625824.57907
                  24666891.958 7  96798786.15207  24666892.616 7 105215970.43007
  24666890.393 7  99323935.40207  24666891.035 8  98061255.85008
  20842376.388 8 109527887.39808  85346682.72306  20842377.948 6  20842376.116 6
  20842378.083 7  20842380.937 8  81790591.49608

  19214724.210 8 102569635.56308  79776467.30107
  19214728.636 7

  20932045.077 8 112011862.21708  87120498.33807
  20932052.917 7

  21524147.098 8 113110493.15008  88138251.04106  21524150.714 6  21524146.790 6
  21524150.608 7  21524147.911 8  84465840.51408

  20488253.862 8 109714069.42308  85333354.99507
  20488260.797 7

  21961201.420 6 117189247.22606


  25990213.755 7 136579674.00407
                  25990217.733 7 101991431.77807  25990218.416 7 110860218.58707
  25990215.974 7 104652058.97307  25990216.836 7 103321748.45107
  21735170.797 7 116268591.66707


  22762640.795 7 119618668.68607  93209459.82105  22762645.846 5  22762640.550 5
  22762646.088 6  22762645.975 7  89325755.69507

  19288578.174 8 103253766.05308  80308739.27608
  19288584.104 8

  25055869.756 7 131669561.58907
                  25055876.185 7  98324741.30007  25055873.554 7 106874688.00807
  25055873.907 7 100889719.15607  25055875.063 8  99607230.30208
  23466392.917 8 123317065.45408
                  23466395.003 8  92087630.37808  23466396.373 8 100095178.25108
  23466393.339 8  94489886.76208  23466394.029 8  93288764.14308
  24435749.938 6 128410759.47406 100060372.91303  24435757.055 3  24435749.371 3
  24435757.752 6  24435755.696 7  95891188.48107

  37105673.020 7 194991637.96207
                  37105673.057 6 145610635.02306

  36827716.434 7 193530978.99207
                  36827725.254 7 144519913.64407

  23473600.663 8 123355105.30708
                  23473605.428 8  92116140.32908  23473603.608 8 100125672.24408
  23473603.405 8  94519129.84408  23473604.400 8  93317636.16108
  36978953.483 7 194325721.53807
                  36978956.168 6 145113368.44906

  25455870.011 5 133771468.69005 104237518.97902  25455878.530 2  25455869.157 2


  26703259.460 7 140326888.00907
                  26703264.247 7 104789764.69707  26703263.033 7 113901842.97407
  26703261.990 7 107523386.02207  26703263.184 7 106156572.93107
  22199091.106 7 116657425.82707  90902072.70105  22199096.465 5  22199090.941 5
  22199097.032 7  22199094.349 7  87114569.32407

  28448926.469 6 149500139.52506
                  28448936.725 6 111639757.98206  28448931.507 5 121347542.29905
  28448933.615 6 114552087.22106  28448935.200 6 113095929.18106
  21985086.455 7 115532488.62507  90025371.19906  21985090.526 6  21985085.888 6
  21985091.210 7  21985089.338 7  86274319.48007

  24914836.859 6 130928378.94106 102022170.44803  24914844.466 3  24914836.511 3
  24914843.942 5

  28100408.499 6 147668622.32006
                  28100421.683 6 110272047.96806  28100418.384 6 119860914.48106
  28100419.605 6 113148704.44606  28100420.489 6 111710380.28206
 25  4 11  2  8 45.0000000  0 28G18E19G15E29G23R22R21G10R08R06E33R23
                                G24R07E13E26G08S33S31E07S35G16E08G32
                                E31G27G29E23
  20975275.513 7 110226135.44007  85890648.19606  20975277.416 6  20975275.290 6
  20975277.726 7  20975280.462 8  82311930.52108


                  28055567.432 5 110096072.86515  28055562.881 5 119669623.27215

  22906366.722 7 120374253.90707  93798370.49505  22906369.724 5  22906366.383 5
  22906370.128 6

  24660227.484 7 129590824.84407
                  24660231.710 7  96772650.03507  24660232.515 7 105187561.58307
  24660230.093 7  99297117.46707  24660230.750 8  98034778.82508
  20845085.607 8 109542123.15508  85357775.51906  20845086.924 6  20845085.339 6
  20845087.105 7  20845089.877 8  81801222.09008

  19211616.097 8 102553043.92408  79763562.69207
  19211620.393 7

  20940138.354 8 112055172.07008  87154183.74107
  20940146.519 7

  21521754.277 8 113097918.45408  88128452.59206  21521757.824 6  21521753.964 6
  21521757.930 7  21521754.966 8  84456450.33808

  20482035.445 8 109680765.47608  85307451.97207
  20482041.520 7

  21971280.573 6 117243029.96106


  25984046.281 7 136547263.08407
                  25984050.118 7 101967228.86407  25984050.866 7 110833911.05907
  25984048.306 7 104627224.67607  25984049.208 7 103297229.84507
  21724863.019 7 116213452.65607


  22760006.646 7 119604826.13207  93198673.44505  22760011.617 5  22760006.405 5
  22760012.188 6  22760011.606 7  89315418.75507

  19292098.155 8 103272607.11608  80323393.43708
  19292104.082 8

  25059779.152 7 131690104.28707
                  25059785.384 7  98340081.62007  25059782.480 7 106891362.27407
  25059782.981 7 100905459.66107  25059784.222 8  99622770.71408
  23464408.560 8 123306637.21208
                  23464410.543 8  92079843.06708  23464411.880 8 100086713.77508
  23464408.842 8  94481896.30508  23464409.594 8  93280875.25908
  24428365.714 6 128371955.75006 100030136.29903  24428372.524 3  24428365.164 3
  24428373.848 6  24428371.422 7  95862211.73507

  37105674.348 7 194991646.21307
                  37105674.685 6 145610641.09306

  36827713.997 7 193530971.97807
                  36827723.939 7 144519908.51807

  23474442.296 8 123359526.80308
                  23474446.857 8  92119442.10408  23474444.976 8 100129261.12008
  23474444.807 8  94522517.75108  23474445.785 8  93320981.00208
  36978963.688 7 194325770.39507
                  36978965.509 6 145113404.84606

  25462195.575 5 133804707.69205 104263419.40902  25462203.801 2  25462194.699 2


  26710377.507 7 140364293.12007
                  26710382.373 7 104817697.06307  26710380.999 7 113932204.24907
  26710379.992 7 107552047.06407  26710381.104 7 106184869.63707
  22191084.503 7 116615351.80507  90869287.79505  22191090.012 5  22191084.343 5
  22191090.576 7  22191087.888 7  87083150.45507

  28452131.372 6 149516983.32306
                  28452141.786 6 111652336.10306  28452137.128 5 121361214.17805
  28452139.108 6 114564993.44706  28452140.419 6 113108671.34906
  21982374.125 7 115518235.23107  90014264.67006  21982378.201 6  21982373.558 6
  21982378.829 7  21982377.007 7  86263675.72407

  24925740.457 6 130985675.69706 102066817.15503  24925747.923 3  24925740.118 3
  24925748.315 5

  28106480.963 6 147700532.65006
                  28106494.456 6 110295877.00006  28106491.364 6 119886815.63706
  28106492.030 6 113173155.11906  28106492.804 6 111734520.13706
 25  4 11  2  9  0.0000000  0 28G18E19G15E29G23R22R21G10R08R06E33R23
                                G24R07E13E26G08S33S31E07S35G16E08G32
                                E31G27G29E23
  20978661.507 7 110243927.38307  85904512.04506  20978663.145 6  20978661.284 6
  20978663.264 7  20978666.176 8  82325216.70508


                  28046961.418 5 110062305.06705  28046956.803 5 119632918.93605

  22916156.799 7 120425701.75007  93838459.69805  22916159.791 5  22916156.451 5
  22916160.186 6

  24653579.232 7 129555889.52507
                  24653583.727 7  96746562.01107  24653584.445 7 105159205.02207
  24653582.137 7  99270348.87907  24653582.735 8  98008350.51808
  20847801.024 8 109556393.83408  85368895.52906  20847802.549 6  20847800.756 6
  20847802.711 7  20847805.531 8  81811878.76808

  19208535.912 8 102536600.88908  79750773.68107
  19208539.902 7

  20948254.867 8 112098606.87508  87187966.34907
  20948263.161 7

  21519368.668 8 113085382.78108  88118684.54506  21519372.365 6  21519368.355 6
  21519372.265 7  21519369.495 8  84447089.29408

  20475840.248 8 109647593.05008  85281651.22407
  20475846.717 7

  21981363.146 6 117296836.83406


  25977877.966 7 136514848.65707
                  25977881.846 7 101943023.33707  25977882.609 7 110807600.68407
  25977880.123 7 104602387.68507  25977880.944 7 103272708.58407
  21714563.547 7 116158357.03007


  22757397.568 7 119591115.16307  93187989.60205  22757402.408 5  22757397.336 5
  22757403.253 6  22757402.597 7  89305180.08607

  19295642.555 8 103291581.41908  80338151.22608
  19295648.435 8

  25063697.936 7 131710697.20707
                  25063704.032 7  98355459.43607  25063701.367 7 106908077.29307
  25063701.836 7 100921238.64007  25063702.933 8  99638349.11308
  23462431.927 8 123296250.70508
                  23462434.043 8  92072086.92008  23462435.553 8 100078283.17908
  23462432.364 8  94473937.82008  23462433.097 8  93273017.94308
  24420998.139 6 128333239.99706  99999968.23003  24421004.855 3  24420997.558 3
  24421005.614 6  24421003.967 7  95833300.69607

  37105673.901 7 194991654.22407
                  37105676.205 6 145610647.02006

  36827714.422 7 193530964.61907
                  36827722.602 7 144519902.93707

  23475302.341 8 123364047.30008
                  23475307.032 8  92122817.80708  23475305.149 8 100132930.36508
  23475305.028 8  94525981.51808  23475306.009 8  93324400.73708
  36978972.179 7 194325819.85907
                  36978974.859 6 145113441.91706

  25468523.538 5 133837960.18405 104289330.36202  25468531.867 2  25468522.689 2


  26717503.625 7 140401741.48007
                  26717508.520 7 104845661.71207  26717507.446 7 113962600.61307
  26717506.358 7 107580741.23007  26717507.337 7 106213199.04407
  22183093.657 7 116573359.19007  90836566.32205  22183099.039 5  22183093.505 5
  22183099.420 7  22183096.950 7  87051792.39407

  28455350.091 5 149533896.87605
                  28455360.541 6 111664966.32906  28455356.125 6 121374942.69506
  28455357.795 6 114577953.15206  28455358.981 6 113121466.31906
  21979689.176 7 115504124.67807  90003269.44606  21979693.081 6  21979688.613 6
  21979693.567 7  21979691.919 7  86253138.64107

  24936642.035 6 131042963.83106 102111457.16203  24936649.341 3  24936641.705 3
  24936649.667 5

  28112553.525 6 147732443.58706
                  28112566.778 6 110319706.49206  28112563.121 6 119912717.28706
  28112564.203 6 113197606.25806  28112565.518 6 111758660.45306
 25  4 11  2  9 15.0000000  0 28G18E19G15E29G23R22R21G10R08R06E33R23
                                G24R07E13E26G08S33S31E07S35G16E08G32
                                E31G27G29E23
  20982065.421 7 110261815.68407  85918450.97506  20982067.212 6  20982065.198 6
  20982067.277 7  20982070.209 8  82338574.84508


                  28038356.306 5 110028538.89805  28038351.576 5 119596216.31905

  22925956.039 7 120477197.47907  93878586.20405  22925959.133 5  22925955.691 5
  22925959.220 6

  24646943.225 7 129521018.10807
                  24646947.875 7  96720521.71007  24646948.469 7 105130900.32907
  24646946.329 7  99243629.26507  24646946.887 8  97981970.56008
  20850523.281 8 109570698.70808  85380042.18006  20850524.699 6  20850523.022 6
  20850524.807 7  20850527.629 8  81822560.97108

  19205483.373 8 102520306.09408  79738099.96707
  19205487.670 7

  20956395.571 8 112142165.56708  87221845.29107
  20956403.331 7

  21516990.396 8 113072885.33508  88108946.28607  21516994.150 7  21516990.075 7
  21516994.115 7  21516991.279 8  84437756.79608

  20469670.436 8 109614551.77508  85255952.50207
  20469677.040 7

  21991450.874 6 117350666.89106


  25971708.559 7 136482430.20207
                  25971712.843 7 101918814.76407  25971713.657 7 110781287.01307
  25971710.948 7 104577547.59807  25971711.889 8 103248184.25408
  21704272.098 7 116103304.55707


  22754812.900 7 119577535.36707  93177407.97005  22754818.185 5  22754812.672 5
  22754818.719 7  22754818.331 7  89295039.35407

  19299211.802 8 103310687.84608  80353011.78808
  19299217.646 8

  25067626.093 7 131731339.73707
                  25067632.240 7  98370874.30307  25067629.486 7 106924832.59407
  25067629.840 7 100937055.63907  25067631.071 8  99653965.04308
  23460463.380 8 123285905.40108
                  23460465.369 8  92064361.53708  23460466.898 8 100069886.02008
  23460463.717 8  94466010.90608  23460464.465 8  93265191.79408
  24413647.028 6 128294611.86306  99969868.43403  24413654.277 3  24413646.443 3
  24413655.543 6  24413653.248 7  95804455.07607

  37105678.064 7 194991661.66907
                  37105677.466 6 145610652.67506

  36827711.868 7 193530957.15707
                  36827721.104 7 144519897.49207

  23476181.280 8 123368666.04808
                  23476185.952 8  92126266.88708  23476183.969 8 100136679.35508
  23476183.983 8  94529520.56808  23476184.929 8  93327894.80208
  36978981.328 7 194325868.40907
                  36978984.066 6 145113478.15806

  25474853.692 6 133871225.08706 104315250.97202  25474861.797 2  25474852.843 2


  26724638.043 7 140439232.16607
                  26724642.791 7 104873657.99307  26724641.984 7 113993031.36507
  26724640.648 7 107609467.85007  26724641.645 7 106241560.49407
  22175117.842 7 116531447.55007  90803907.94605  22175123.301 5  22175117.695 5
  22175123.740 7  22175121.424 7  87020494.79707

  28458581.619 5 149550879.39905
                  28458592.161 6 111677648.03706  28458587.057 6 121388727.17206
  28458589.608 6 114590965.69606  28458590.819 6 113134313.44306
  21977031.187 7 115490156.38207  89992385.07506  21977034.952 6  21977030.624 6
  21977035.589 7  21977033.857 7  86242707.77907

  24947541.847 6 131100242.10106 102156089.52403  24947549.337 3  24947541.512 3
  24947549.197 5

  28118626.019 6 147764354.22106
                  28118639.138 6 110343535.75206  28118635.602 6 119938618.72306
  28118637.091 6 113222057.18906  28118637.959 6 111782800.54706
 25  4 11  2  9 30.0000000  0 28G18E19G15E29G23R22R21G10R08R06E33R23
                                G24R07E13E26G08S33S31E07S35G16E08G32
                                E31G27G29E23
  20985487.720 8 110279801.37108  85932465.78806  20985489.792 6  20985487.492 6
  20985489.950 7  20985492.829 8  82352005.70308


                  28029751.346 5 109994775.11405  28029746.859 5 119559516.30405

  22935765.139 7 120528741.70607  93918750.51305  22935767.418 5  22935764.809 5
  22935768.400 6

  24640320.140 7 129486211.73007
                  24640324.400 7  96694529.99007  24640325.069 7 105102648.44107
  24640322.780 7  99216959.48907  24640323.399 8  97955639.81208
  20853252.233 8 109585038.66108  85391216.16806  20853253.511 6  20853251.979 6
  20853253.538 7  20853256.457 8  81833269.37908

  19202458.622 8 102504160.89908  79725542.59007
  19202463.067 7

  20964558.494 8 112185848.99708  87255821.27707
  20964566.820 7

  21514619.838 8 113060427.05008  88099238.54006  21514623.453 6  21514619.512 6
  21514623.196 7  21514620.544 8  84428453.54508

  20463524.603 8 109581642.65908  85230356.55107
  20463530.653 7

  22001544.044 6 117404520.61506


  25965538.975 7 136450008.77007
                  25965543.158 7 101894603.99707  25965543.888 7 110754970.94807
  25965541.397 7 104552705.23907  25965542.253 7 103223657.69107
  21693988.470 7 116048296.65607


  22752253.832 7 119564087.95507  93166929.49705  22752259.286 5  22752253.596 5
  22752259.719 7  22752259.285 7  89284997.49207

  19302805.981 8 103329927.07108  80367975.63008
  19302811.727 8

  25071563.740 7 131752032.91507
                  25071570.042 7  98386326.98607  25071567.235 7 106941628.98107
  25071567.526 7 100952911.43207  25071568.866 8  99669619.28208
  23458502.615 8 123275602.42008
                  23458504.820 8  92056667.76708  23458506.240 8 100061523.22208
  23458503.131 8  94458116.42608  23458503.873 8  93257397.67008
  24406314.020 6 128256072.58506  99939837.88103  24406320.811 3  24406313.453 3
  24406321.801 6  24406319.764 7  95775675.80507

  37105679.463 7 194991670.10607
                  37105679.085 6 145610658.96406

  36827710.428 7 193530949.60607
                  36827719.655 7 144519891.85807

  23477079.156 7 123373383.93507
                  23477083.731 8  92129789.99208  23477081.674 8 100140508.81708
  23477081.710 8  94533135.57908  23477082.710 8  93331463.86008
  36978990.473 7 194325917.28607
                  36978993.421 6 145113514.54706

  25481185.601 5 133904503.07605 104341181.78602  25481194.491 2  25481184.694 2


  26731780.276 6 140476765.99406
                  26731785.246 7 104901686.47007  26731784.117 7 114023497.10707
  26731782.951 7 107638227.51207  26731784.069 7 106269954.56407
  22167158.281 7 116489618.10207  90771313.62605  22167163.357 5  22167158.147 5
  22167163.854 7  22167161.400 7  86989258.58307

  28461826.587 5 149567931.64605
                  28461837.182 6 111690381.82006  28461832.148 6 121402568.23806
  28461834.212 6 114604031.67606  28461835.782 6 113147213.32606
  21974400.203 7 115476331.44207  89981612.40606  21974404.140 6  21974399.631 6
  21974404.839 7  21974402.965 7  86232383.97807

  24958439.620 6 131157511.18806 102200714.70003  24958447.003 3  24958439.290 3
  24958447.638 5

  28124698.607 6 147796265.32306
                  28124711.834 6 110367365.37506  28124708.385 6 119964520.50806
  28124709.438 6 113246508.43206  28124710.391 6 111806940.98106
 25  4 11  2  9 45.0000000  0 28G18E19G15E29G23R22R21G10R08R06E33R23
                                G24R07E13E26G08S33S31E07S35G16E08G32
                                E31G27G29E23
  20988929.155 8 110297886.27808  85946557.91206  20988931.224 6  20988928.923 6
  20988931.409 7  20988934.207 8  82365510.65608


                  28021147.831 5 109961015.26405  28021143.116 5 119522820.52505
                                  28021145.507 5 111395281.84715
  22945582.851 7 120580335.76707  93958953.64805  22945585.635 5  22945582.521 5
  22945586.231 6

  24633709.262 7 129451472.27907
                  24633713.766 7  96668588.23307  24633714.317 7 105074450.86507
  24633712.047 7  99190340.98007  24633712.651 8  97929359.67908
  20855987.901 8 109599415.36608  85402418.79406  20855989.290 6  20855987.642 6
  20855989.312 7  20855992.247 8  81844005.22908

  19199462.722 8 102488167.40908  79713103.22107
  19199466.631 7

  20972745.655 8 112229658.69508  87289895.44807
  20972753.777 7

  21512256.836 8 113048009.60808  88089562.62806  21512260.464 6  21512256.492 6
  21512260.385 7  21512257.516 8  84419180.79608

  20457404.621 8 109548867.50108  85204864.80807
  20457410.198 7

  22011640.118 6 117458399.51806


  25959369.360 7 136417586.25107
                  25959373.285 7 101870392.41807  25959374.292 7 110728653.99107
  25959371.600 7 104527862.03407  25959372.424 7 103199130.29707
  21683714.141 7 115993335.74107


  22749720.195 7 119550774.91307  93156555.72805  22749725.803 5  22749719.950 5
  22749725.773 6  22749725.942 7  89275055.96007

  19306424.922 8 103349300.44008  80383043.81908
  19306430.981 8

  25075511.333 7 131772778.50507
                  25075517.747 7  98401818.81207  25075515.051 7 106958467.92407
  25075515.314 7 100968807.38807  25075516.620 8  99685313.17308
  23456550.723 8 123265343.67508
                  23456552.610 8  92049007.01708  23456554.069 8 100053196.32108
  23456550.967 8  94450255.83508  23456551.688 8  93249636.99908
  24398997.452 6 128217624.20106  99909878.17203  24399004.633 3  24398996.867 3
  24399005.157 6  24399003.255 7  95746964.43007

  37105682.043 7 194991679.76807
                  37105680.874 6 145610666.01106

  36827709.324 7 193530944.29107
                  36827718.734 7 144519887.86007

  23477995.967 7 123378202.62607
                  23478000.676 8  92133388.37508  23477998.738 8 100144420.10008
  23477998.736 8  94536827.83408  23477999.665 8  93335109.17908
  36979001.602 7 194325968.43407
                  36979003.210 6 145113552.94306

  25487521.451 5 133937795.47405 104367123.81702  25487530.056 2  25487520.575 2


  26738931.147 6 140514344.45906
                  26738936.244 7 104929748.29407  26738934.713 7 114053999.10307
  26738933.908 7 107667021.39307  26738935.057 7 106298382.41907
  22159214.439 7 116447872.79407  90738784.86405  22159219.506 5  22159214.301 5
  22159219.800 7  22159217.521 7  86958085.19307

  28465084.907 6 149585055.14506
                  28465095.716 6 111703168.83106  28465090.662 6 121416467.17506
  28465092.928 6 114617152.26806  28465094.213 6 113160167.12706
  21971796.903 7 115462651.70807  89970952.88506  21971800.994 6  21971796.327 6
  21971801.585 7  21971799.786 7  86222168.60707

  24969336.409 6 131214772.63906 102245333.95003  24969343.055 3  24969336.079 3
  24969344.334 5

  28130771.616 6 147828178.32906
                  28130784.956 6 110391196.40906  28130781.573 6 119990423.85006
  28130782.226 6 113270961.17806  28130783.356 6 111831082.87306
 25  4 11  2 10  0.0000000  0 28G18E19G15E29G23R22R21G10R08R06E33R23
                                G24R07E13E26G08S33S31E07S35G16E08G32
                                E31G27G29E23
  20992389.454 7 110316069.56707  85960726.70206  20992391.357 6  20992389.213 6
  20992391.569 8  20992394.371 8  82379089.07708


                  28012545.062 5 109927258.71205  28012540.184 5 119486128.41605
                                  28012542.741 5 111361084.95405
  22955410.267 7 120631978.53007  93999194.73305  22955413.045 5  22955409.946 5
  22955413.133 6

  24627111.092 7 129416799.06107
                  24627115.528 7  96642695.93707  24627116.048 7 105046307.04707
  24627113.968 7  99163773.22607  24627114.499 8  97903129.65408
  20858730.196 8 109613827.88508  85413649.32906  20858731.883 6  20858729.937 6
  20858732.170 7  20858734.889 8  81854767.82808

  19196494.460 8 102472325.11808  79700781.44507
  19196499.287 7

  20980956.034 8 112273593.56908  87324066.98007
  20980963.847 7

  21509901.467 8 113035632.02808  88079917.78107  21509905.068 7  21509901.132 7
  21509904.856 7  21509902.115 8  84409937.82008

  20451308.362 8 109516225.76108  85179476.82207
  20451315.203 7

  22021741.881 6 117512302.31506


  25953199.141 7 136385161.86807
                  25953203.289 7 101846179.43007  25953204.054 7 110702335.51207
  25953201.376 7 104503017.41107  25953202.261 8 103174601.49308
  21673449.108 7 115938421.14207


  22747212.342 7 119537595.64207  93146286.19305  22747217.729 5  22747212.092 5
  22747218.410 6  22747217.988 7  89265214.33107

  19310069.091 8 103368806.69108  80398215.34308
  19310074.802 8

  25079469.169 7 131793575.70707
                  25079475.362 7  98417349.17107  25079472.545 7 106975348.76007
  25079473.007 7 100984742.90107  25079474.194 8  99701046.11108
  23454606.549 8 123255128.43708
                  23454608.728 8  92041378.76708  23454610.085 8 100044904.73708
  23454607.088 8  94442428.58408  23454607.793 8  93241909.24908
  24391698.141 6 128179266.16206  99879988.85303  24391705.975 3  24391697.538 3
  24391705.363 6  24391703.505 7  95718320.49507

  37105683.676 7 194991691.02007
                  37105683.118 6 145610674.50706

  36827708.112 7 193530940.58807
                  36827717.759 7 144519885.22007

  23478931.995 7 123383121.16807
                  23478936.649 8  92137061.31808  23478934.676 8 100148412.43008
  23478934.677 8  94540596.59608  23478935.634 8  93338830.03108
  36979011.914 7 194326020.41907
                  36979013.123 6 145113591.66306

  25493859.192 5 133971101.10305 104393076.17902  25493868.040 2  25493858.329 2


  26746090.553 7 140551966.52907
                  26746095.494 7 104957842.66707  26746094.025 7 114084536.46907
  26746093.420 7 107695848.65807  26746094.384 7 106326843.23807
  22151285.710 7 116406211.01807  90706321.19105  22151291.511 5  22151285.563 5
  22151291.851 7  22151289.494 7  86926974.18207

  28468356.561 5 149602248.89605
                  28468367.736 6 111716008.29206  28468362.456 5 121430423.12605
  28468364.656 6 114630326.66106  28468366.135 6 113173174.05506
  21969221.224 7 115449116.37507  89960405.88606  21969225.205 6  21969220.652 6
  21969225.739 7  21969224.007 7  86212061.06807

  24980230.963 6 131272025.19006 102289946.24303  24980238.190 3  24980230.624 3
  24980239.288 5

  28136844.160 6 147860092.18206
                  28136857.824 6 110415028.06506  28136854.487 6 120016327.88406
  28136855.577 6 113295414.53606  28136856.517 6 111855225.38006
 25  4 11  2 10 15.0000000  0 28G18E19G15E29G23R22R21G10R08R06E33R23
                                G24R07E13E26G08S33S31E07S35G16E08G32
                                E31G27G29E23
  20995867.239 7 110334345.08807  85974967.36106  20995869.068 6  20995867.007 6
  20995869.276 7  20995872.110 8  82392736.37308


                  28003942.153 5 109893500.95305  28003937.093 5 119449435.00005
                                  28003939.674 5 111326886.85205
  22965245.752 7 120683663.50507  94039468.71005  22965248.468 5  22965245.444 5
  22965248.710 6

  24620524.523 7 129382186.00207
                  24620528.811 7  96616848.56707  24620529.634 7 105018212.06307
  24620527.220 7  99137251.57507  24620527.808 8  97876945.14508
  20861478.570 8 109628269.91808  85424902.86306  20861480.085 6  20861478.316 6
  20861480.299 7  20861483.054 8  81865552.46808

  19193554.330 8 102456627.99408  79688572.58207
  19193558.414 7

  20989188.297 8 112317646.96008  87358330.71807
  20989195.941 7

  21507552.662 8 113023288.02408  88070299.09307  21507556.040 7  21507552.332 7
  21507555.993 7  21507553.145 8  84400719.91608

  20445236.571 8 109483710.94608  85154187.56007
  20445242.878 7

  22031845.156 6 117566222.28706


  25947027.375 7 136352729.50107
                  25947031.556 7 101821960.49307  25947032.043 7 110676010.57007
  25947029.628 7 104478166.67107  25947030.549 8 103150066.65508
  21663190.656 7 115883547.07507


  22744729.040 7 119524544.14607  93136116.22205  22744733.912 5  22744728.812 5
  22744734.984 6  22744734.270 7  89255468.11407

  19313736.368 8 103388439.35408  80413485.19008
  19313742.091 8

  25083435.261 7 131814418.35407
                  25083441.630 7  98432913.48007  25083438.898 7 106992266.48907
  25083439.182 7 101000713.23007  25083440.434 8  99716813.42908
  23452669.876 8 123244950.63208
                  23452671.977 8  92033778.46508  23452673.391 8 100036643.53108
  23452670.272 8  94434630.01208  23452671.022 8  93234209.81208
  24384414.622 6 128140992.47906  99850165.25903  24384422.752 3  24384414.014 3
  24384422.604 6  24384420.143 7  95689739.57207

  37105682.983 7 194991697.63307
                  37105684.286 6 145610679.54106

  36827707.401 7 193530931.62207
                  36827716.176 7 144519878.40507

  23479885.870 8 123388133.26408
                  23479890.424 8  92140804.13408  23479888.499 8 100152480.69808
  23479888.473 8  94544437.04508  23479889.396 8  93342621.66408
  36979019.431 7 194326067.87207
                  36979022.048 6 145113627.10906

  25500197.383 5 134004413.34205 104419033.67802  25500207.106 2  25500196.556 2


  26753256.751 7 140589625.72407
                  26753261.639 7 104985964.76307  26753260.771 7 114115103.97407
  26753259.713 7 107724704.37907  26753260.700 7 106355332.14407
  22143372.721 7 116364626.76007  90673917.92506  22143378.139 6  22143372.578 6
  22143378.639 7  22143376.253 7  86895921.06607

  28471640.975 6 149619506.47706
                  28471651.718 6 111728895.38906  28471646.083 5 121444430.86205
  28471648.919 6 114643549.93706  28471650.220 6 113186229.24306
  21966671.873 7 115435719.33107  89949966.64306  21966675.781 6  21966671.297 6
  21966676.647 7  21966674.670 7  86202056.79907

  24991123.084 6 131329262.39106 102334546.57603  24991130.633 3  24991122.740 3
  24991130.495 5

  28142916.158 6 147892000.38806
                  28142929.641 6 110438855.52206  28142926.284 6 120042227.30706
  28142927.618 6 113319863.58906  28142928.515 6 111879363.62906
 25  4 11  2 10 30.0000000  0 28G18E19G15E29G23R22R21G10R08R06E33R23
                                G24R07E13E26G08S33S31E07S35G16E08G32
                                E31G27G29E23
  20999363.877 7 110352721.28907  85989286.47006  20999365.917 6  20999363.658 6
  20999366.235 7  20999369.014 8  82406458.85508

  27995322.677 5 147116414.66215
                  27995340.035 5 109859748.41905  27995335.831 5 119412747.23605
                                  27995337.824 5 111292694.05805
  22975090.759 7 120735398.67407  94079781.80205  22975093.335 5  22975090.464 5
  22975093.543 6

  24613950.919 7 129347641.66307
                  24613955.162 7  96591052.52207  24613955.863 7 104990172.86807
  24613953.662 7  99110782.58307  24613954.192 8  97850812.62508
  20864233.927 8 109642749.80608  85436185.89206  20864235.507 6  20864233.673 6
  20864235.918 7  20864238.473 8  81876365.36608

  19190642.776 8 102441084.93108  79676483.54507
  19190646.838 7

  20997444.567 8 112361827.43808  87392693.26807
  20997452.791 7

  21505211.396 8 113010985.93008  88060713.05506  21505214.993 6  21505211.066 6
  21505214.833 7  21505212.118 8  84391533.29808

  20439189.923 8 109451331.80708  85129003.81707
  20439195.817 7

  22041955.424 6 117620167.58006


  25940855.734 7 136320297.67107
                  25940859.898 7 101797741.96207  25940860.674 7 110649686.06607
  25940858.078 7 104453316.35107  25940858.946 8 103125532.23008
  21652941.173 7 115828722.64507


  22742271.215 7 119511629.14407  93126052.61305  22742276.206 5  22742270.979 5
  22742277.399 7  22742276.757 7  89245823.81507

  19317428.997 8 103408206.60608  80428859.72507
  19317434.997 7

  25087411.864 7 131835314.90507
                  25087418.164 7  98448518.03707  25087415.346 7 107009227.97307
  25087415.721 7 101016724.86207  25087416.918 8  99732621.52408
  23450741.804 8 123234818.83008
                  23450743.953 8  92026212.52108  23450745.423 8 100028419.67908
  23450742.259 8  94426866.69208  23450742.992 8  93226545.17908
  24377149.408 6 128102811.86806  99820414.19303  24377156.558 3  24377148.787 3
  24377156.653 6  24377154.562 7  95661228.15107

  37105685.469 7 194991707.23607
                  37105686.123 6 145610686.59606

  36827703.976 7 193530925.83007
                  36827715.130 7 144519873.98407

  23480858.923 8 123393247.23708
                  23480863.489 8  92144623.01708  23480861.576 8 100156631.65408
  23480861.669 8  94548355.55208  23480862.541 8  93346490.35908
  36979029.192 7 194326118.60107
                  36979031.797 6 145113664.89506

  25506540.454 6 134037740.24206 104445002.59902  25506549.230 2  25506539.614 2


  26760431.869 7 140627330.27007
                  26760436.703 7 105014120.73607  26760435.652 7 114145708.30607
  26760434.543 7 107753594.85807  26760435.620 7 106383855.36807
  22135476.113 7 116323128.65007  90641581.78706  22135481.352 6  22135475.970 6
  22135481.683 7  22135479.303 7  86864932.27407

  28474938.346 6 149636836.12306
                  28474949.279 6 111741836.30406  28474944.138 5 121458497.09805
  28474946.028 6 114656828.47506  28474947.871 6 113199338.96606
  21964150.240 7 115422469.12407  89939641.81506  21964154.430 6  21964149.641 6
  21964154.694 7  21964153.275 8  86192162.17308

  25002013.243 6 131386492.28406 102379141.19403  25002021.127 3  25002012.922 3
  25002022.412 5

  28148988.980 6 147923911.10906
                  28149002.662 6 110462684.84206  28148998.931 6 120068128.80006
  28149000.124 6 113344314.57406  28149001.063 6 111903503.78606
 25  4 11  2 10 45.0000000  0 28G18E19G15E29G23R22R21G10R08R06E33R23
                                G24R07E13E26G08S33S31E07S35G16E08G32
                                E31G27G29E23
  21002879.683 7 110371195.71507  86003682.11506  21002881.533 6  21002879.473 6
  21002881.902 8  21002884.653 8  82420254.67508

  27986721.879 5 147071219.51405
                  27986739.111 5 109825999.32805  27986734.598 5 119376063.27905
                                  27986737.128 5 111258504.73205
  22984944.169 7 120787181.25307  94120131.82905  22984947.307 5  22984943.874 5
  22984947.600 6

  24607390.063 7 129313163.70707
                  24607394.310 7  96565306.03607  24607394.875 7 104962187.53907
  24607392.648 7  99084364.44407  24607393.204 8  97824730.31208
  20866996.037 8 109657264.95508  85447496.39506  20866997.655 6  20866995.778 6
  20866997.605 7  20867000.669 8  81887204.60308

  19187759.451 8 102425693.73108  79664512.61707
  19187763.664 7

  21005724.418 8 112406132.14608  87427152.46507
  21005732.163 7

  21502877.963 8 112998723.21008  88051157.70907  21502881.424 7  21502877.633 7
  21502881.524 7  21502878.597 8  84382376.09008

  20433167.969 8 109419085.78208  85103923.63407
  20433174.375 7

  22052068.887 6 117674135.14006


  25934683.698 7 136287863.99407
                  25934687.824 7 101773522.04307  25934688.634 7 110623360.05307
  25934686.090 7 104428464.60007  25934686.975 8 103100996.39508
  21642701.606 7 115773945.61407


  22739839.071 7 119498848.30107  93116093.54505  22739844.211 5  22739838.857 5
  22739845.176 7  22739844.582 7  89236279.71507

  19321146.241 8 103428105.14408  80444336.36608
  19321152.030 8

  25091398.127 7 131856262.90607
                  25091404.398 7  98464161.01507  25091401.464 7 107026231.20107
  25091402.137 7 101032775.92307  25091403.195 8  99748468.54308
  23448822.109 8 123224730.66908
                  23448824.229 8  92018679.16308  23448825.752 8 100020231.24308
  23448822.558 8  94419136.81408  23448823.285 8  93218913.56108
  24369900.086 6 128064722.11606  99790733.92103  24369907.767 3  24369899.465 3
  24369908.461 6  24369906.123 7  95632784.56107

  37105688.876 7 194991717.87807
                  37105688.145 6 145610694.60206

  36827703.837 7 193530921.41007
                  36827714.244 7 144519870.88807

  23481850.898 8 123398460.50208
                  23481855.547 8  92148516.04308  23481853.613 8 100160863.20508
  23481853.711 8  94552350.13608  23481854.589 8  93350434.16308
  36979037.979 7 194326170.21307
                  36979041.661 6 145113703.44506

  25512884.725 5 134071078.96405 104470980.71502  25512893.609 2  25512883.889 2


  26767614.790 7 140665077.42907
                  26767619.832 7 105042308.53007  26767618.602 7 114176347.21707
  26767617.453 7 107782517.98707  26767618.696 7 106412410.83007
  22127594.993 7 116281714.40807  90609310.99406  22127600.345 6  22127594.841 6
  22127600.843 7  22127598.321 7  86834006.10007

  28478249.125 5 149654235.12105
                  28478260.017 6 111754829.03606  28478255.313 5 121472619.61105
  28478257.163 6 114670160.12106  28478258.777 6 113212501.15406
  21961656.503 7 115409363.28307  89929429.48706  21961660.552 6  21961655.909 6
  21961660.768 7  21961659.308 8  86182375.36908

  25012902.346 6 131443712.09506 102423727.97603  25012910.029 3  25012902.002 3
  25012910.677 5

  28155061.389 6 147955821.62106
                  28155074.791 6 110486514.03506  28155071.111 6 120094030.10106
  28155072.680 6 113368765.36906  28155073.424 6 111927643.77906
 25  4 11  2 11  0.0000000  0 28G18E19G15E29G23R22R21G10R08R06E33R23
                                G24R07E13E26G08S33S31E07S35G16E08G32
                                E31G27G29E23
  21006413.436 7 110389765.87207  86018152.35506  21006415.340 6  21006413.222 6
  21006415.556 7  21006418.361 8  82434121.98808

  27978121.973 5 147026026.69305
                  27978138.951 5 109792251.96505  27978133.947 5 119339381.13805
                                  27978136.740 5 111224317.13005
  22994806.835 7 120839008.31907  94160516.53405  22994809.506 5  22994806.540 5
  22994810.259 6

  24600840.841 7 129278749.70407
                  24600845.434 7  96539607.30907  24600846.219 7 104934254.12907
  24600843.756 7  99057995.30707  24600844.392 8  97798696.38108
  20869764.367 8 109671812.75308  85458832.34306  20869765.997 6  20869764.104 6
  20869766.190 7  20869768.965 8  81898068.21208

  19184904.203 8 102410452.14508  79652658.05407
  19184908.414 7

  21014026.290 8 112450558.14608  87461705.99507
  21014034.189 7

  21500551.559 8 112986497.15008  88041630.92507  21500554.816 7  21500551.238 7
  21500554.769 7  21500552.001 8  84373246.26208

  20427170.901 8 109386970.34808  85078944.99507
  20427176.553 7

  22062186.295 6 117728122.19306


  25928511.439 7 136255426.02707
                  25928515.065 7 101749298.91607  25928515.826 7 110597030.55407
  25928513.320 7 104403609.56307  25928514.218 7 103076457.31407
  21632470.356 7 115719214.02707


  22737432.298 7 119486199.35207  93106237.24505  22737437.436 5  22737432.093 5
  22737437.843 7  22737437.453 7  89226834.10007

  19324887.455 8 103448132.59108  80459913.27408
  19324893.512 8

  25095393.786 7 131877259.85107
                  25095400.028 7  98479840.53807  25095397.242 7 107043274.17507
  25095397.668 7 101048864.47507  25095398.787 8  99764352.58108
  23446910.202 8 123214683.75108
                  23446912.326 8  92011176.60308  23446913.824 8 100012076.28808
  23446910.667 8  94411438.53608  23446911.402 8  93211313.14208
  24362670.143 6 128026720.95306  99761122.66503  24362675.893 3  24362669.526 3
  24362677.058 6  24362674.732 7  95604407.11707

  37105690.088 7 194991727.09507
                  37105689.889 6 145610697.63016

  36827703.336 7 193530914.96307
                  36827713.082 7 144519865.96807

  23482861.443 8 123403770.40808
                  23482865.995 8  92152481.24708  23482864.199 8 100165173.20808
  23482864.165 8  94556418.77808  23482865.019 8  93354451.08608
  36979047.629 7 194326220.54107
                  36979051.141 6 145113741.16706

  25519230.247 5 134104426.60705 104496965.82902  25519239.566 2  25519229.380 2


  26774805.508 7 140702864.42607
                  26774810.364 7 105070526.07407  26774809.248 7 114207018.47507
  26774808.271 7 107811471.63807  26774809.364 7 106440996.43107
  22119729.752 7 116240381.70607  90577103.74206  22119734.868 6  22119729.614 6
  22119735.492 7  22119733.049 7  86803140.82907

  28481573.301 5 149671700.72105
                  28481584.270 6 111767871.47506  28481578.782 5 121486796.21505
  28481580.963 6 114683542.83206  28481582.427 6 113225713.72906
  21959189.530 7 115396399.37407  89919327.75306  21959193.612 6  21959188.922 6
  21959193.979 7  21959192.256 8  86172694.53608

  25023788.831 6 131500919.02106 102468304.72503  25023796.127 3  25023788.501 3
  25023796.248 5

  28161133.473 6 147987729.07506
                  28161146.866 6 110510340.92506  28161143.086 6 120119928.95106
  28161144.657 6 113393213.85506  28161145.418 6 111951781.46106
 25  4 11  2 11 15.0000000  0 28G18E19G15E29G23R22R21G10R08R06E33R23
                                G24R07E13E26G08S33S31E07S35G16E08G32
                                E31G27G29E23
  21009965.231 7 110408431.19407  86032696.75706  21009967.249 6  21009965.021 6
  21009967.300 7  21009970.223 8  82448060.36608

  27969521.776 4 146980835.74604
                  27969539.058 5 109758506.03405  27969534.621 5 119302700.54705
                                  27969536.701 5 111190131.00505
  23004677.574 7 120890878.91707  94200935.15305  23004680.331 5  23004677.275 5
  23004680.731 6

  24594304.348 7 129244399.20207
                  24594308.685 7  96513956.01007  24594309.403 7 104906372.26207
  24594307.043 7  99031674.84007  24594307.657 8  97772710.49808
  20872538.558 8 109686392.50808  85470193.19306  20872540.424 6  20872538.295 6
  20872540.511 7  20872543.424 8  81908955.69508

  19182076.913 8 102395359.85808  79640919.62007
  19182080.918 7

  21022351.569 8 112495104.72608  87496353.29107
  21022358.989 7

  21498231.643 8 112974307.09008  88032132.18806  21498235.090 6  21498231.322 6
  21498235.221 7  21498232.313 8  84364143.30808

  20421197.451 8 109354985.21408  85054067.69007
  20421204.041 7

  22072305.749 6 117782127.80506


  25922337.515 7 136222983.25107
                  25922341.343 7 101725072.20607  25922342.123 7 110570697.17007
  25922339.754 7 104378750.85407  25922340.530 7 103051914.60307
  21622246.900 7 115664527.29407


  22735050.024 7 119473681.92207  93096483.43005  22735055.541 5  22735049.823 5
  22735055.568 7  22735055.247 7  89217486.69707

  19328652.633 8 103468287.49408  80475589.31407
  19328658.605 7

  25099398.293 7 131898305.17407
                  25099404.743 7  98495556.18507  25099401.957 7 107060356.40807
  25099402.368 7 101064990.09707  25099403.581 8  99780273.21608
  23445006.017 8 123204677.60308
                  23445008.164 8  92003704.48908  23445009.737 8 100003954.41808
  23445006.554 8  94403771.49508  23445007.296 8  93203743.56508
  24355455.122 6 127988808.00206  99731580.16503  24355460.254 3  24355454.510 3
  24355462.632 6  24355460.249 7  95576095.59107

  37105690.553 7 194991733.89307
                  37105691.310 6 145610702.61906

  36827703.640 7 193530906.95407
                  36827711.365 7 144519859.94207

  23483890.105 8 123409176.27608
                  23483894.676 8  92156518.10608  23483892.724 8 100169561.09008
  23483892.807 8  94560560.94308  23483893.707 8  93358540.59908
  36979055.892 7 194326268.81407
                  36979060.241 6 145113777.33506

  25525578.202 5 134137782.18805 104522957.07702  25525587.141 2  25525577.326 2


  26782003.709 7 140740690.48207
                  26782008.530 7 105098772.76907  26782007.228 7 114237721.41507
  26782006.310 7 107840455.21307  26782007.425 7 106469611.56707
  22111880.110 7 116199130.15607  90544959.72305  22111884.841 5  22111879.985 5
  22111885.512 7  22111883.115 7  86772336.15907

  28484909.704 5 149689232.12605
                  28484920.153 6 111780963.06206  28484915.116 6 121501026.22306
  28484917.187 6 114696975.94806  28484918.611 6 113238976.08206
  21956749.557 7 115383576.85407  89909336.19506  21956753.501 6  21956748.945 6
  21956753.934 7  21956752.192 7  86163119.29007

  25034671.816 6 131558112.09206 102512870.68703  25034679.967 3  25034671.481 3
  25034680.264 5

  28167204.169 6 148019632.68806
                  28167217.925 6 110534164.90206  28167213.897 6 120145824.62106
  28167215.352 6 113417659.35706  28167216.567 6 111975916.20406
 25  4 11  2 11 30.0000000  0 28G18E19G15E29G23R22R21G10R08R06E33R23
                                G24R07E13E26G08S33S31E07S35G16E08G32
                                E31G27G29E23
  21013536.003 7 110427196.00707  86047318.67506  21013538.112 6  21013535.789 6
  21013538.193 7  21013541.092 8  82462073.04108

  27960922.840 5 146935651.21305
                  27960940.508 5 109724764.80805  27960935.616 5 119266025.11305
                                  27960937.963 5 111155949.65705
  23014557.085 7 120942797.08007  94241390.83505  23014559.907 5  23014556.786 5
  23014560.221 6

  24587780.479 7 129210116.66107
                  24587784.942 7  96488355.45507  24587785.753 7 104878545.55107
  24587783.325 7  99005406.44007  24587783.860 8  97746776.02208
  20875320.171 8 109701008.43508  85481582.22906  20875321.711 6  20875319.912 6
  20875321.836 7  20875324.711 8  81919870.19408

  19179278.281 8 102380421.51908  79629300.92607
  19179282.810 7

  21030699.020 8 112539775.83808  87531097.46207
  21030707.024 7

  21495919.658 8 112962157.26608  88022664.80306  21495923.065 6  21495919.341 6
  21495923.301 7  21495920.237 8  84355070.40008

  20415249.648 8 109323134.58808  85029295.01707
  20415256.280 7

  22082431.695 6 117836155.78506


  25916163.492 7 136190540.09407
                  25916167.727 7 101700845.20807  25916168.499 7 110544363.44707
  25916165.944 7 104353891.83707  25916166.784 8 103027371.59708
  21612033.231 7 115609890.78707


  22732693.888 7 119461300.54207  93086835.63005  22732699.412 5  22732693.683 5
  22732699.510 6  22732699.449 7  89208240.89907

  19332442.441 8 103488574.17508  80491367.84108
  19332448.444 8

  25103413.337 7 131919403.21607
                  25103419.676 7  98511311.21407  25103416.938 7 107077481.43007
  25103417.229 7 101081156.12407  25103418.410 8  99796233.74308
  23443110.440 8 123194716.66208
                  23443112.724 8  91996266.13908  23443114.241 8  99995869.24708
  23443111.004 8  94396139.09808  23443111.784 8  93196208.19108
  24348257.347 6 127950987.88606  99702109.99903  24348263.455 3  24348256.748 3
  24348265.389 6  24348262.970 7  95547853.34107

  37105693.992 7 194991742.51607
                  37105693.037 6 145610708.92206

  36827699.992 7 193530900.37007
                  36827710.113 7 144519855.21807

  23484937.802 8 123414682.28208
                  23484942.394 8  92160629.74308  23484940.487 8 100174030.25808
  23484940.583 8  94564779.83608  23484941.448 8  93362705.86408
  36979066.097 7 194326318.10407
                  36979069.747 6 145113813.91106

  25531927.408 5 134171149.63605 104548957.60302  25531936.662 2  25531926.483 2


  26789209.860 7 140778559.62107
                  26789214.847 7 105127051.64507  26789213.490 6 114268459.34306
  26789212.740 7 107869471.80407  26789213.713 7 106498259.29807
  22104046.105 7 116157964.24207  90512882.43606  22104051.220 6  22104045.980 6
  22104051.946 7  22104049.389 7  86741595.43907

  28488258.888 5 149706833.44805
                  28488269.714 6 111794106.87406  28488264.524 5 121515312.96605
  28488266.512 6 114710462.63006  28488268.071 6 113252291.33006
  21954337.144 7 115370900.11307  89899458.22606  21954341.208 6  21954336.532 6
  21954341.487 7  21954339.838 7  86153652.90907

  25045552.836 6 131615295.10606 102557428.80503  25045562.130 3  25045552.497 3
  25045561.685 5

  28173275.498 6 148051536.39606
                  28173288.766 6 110557989.01306  28173285.132 6 120171720.43606
  28173286.771 6 113442104.98006  28173287.725 6 112000051.07106
 25  4 11  2 11 45.0000000  0 28G18E19G15E29G23R22R21G10R08R06E33R23
                                G24R07E13E26G08S33S31E07S35G16E08G32
                                E31G27G29E23
  21017125.466 7 110446057.84607  86062016.20406  21017127.403 6  21017125.256 6
  21017127.455 7  21017130.371 8  82476158.16808

  27952325.024 4 146890470.49504
                  27952342.107 5 109691026.45205  27952338.320 5 119229352.80805
                                  27952339.936 5 111121771.19305
  23024445.633 7 120994759.79307  94281881.23005  23024448.078 5  23024445.338 5
  23024448.523 6

  24581269.044 7 129175899.66507
                  24581273.634 7  96462803.85407  24581274.248 7 104850772.05507
  24581272.012 7  98979188.27007  24581272.529 8  97720891.13608
  20878107.980 8 109715657.92408  85492997.41906  20878109.427 6  20878107.721 6
  20878109.436 7  20878112.408 8  81930809.74808

  19176508.237 8 102365635.01608  79617800.30908
  19176512.406 8

  21039069.026 8 112584568.85908  87565936.45907
  21039077.402 7

  21493614.737 8 112950045.06308  88013226.74706  21493618.167 6  21493614.420 6
  21493618.353 7  21493615.296 8  84346025.60408

  20409326.426 8 109291415.98208  85004625.03107
  20409332.871 7

  22092560.050 6 117890203.45706


  25909989.329 7 136158094.11207
                  25909993.486 7 101676616.11207  25909994.212 7 110518027.45707
  25909991.631 7 104329030.67507  25909992.493 8 103002826.46708
  21601828.225 7 115555302.06107


  22730363.113 7 119449052.87907  93077292.02105  22730368.758 5  22730362.899 5
  22730368.912 7  22730368.721 7  89199094.94207

  19336255.923 8 103508989.24108  80507246.23508
  19336261.986 8

  25107437.620 7 131940551.49407
                  25107444.032 7  98527103.74707  25107441.280 7 107094647.23307
  25107441.656 7 101097360.64007  25107442.794 8  99812232.26808
  23441223.191 8 123184798.55208
                  23441225.331 8  91988859.77108  23441226.899 8  99987818.83808
  23441223.674 8  94388539.51908  23441224.428 8  93188705.21808
  24341077.995 6 127913258.29406  99672710.36003  24341084.064 3  24341077.392 3
  24341085.202 6  24341083.468 7  95519678.72007

  37105694.908 7 194991751.09807
                  37105694.459 6 145610715.51106

  36827700.327 7 193530893.46007
                  36827708.963 7 144519849.88107

  23486004.186 7 123420285.81707
                  23486008.745 8  92164814.20908  23486006.788 8 100178578.59208
  23486006.896 8  94569073.46508  23486007.747 8  93366944.91008
  36979078.063 7 194326368.10307
                  36979079.160 6 145113851.37506

  25538278.999 5 134204526.03905 104574965.08902  25538287.980 2  25538278.056 2


  26796423.733 7 140816469.10807
                  26796428.729 7 105155360.65607  26796427.611 7 114299230.00607
  26796426.489 7 107898519.31307  26796427.678 7 106526937.55807
  22096228.684 7 116116881.66707  90480870.08506  22096233.509 6  22096228.568 6
  22096233.985 7  22096231.563 7  86710916.94707

  28491620.887 5 149724501.96205
                  28491632.031 6 111807300.84906  28491627.069 6 121529654.26506
  28491629.054 6 114724000.80406  28491630.319 6 113265657.40706
  21951952.095 7 115358366.68307  89889691.93006  21951956.197 6  21951951.487 6
  21951956.691 7  21951954.803 7  86144293.54807

  25056432.513 6 131672465.41706 102601977.02803  25056441.270 3  25056432.169 3
  25056440.247 5

  28179346.220 6 148083437.47706
                  28179359.878 6 110581811.16306  28179356.291 6 120197614.09906
  28179357.460 6 113466548.56706  28179358.305 6 112024183.94506
 25  4 11  2 12  0.0000000  0 28G18E19G15E29G23R22R21G10R08R06E33R23
                                G24R07E13E26G08S33S31E07S35G16E08G32
                                E31G27G29E23
  21020732.736 8 110465015.31908  86076788.25206  21020734.898 6  21020732.522 6
  21020735.056 7  21020737.882 8  82490314.71208

  27943727.503 4 146845292.62304
                  27943744.598 5 109657290.17605  27943740.267 5 119192682.79105
                                  27943742.468 5 111087594.84605
  23034341.866 7 121046765.54507  94322405.16805  23034344.548 5  23034341.580 5
  23034344.833 6

  24574770.406 7 129141746.96307
                  24574774.601 7  96437300.24807  24574775.252 7 104823050.72607
  24574772.911 7  98953019.34607  24574773.441 8  97695054.87108
  20880901.526 8 109730339.48308  85504437.60206  20880903.172 6  20880901.263 6
  20880903.352 7  20880906.232 8  81941773.25608

  19173766.463 8 102350999.12108  79606416.84407
  19173770.541 7

  21047462.876 8 112629482.07908  87600868.92807
  21047471.246 7

  21491316.754 8 112937968.94508  88003816.80606  21491320.155 6  21491316.437 6
  21491320.182 7  21491317.174 8  84337007.74208

  20403428.020 8 109259828.25408  84980056.83607
  20403433.686 7

  22102690.985 6 117944268.71106


  25903814.240 7 136125644.00807
                  25903818.387 7 101652383.92607  25903819.017 7 110491688.11907
  25903816.458 7 104304166.34507  25903817.424 7 102978278.20907
  21591632.546 7 115500760.24607


  22728057.819 7 119436937.76907  93067851.69405  22728063.355 5  22728057.614 5
  22728063.318 7  22728063.101 7  89190047.98407

  19340093.641 8 103529531.17608  80523223.28608
  19340099.742 8

  25111471.272 7 131961748.60907
                  25111477.672 7  98542932.74707  25111474.903 7 107111852.67307
  25111475.282 7 101113602.57407  25111476.479 8  99828267.73308
  23439343.868 8 123174921.98808
                  23439345.899 8  91981484.42208  23439347.325 8  99979802.15408
  23439344.214 8  94380971.76808  23439344.970 8  93181233.66808
  24333915.216 6 127875618.13606  99643380.43003  24333921.343 3  24333914.608 3
  24333923.013 6  24333920.748 7  95491570.87007

  37105696.482 7 194991757.86407
                  37105695.728 6 145610720.58606

  36827698.570 7 193530884.34707
                  36827707.246 7 144519842.99507

  23487088.761 8 123425985.36308
                  23487093.293 8  92169070.36808  23487091.441 8 100183204.84908
  23487091.503 8  94573440.65208  23487092.312 8  93371256.58408
  36979085.861 7 194326415.57507
                  36979088.215 6 145113886.76206

  25544632.341 5 134237909.58105 104600978.15402  25544640.814 2  25544631.434 2


  26803645.063 6 140854417.31006
                  26803650.014 7 105183698.57407  26803649.038 7 114330032.10207
  26803647.979 7 107927596.48007  26803648.996 7 106555645.10007
  22088426.605 7 116075881.24007  90448921.74806  22088431.405 6  22088426.512 6
  22088431.878 7  22088429.463 7  86680299.79907

  28494995.986 5 149742236.04105
                  28495006.717 6 111820543.79806  28495000.762 5 121544048.77905
  28495004.136 6 114737589.22406  28495005.035 6 113279073.08906
  21949594.143 7 115345975.27607  89880036.29706  21949598.136 6  21949593.553 6
  21949598.586 7  21949596.674 7  86135040.23707

  25067309.468 6 131729621.29006 102646513.98903  25067317.548 3  25067309.155 3
  25067317.837 5

  28185416.592 6 148115334.26106
                  28185429.735 6 110605630.07106  28185425.514 6 120223504.26406
  28185427.437 6 113490988.87706  28185428.189 6 112048313.55206
 25  4 11  2 12 15.0000000  0 28G18E19G15E29G23R22R21G10R08R06E33R23
                                G24R07E13E26G08S33S31E07S35G16E08G32
                                E31G27G29E23
  21024359.947 7 110484075.05707  86091639.98006  21024361.862 6  21024359.733 6
  21024362.063 7  21024364.852 8  82504547.61808

  27935132.398 4 146800124.13904
                  27935148.976 5 109623560.91205  27935144.764 5 119156020.42505
                                  27935146.748 6 111053425.62606
  23044247.751 7 121098820.32707  94362967.30605  23044250.243 5  23044247.465 5
  23044250.589 6

  24568284.408 7 129107665.25207
                  24568289.133 7  96411849.66807  24568289.852 7 104795387.03407
  24568287.211 7  98926904.83107  24568287.876 8  97669272.32308
  20883702.937 8 109745059.59008  85515907.81706  20883704.250 6  20883702.674 6
  20883704.743 7  20883707.338 8  81952765.54208

  19171054.158 8 102336520.86708  79595155.98007
  19171058.422 7

  21055880.144 8 112674521.93908  87635899.89707
  21055887.861 7

  21489026.722 8 112925935.40008  87994440.03206  21489030.237 6  21489026.409 6
  21489030.161 7  21489027.370 8  84328021.67408

  20397554.878 8 109228378.02108  84955595.55207
  20397560.863 7

  22112828.816 6 117998357.99106


  25897639.511 7 136093196.41807
                  25897643.700 7 101628153.62507  25897644.411 7 110465350.82107
  25897641.918 7 104279303.93907  25897642.815 8 102953731.85708
  21581446.433 7 115446272.47107


  22725778.609 7 119424962.05307  93058520.00805  22725784.527 5  22725778.408 5
  22725784.253 7  22725784.142 7  89181105.10207

  19343956.026 8 103550206.17308  80539303.84008
  19343961.897 8

  25115515.691 7 131983001.22107
                  25115521.932 7  98558803.18407  25115519.155 7 107129103.15507
  25115519.583 7 101129887.01807  25115520.726 8  99844345.17508
  23437473.325 8 123165093.68008
                  23437475.656 8  91974145.10908  23437477.080 8  99971824.63408
  23437473.971 8  94373440.99008  23437474.696 8  93173798.62308
  24326770.568 6 127838074.23706  99614125.48703  24326777.474 3  24326769.978 3
  24326778.326 6  24326775.908 6  95463534.90406

  37105696.621 7 194991768.79007
                  37105697.776 6 145610728.59206

  36827696.481 7 193530880.64607
                  36827706.468 7 144519840.42807

  23488192.964 7 123431787.39007
                  23488197.380 8  92173403.06808  23488195.533 8 100187914.29508
  23488195.541 8  94577886.37708  23488196.401 8  93375645.79608
  36979096.347 7 194326468.01407
                  36979098.120 6 145113926.03106

  25550987.062 6 134271306.63606 104627001.74402  25550995.813 2  25550986.150 2


  26810874.966 6 140892410.57906
                  26810879.968 7 105212070.14707  26810878.766 7 114360870.77607
  26810877.859 7 107956708.19007  26810878.903 7 106584386.74007
  22080641.300 7 116034969.72507  90417042.69106  22080646.100 6  22080641.220 6
  22080646.626 7  22080644.226 7  86649749.04907

  28498383.538 5 149760042.08205
                  28498395.010 6 111833840.48606  28498390.133 6 121558501.72706
  28498392.103 6 114751232.77806  28498393.340 6 113292543.20906
  21947264.457 7 115333732.47707  89870496.46406  21947268.318 6  21947263.863 6
  21947268.921 7  21947266.762 7  86125897.89707

  25078183.944 6 131786769.03506 102691044.60403  25078191.779 3  25078183.640 3
  25078192.345 5

  28191485.901 5 148147233.05905
                  28191499.779 6 110629450.48606  28191495.689 6 120249396.07106
  28191497.678 6 113515430.70706  28191498.568 6 112072444.67306
 25  4 11  2 12 30.0000000  0 28G18E19G15E29G23R22R21G10R08R06E33R23
                                G24R07E13E26G08S33S31E07S35G16E08G32
                                E31G27G29E23
  21028005.193 7 110503230.40707  86106566.21706  21028006.977 6  21028004.979 6
  21028007.218 7  21028009.983 8  82518851.92408

  27926536.894 4 146754958.71504
                  27926553.516 5 109589833.92805  27926549.782 5 119119360.44005
  27926550.638 5 112448648.32715  27926551.793 6 111019258.70206
  23054160.957 7 121150917.16407  94403562.21505  23054164.152 5  23054160.667 5
  23054164.692 6

  24561811.470 7 129073648.02807
                  24561815.764 7  96386447.23707  24561816.674 7 104767775.69007
  24561813.939 7  98900839.72707  24561814.572 8  97643538.55608
  20886510.103 8 109759811.51708  85527402.83006  20886511.405 6  20886509.840 6
  20886511.823 7  20886514.534 8  81963781.60008

  19168370.438 8 102322193.81108  79584012.72207
  19168374.493 7

  21064318.595 8 112719681.33408  87671023.83807
  21064326.779 7

  21486743.843 8 112913937.75508  87985091.23406  21486747.152 6  21486743.535 6
  21486747.059 7  21486744.219 8  84319062.40808

  20391705.119 8 109197058.57508  84931236.04707
  20391711.921 7

  22122968.024 6 118052464.12506


  25891464.515 7 136060744.83407
                  25891468.273 7 101603920.33407  25891469.110 7 110439010.26907
  25891466.656 7 104254438.47707  25891467.428 8 102929182.47908
  21571269.541 7 115391832.32007


  22723525.099 7 119413119.26607  93049291.88605  22723530.896 5  22723524.898 5
  22723531.231 7  22723530.567 7  89172261.49507

  19347841.496 8 103571007.29808  80555482.49808
  19347847.790 8

  25119569.140 7 132004302.65207
                  25119575.428 7  98574710.08707  25119572.652 7 107146393.26707
  25119573.132 7 101146208.88907  25119574.261 8  99860459.56108
  23435611.183 8 123155307.12608
                  23435613.289 8  91966836.97608  23435614.774 8  99963881.01208
  23435611.590 8  94365942.22008  23435612.377 8  93166395.17108
  24319643.904 6 127800620.20806  99584940.59403  24319650.580 3  24319643.319 3
  24319650.941 6  24319648.875 7  95435566.04907

  37105700.601 7 194991777.80607
                  37105699.610 6 145610735.34606

  36827695.448 7 193530874.45407
                  36827705.306 7 144519835.76607

  23489315.214 8 123437685.15308
                  23489319.605 8  92177807.25208  23489317.799 8 100192701.44908
  23489317.871 8  94582405.45108  23489318.688 8  93380107.42508
  36979103.994 7 194326518.62807
                  36979107.626 6 145113963.99206

  25557343.741 6 134304710.00406 104653030.24002  25557351.960 2  25557342.874 2


  26818112.149 6 140930442.03406
                  26818117.014 7 105240470.23007  26818115.927 7 114391740.45107
  26818115.006 7 107985849.14807  26818116.094 7 106613157.26107
  22072871.660 7 115994140.68307  90385227.89706  22072876.508 6  22072871.589 6
  22072877.114 7  22072874.724 7  86619259.87907

  28501784.926 5 149777913.23105
                  28501795.954 6 111847185.76206  28501790.753 5 121573007.48205
  28501792.938 6 114764926.19306  28501794.107 6 113306062.55606
  21944961.543 7 115321631.72607  89861067.32406  21944965.656 6  21944960.949 6
  21944966.045 7  21944964.227 7  86116861.64307

  25089056.426 6 131843901.59406 102735563.39403  25089063.362 3  25089056.167 3
  25089065.083 5

  28197555.552 5 148179126.94105
                  28197569.050 6 110653267.25306  28197565.613 6 120275283.89206
  28197566.934 6 113539868.77606  28197567.745 6 112096572.08606
 25  4 11  2 12 45.0000000  0 28G18E19G15E29G23R22R21G10R08R06E33R23
                                G24R07E13E26G08S33S31E07S35G16E08G32
                                E31G27G29E23
  21031669.099 7 110522484.03207  86121569.02706  21031670.832 6  21031668.898 6
  21031670.906 7  21031673.832 8  82533229.61208

  27917943.577 4 146709799.20104
                  27917959.833 5 109556111.33805  27917955.787 5 119082705.30305
  27917956.614 5 112414045.96505  27917957.844 6 110985096.22506
  23064083.051 7 121203058.34207  94444191.67305  23064086.486 5  23064082.752 5
  23064086.866 6

  24555351.141 7 129039698.03607
                  24555355.208 7  96361095.01007  24555356.040 7 104740218.90107
  24555353.390 7  98874826.13307  24555354.057 8  97617855.64508
  20889323.680 8 109774597.78108  85538924.59906  20889325.178 6  20889323.417 6
  20889325.586 7  20889328.262 8  81974823.29908

  19165715.399 8 102308020.88408  79572989.34607
  19165719.374 7

  21072780.809 8 112764962.64308  87706242.59807
  21072788.759 7

  21484467.767 8 112901978.46008  87975772.32406  21484471.360 6  21484467.454 6
  21484471.130 7  21484468.453 8  84310131.79508

  20385882.226 8 109165872.51408  84906980.25407
  20385888.027 7

  22133110.728 6 118106589.38506


  25885288.862 7 136028291.93407
                  25885292.770 7 101579686.05507  25885293.454 7 110412668.64707
  25885290.937 7 104229571.99507  25885291.814 8 102904632.09708
  21561102.375 7 115337443.16607


  22721297.252 7 119401412.22707  93040169.54405  22721303.134 5  22721297.047 5
  22721303.515 7  22721302.780 7  89163519.24607

  19351751.408 8 103591936.53808  80571760.79608
  19351757.542 8

  25123632.385 7 132025655.57207
                  25123638.820 7  98590655.44007  25123636.084 7 107163725.17807
  25123636.430 7 101162570.20707  25123637.598 8  99876612.89708
  23433757.236 8 123145565.05908
                  23433759.466 8  91959562.07008  23433760.916 8  99955973.50008
  23433757.749 8  94358477.52708  23433758.509 8  93159025.37108
  24312534.038 6 127763258.92806  99555827.95703  24312540.709 3  24312533.493 3
  24312540.430 6  24312539.277 7  95407666.44307

  37105700.605 7 194991787.67607
                  37105701.470 6 145610742.76506

  36827696.955 7 193530868.80807
                  36827704.188 7 144519831.47407

  23490456.066 8 123443681.13708
                  23490460.611 8  92182284.78108  23490458.781 8 100197568.32508
  23490458.806 8  94586999.78308  23490459.672 8  93384643.35508
  36979115.039 7 194326569.23207
                  36979117.366 6 145114001.60806

  25563701.787 5 134338121.92705 104679065.42202  25563710.228 2  25563700.902 2


  26825356.937 6 140968514.07406
                  26825361.997 7 105268900.62007  26825360.854 6 114422643.05506
  26825359.973 7 108015021.20707  26825360.937 7 106641958.48707
  22065118.101 7 115953396.93407  90353479.57006  22065123.117 6  22065118.025 6
  22065123.816 7  22065121.435 7  86588834.40807

  28505198.436 5 149795851.83205
                  28505209.297 6 111860581.43406  28505205.016 5 121587568.01605
  28505206.631 6 114778671.31106  28505207.798 6 113319632.95406
  21942686.691 7 115309675.72007  89851750.96406  21942690.557 6  21942686.101 6
  21942691.022 7  21942689.140 7  86107933.46107

  25099925.892 6 131901021.24006 102780072.13203  25099932.830 3  25099925.629 3
  25099933.976 5

  28203624.311 5 148211018.27605
                  28203638.055 6 110677082.12606  28203633.361 6 120301169.65906
  28203635.431 6 113564304.90806  28203636.470 6 112120697.59206
 25  4 11  2 13  0.0000000  0 28G18E19G15E29G23R22R21G10R08R06E33R23
                                G24R07E13E26G08S33S31E07S35G16E08G32
                                E31G27G29E23
  21035351.500 7 110541835.10607  86136647.77706  21035353.173 6  21035351.299 6
  21035353.224 7  21035356.282 8  82547680.07908

  27909350.190 4 146664644.63604
                  27909367.069 5 109522392.43805  27909362.769 5 119046054.15705
  27909363.369 5 112379447.40005  27909364.870 6 110950937.48906
  23074013.804 7 121255242.74807  94484854.81805  23074016.537 5  23074013.505 5
  23074016.782 6

  24548902.856 7 129005814.56107
                  24548907.365 7  96335792.45207  24548908.172 7 104712716.10707
  24548905.537 7  98848863.50207  24548906.210 8  97592223.05008
  20892143.782 8 109789417.46508  85550472.41006  20892145.292 6  20892143.523 6
  20892145.608 7  20892148.364 8  81985889.94808

  19163089.098 8 102294001.54808  79562085.43207
  19163093.233 7

  21081265.016 8 112810364.83808  87741555.39107
  21081273.236 7

  21482199.343 8 112890056.60008  87966482.58406  21482202.664 6  21482199.030 6
  21482202.669 7  21482199.857 8  84301229.13208

  20380082.913 8 109134819.20608  84882827.71507
  20380089.487 7

  22143257.025 6 118160732.45806


  25879112.912 7 135995836.97707
                  25879116.691 7 101555450.25507  25879117.340 7 110386325.35807
  25879114.892 7 104204703.94507  25879115.837 8 102880080.17308
  21550944.088 7 115283104.10407


  22719095.088 7 119389840.32507  93031152.50105  22719100.788 5  22719094.878 5
  22719100.881 6  22719100.755 7  89154877.92907

  19355685.090 8 103612992.86708  80588137.93708
  19355690.900 8

  25127705.429 7 132047059.17807
                  25127711.755 7  98606638.63407  25127709.016 7 107181098.22007
  25127709.466 7 101178970.35707  25127710.575 8  99892804.56908
  23431911.608 8 123135866.79208
                  23431913.932 8  91952319.86908  23431915.358 8  99948101.53808
  23431912.268 8  94351046.39608  23431912.976 8  93151688.70608
  24305441.539 6 127725989.80606  99526787.12303  24305447.982 3  24305440.972 3
  24305449.161 6  24305447.010 7  95379835.66507

  37105703.127 7 194991797.26107
                  37105703.308 6 145610749.86806

  36827695.905 7 193530863.60107
                  36827703.195 7 144519827.78207

  23491615.670 8 123449774.40808
                  23491620.134 8  92186834.96508  23491618.151 8 100202514.17108
  23491618.322 8  94591668.66208  23491619.155 8  93389252.88708
  36979124.353 7 194326620.04207
                  36979127.082 6 145114039.59606

  25570061.027 6 134371541.30606 104705106.40102  25570069.617 2  25570060.164 2


  26832609.300 6 141006625.59606
                  26832614.280 7 105297360.50507  26832613.467 6 114453577.71506
  26832612.382 7 108044223.51607  26832613.287 7 106670789.58407
  22057380.966 7 115912737.81207  90321797.18006  22057385.855 6  22057380.890 6
  22057386.251 7  22057384.168 7  86558472.13007

  28508624.442 5 149813856.91205
                  28508635.977 6 111874026.72206  28508631.171 6 121602182.47706
  28508632.783 6 114792467.35206  28508634.071 6 113333253.62006
  21940439.063 7 115297863.64807  89842546.76406  21940442.811 6  21940438.469 6
  21940443.040 7  21940441.221 7  86099112.77107

  25110792.202 6 131958126.82406 102824569.91003  25110799.874 3  25110791.916 3
  25110800.613 5

  28209692.676 6 148242905.96506
                  28209706.048 6 110700894.24806  28209701.899 6 120327052.44006
  28209703.316 6 113588738.23606  28209704.699 6 112144820.31706
 25  4 11  2 13 15.0000000  0 28G18E19G15E29G23R22R21G10R08R06E33R23
                                G24R07E13E26G08S33S31E07S35G16E08G32
                                E31G27G29E23
  21039051.600 7 110561279.91807  86151799.56806  21039053.392 6  21039051.395 6
  21039053.684 7  21039056.484 8  82562200.54308

  27900757.504 4 146619491.45004
                  27900774.104 5 109488674.55905  27900770.365 5 119009404.12705
  27900770.500 5 112344849.87305  27900772.192 6 110916779.79306
  23083951.594 6 121307466.29506  94525548.46405  23083954.343 5  23083951.304 5
  23083954.864 6

  24542467.044 7 128971993.98407
                  24542471.488 7  96310536.87107  24542472.462 7 104685264.36707
  24542469.683 7  98822949.07307  24542470.337 8  97566638.04508
  20894969.679 8 109804266.71408  85562043.26106  20894970.959 6  20894969.416 6
  20894971.294 7  20894974.041 8  81996978.68308

  19160490.960 8 102280132.28508  79551298.24207
  19160494.884 7

  21089770.625 8 112855883.71408  87776958.94007
  21089778.859 7

  21479936.927 8 112878168.29008  87957218.97106  21479940.399 6  21479936.610 6
  21479940.211 7  21479937.560 8  84292351.50008

  20374307.815 8 109103894.62308  84858775.29507
  20374314.059 7

  22153407.059 6 118214889.35506


  25872935.692 7 135963376.31107
                  25872939.642 7 101531210.18007  25872940.290 7 110359977.44707
  25872937.791 7 104179831.51607  25872938.751 8 102855523.92008
  21540794.334 7 115228812.18007


  22716918.207 7 119378400.02007  93022238.00505  22716923.555 5  22716917.997 5
  22716924.462 6  22716923.687 7  89146334.87107

  19359641.393 8 103634171.96508  80604610.57308
  19359647.175 8

  25131787.153 7 132068509.73907
                  25131793.691 7  98622656.90107  25131790.966 7 107198509.38707
  25131791.397 7 101195406.49207  25131792.482 8  99909031.77008
  23430073.737 8 123126208.67108
                  23430076.050 8  91945107.64608  23430077.489 8  99940262.16508
  23430074.290 8  94343646.03308  23430075.099 8  93144382.41308
  24298367.015 6 127688809.33406  99497815.37803  24298372.901 3  24298366.452 3
  24298373.962 6  24298371.904 7  95352071.09907

  37105703.932 7 194991802.63407
                  37105704.301 6 145610753.88106

  36827692.833 7 193530853.70507
                  36827701.384 7 144519820.24007

  23492792.793 8 123455961.10608
                  23492797.366 8  92191454.90708  23492795.501 8 100207535.84608
  23492795.568 8  94596409.12508  23492796.426 8  93393933.08908
  36979133.471 7 194326666.73407
                  36979135.847 6 145114074.53006

  25576421.009 6 134404963.91906 104731149.91302  25576429.928 2  25576420.146 2


  26839868.389 6 141044772.63906
                  26839873.609 7 105325846.91707  26839872.532 7 114484541.21707
  26839871.340 7 108073453.05107  26839872.492 7 106699647.55707
  22049659.506 7 115872159.78007  90290177.98206  22049664.056 6  22049659.426 6
  22049664.613 7  22049662.355 7  86528170.41007

  28512062.858 5 149831924.43405
                  28512074.032 6 111887518.68306  28512068.951 6 121616847.66706
  28512070.945 6 114806311.27306  28512072.145 6 113346921.56206
  21938217.848 7 115286191.80807  89833451.83806  21938221.774 6  21938217.249 6
  21938222.133 7  21938220.065 7  86090396.80507

  25121655.596 6 132015214.35406 102869053.62203  25121663.444 3  25121655.306 3
  25121664.262 5

  28215758.984 6 148274785.98906
                  28215772.733 6 110724700.65406  28215769.125 6 120352929.01506
  28215770.315 6 113613165.71206  28215771.367 6 112168937.25706
 25  4 11  2 13 30.0000000  0 28G18E19G15E29G23R22R21G10R08R06E33R23
                                G24R07E13E26G08S33S31E07S35G16E08G32
                                E31G27G29E23
  21042770.750 7 110580824.97107  86167029.47006  21042772.686 6  21042770.540 6
  21042773.077 7  21042775.777 8  82576795.86908

  27892166.218 4 146574346.44004
                  27892183.067 5 109454962.79905  27892178.865 5 118972760.77105
  27892179.674 5 112310258.62205  27892181.015 5 110882628.28605
  23093898.157 6 121359734.99306  94566277.28105  23093900.743 5  23093897.885 5
  23093901.050 6

  24536044.459 7 128938242.93607
                  24536048.883 7  96285333.20807  24536049.552 7 104657869.06507
  24536046.988 7  98797087.92107  24536047.665 8  97541105.63708
  20897801.774 8 109819151.93808  85573642.14506  20897803.504 6  20897801.506 6
  20897803.795 7  20897806.655 8  82008094.28108

  19157921.976 8 102266420.05208  79540633.17507
  19157926.246 7

  21098300.925 8 112901526.03708  87812458.49207
  21098308.845 7

  21477682.352 8 112866320.03208  87947986.58706  21477685.731 6  21477682.031 6
  21477685.707 7  21477682.835 8  84283503.80608

  20368558.623 8 109073105.77808  84834828.44507
  20368565.106 7

  22163558.871 6 118269066.09206


  25866758.444 7 135930916.55807
                  25866762.731 7 101506970.78307  25866763.463 7 110333630.26507
  25866760.898 7 104154959.78607  25866761.861 8 102830968.35808
  21530655.372 7 115174574.23507


  22714767.469 7 119367097.99307  93013431.25405  22714772.946 5  22714767.255 5
  22714773.340 6  22714772.945 7  89137895.08607

  19363621.837 8 103655480.10108  80621183.57708
  19363628.010 8

  25135879.552 7 132090013.77607
                  25135885.668 7  98638715.09907  25135882.982 7 107215963.95507
  25135883.456 7 101211883.60107  25135884.589 8  99925299.42408
  23428244.800 8 123116597.33408
                  23428247.025 8  91937930.36408  23428248.432 8  99932460.76508
  23428245.339 8  94336281.51308  23428246.107 8  93137111.51108
  24291310.178 6 127651724.28906  99468917.99903  24291316.412 3  24291309.606 3
  24291316.405 6  24291314.802 7  95324377.78207

  37105707.049 7 194991810.93707
                  37105705.857 6 145610760.15006

  36827689.908 7 193530846.13107
                  36827699.891 7 144519814.65607

  23493989.096 8 123462247.60508
                  23493993.670 8  92196149.37708  23493991.777 8 100212638.53108
  23493991.878 8  94601226.06208  23493992.701 8  93398688.79208
  36979142.767 7 194326715.67307
                  36979145.201 6 145114110.83406

  25582783.251 6 134438395.98406 104757200.72102  25582792.135 2  25582782.384 2


  26847135.659 6 141082961.46906
                  26847140.508 7 105354364.51007  26847139.890 7 114515538.61907
  26847138.693 7 108102714.59607  26847139.630 7 106728537.12707
  22041954.284 7 115831669.53707  90258627.18806  22041958.927 6  22041954.200 6
  22041959.449 7  22041957.347 7  86497934.23607

  28515514.440 5 149850060.75005
                  28515524.989 6 111901061.96506  28515520.031 6 121631568.66306
  28515522.603 6 114820207.88106  28515523.522 6 113360641.50306
  21936024.676 7 115274666.79007  89824471.31606  21936028.613 6  21936024.068 6
  21936028.826 7  21936026.954 7  86081790.46607

  25132517.709 6 132072289.88106 102913527.96103  25132524.828 3  25132517.450 3
  25132525.378 5

  28221825.844 6 148306664.56306
                  28221838.969 6 110748505.99206  28221835.529 6 120378804.42306
  28221836.993 6 113637592.05906  28221837.736 6 112193053.10006
 25  4 11  2 13 45.0000000  0 28G18E19G15E29G23R22R21G10R08R06E33R23
                                G24R07E13E26G08S33S31E07S35G16E08G32
                                E31G27G29E23
  21046508.993 8 110600469.07908  86182336.55606  21046510.806 6  21046508.783 6
  21046511.077 7  21046513.971 8  82591465.15708

  27883577.106 4 146529208.60004
                  27883593.267 5 109421256.37105  27883589.227 5 118936123.19305
  27883589.223 5 112275672.85905  27883591.180 5 110848482.18305
  23103852.618 7 121412047.44307  94607040.20205  23103855.509 5  23103852.350 5
  23103856.096 6

  24529634.648 7 128904560.29407
                  24529639.218 7  96260180.63507  24529640.064 7 104630529.28807
  24529637.334 7  98771279.18007  24529638.051 8  97515624.98208
  20900641.260 8 109834071.81008  85585268.02206  20900642.640 6  20900640.997 6
  20900642.935 7  20900645.747 8  82019235.75008

  19155382.438 8 102252863.81608  79530089.43907
  19155386.428 7

  21106853.442 8 112947289.80108  87848052.48607
  21106861.102 7

  21475435.141 8 112854510.41208  87938784.29707  21475438.423 7  21475434.824 7
  21475438.495 7  21475435.473 8  84274684.94808

  20362833.316 8 109042451.22308  84810986.05007
  20362839.801 7

  22173715.337 6 118323260.99306


  25860581.765 7 135898456.54707
                  25860585.838 7 101482731.20107  25860586.344 7 110307282.88007
  25860583.889 7 104130087.85907  25860584.878 8 102806412.60408
  21520526.116 7 115120389.81707


  22712642.921 7 119355933.25207  93004731.47905  22712648.456 5  22712642.711 5
  22712648.827 7  22712648.277 7  89129557.81207

  19367625.953 8 103676915.44908  80637855.50508
  19367631.759 8

  25139981.660 7 132111570.09007
                  25139987.782 7  98654812.33607  25139985.182 7 107233460.95307
  25139985.477 7 101228400.76507  25139986.619 8  99941606.62408
  23426424.476 8 123107031.69508
                  23426426.766 8  91930787.20208  23426428.137 8  99924696.45208
  23426425.004 8  94328952.00808  23426425.822 8  93129875.17908
  24284271.145 6 127614733.68706  99440094.19603  24284276.898 3  24284270.555 3
  24284277.342 6  24284275.791 7  95296754.98707

  37105707.272 7 194991820.35507
                  37105707.623 6 145610767.19006

  36827689.895 7 193530840.43607
                  36827698.719 7 144519810.58807

  23495204.066 8 123468632.56108
                  23495208.707 8  92200917.37808  23495206.685 8 100217821.13408
  23495206.844 8  94606118.44108  23495207.704 8  93403518.98308
  36979151.697 7 194326766.42107
                  36979154.815 6 145114148.96906

  25589147.353 5 134471835.92105 104783257.75502  25589155.674 2  25589146.446 2


  26854410.315 6 141121190.60906
                  26854415.445 7 105382912.22907  26854414.414 7 114546568.74707
  26854413.538 7 108132007.03007  26854414.370 7 106757457.20407
  22034265.554 7 115791266.03807  90227143.98606  22034270.388 6  22034265.478 6
  22034270.943 7  22034268.668 7  86467762.84607

  28518978.559 5 149868264.37205
                  28518989.027 6 111914655.55806  28518984.632 6 121646344.29406
  28518986.103 6 114834156.08906  28518987.407 6 113374412.40206
  21933858.821 7 115263287.39407  89815604.26306  21933863.199 6  21933858.200 6
  21933863.777 7  21933861.527 7  86073292.87907

  25143376.011 6 132129351.87006 102957991.75803  25143383.300 3  25143375.725 3
  25143383.838 5

  28227891.117 5 148338540.22105
                  28227904.936 6 110772309.12406  28227901.093 6 120404677.42006
  28227902.356 6 113662016.15406  28227903.568 6 112217166.71206
 25  4 11  2 14  0.0000000  0 28G18E19G15E29G23R22R21G10R08R06E33R23
                                G24R07E13E26G08S33S31E07S35G16E08G32
                                E31G27G29E23
  21050265.827 7 110620211.58207  86197720.31306  21050267.698 6  21050265.617 6
  21050267.849 7  21050270.812 8  82606207.91708

  27874988.757 4 146484077.37904
                  27875004.775 5 109387554.87205  27875000.854 5 118899490.99605
  27875001.435 5 112241092.11405  27875002.687 5 110814341.06205
  23113814.874 6 121464402.48206  94647836.30605  23113818.405 5  23113814.611 5
  23113819.045 6

  24523238.208 7 128870945.51107
                  24523242.517 7  96235078.72607  24523243.270 7 104603244.59207
  24523240.627 7  98745522.43607  24523241.332 8  97490195.65408
  20903487.027 8 109849025.57108  85596920.30706  20903488.260 6  20903486.764 6
  20903488.718 7  20903491.335 8  82030402.52408

  19152872.319 8 102239463.27808  79519666.80507
  19152876.401 7

  21115427.831 8 112993174.31308  87883740.41607
  21115435.435 7

  21473194.932 8 112842738.67708  87929611.52807  21473198.324 7  21473194.606 7
  21473198.142 7  21473195.404 8  84265894.38008

  20357134.313 8 109011930.39008  84787247.67307
  20357140.447 7

  22183874.354 6 118377473.23606


  25854404.469 7 135865995.70707
                  25854408.614 7 101458490.98907  25854409.296 7 110280934.81607
  25854406.844 7 104105215.29807  25854407.739 8 102781856.21708
  21510406.923 7 115066258.21607


  22710544.325 7 119344905.32907  92996138.31805  22710550.026 5  22710544.120 5
  22710550.334 7  22710549.670 7  89121322.69707

  19371654.138 8 103698477.33508  80654625.86308
  19371660.354 8

  25144093.541 7 132133178.01907
                  25144099.650 7  98670948.10707  25144096.887 7 107250999.84007
  25144097.234 7 101244957.47507  25144098.477 8  99957952.86508
  23424612.855 8 123097511.18508
                  23424615.050 8  91923677.75208  23424616.483 8  99916968.78108
  23424613.319 8  94321657.08808  23424614.112 8  93122672.99408
  24277249.982 6 127577837.10106  99411343.65703  24277255.158 3  24277249.383 3
  24277256.617 6  24277254.328 7  95269202.40407

  37105711.020 7 194991830.00907
                  37105709.653 6 145610774.32306

  36827687.735 7 193530834.72207
                  36827697.722 7 144519806.26607

  23496437.773 8 123475115.17908
                  23496442.274 8  92205758.30808  23496440.432 8 100223083.00508
  23496440.387 8  94611085.65308  23496441.286 8  93408423.05408
  36979162.192 7 194326817.30607
                  36979164.613 6 145114186.96306

  25595511.423 6 134505282.51206 104809319.93002  25595520.403 2  25595510.534 2


  26861692.739 6 141159459.17106
                  26861697.610 7 105411489.37907  26861696.343 6 114577630.86206
  26861695.634 7 108161329.67507  26861696.644 7 106786407.09907
  22026593.515 7 115750948.79307  90195727.99706  22026598.278 6  22026593.453 6
  22026598.658 7  22026596.592 7  86437655.87007

  28522455.278 5 149886534.46405
                  28522465.624 6 111928298.73706  28522461.035 6 121661173.86506
  28522463.034 6 114848155.17306  28522464.098 6 113388233.53206
  21931721.443 7 115252053.00307  89806850.20506  21931725.258 6  21931720.817 6
  21931725.520 7  21931723.611 7  86064903.56907

  25154231.988 6 132186399.30106 103002444.23903  25154239.894 3  25154231.698 3
  25154240.361 5

  28233956.029 5 148370412.00705
                  28233970.150 6 110796109.39206  28233965.861 6 120430547.28806
  28233967.863 6 113686437.30506  28233968.689 6 112241277.42306
 25  4 11  2 14 15.0000000  0 28G18E19G15E29G23R22R21G10R08R06E33R23
                                G24R07E13E26G08S33S31E07S35G16E08G32
                                E31G27G29E23
  21054041.143 7 110640051.53007  86213180.00906  21054043.116 6  21054040.924 6
  21054043.493 7  21054046.286 8  82621023.46208

  27866401.234 4 146438951.80804
                  27866417.492 5 109353857.55905  27866413.538 5 118862863.32205
  27866413.873 5 112206515.70505  27866415.338 5 110780204.20705
  23123786.056 6 121516798.72906  94688664.51805  23123789.207 5  23123785.802 5
  23123789.499 6

  24516854.163 7 128837397.77307
                  24516858.616 7  96210026.87207  24516859.441 7 104576014.30507
  24516856.700 7  98719817.05607  24516857.371 8  97464817.03708
  20906338.987 8 109864012.18808  85608598.19506  20906340.171 6  20906338.728 6
  20906340.250 7  20906343.224 8  82041593.83108

  19150390.690 8 102226217.70808  79509364.71007
  19150394.940 7

  21124024.909 8 113039178.13508  87919521.14507
  21124032.589 7

  21470961.841 8 112831003.81808  87920467.50406  21470965.218 6  21470961.520 6
  21470965.065 7  21470962.304 8  84257131.36008

  20351459.552 8 108981542.40008  84763612.59507
  20351465.420 7

  22194036.462 6 118431701.23606


  25848227.383 7 135833533.16807
                  25848231.138 7 101434249.51707  25848231.826 7 110254585.37307
  25848229.357 7 104080341.43207  25848230.273 8 102757298.54808
  21500297.012 7 115012179.27107


  22708471.753 7 119334013.46107  92987651.17305  22708477.653 5  22708471.548 5
  22708477.692 7  22708476.957 7  89113189.20107

  19375705.298 8 103720163.90108  80671493.18908
  19375711.518 8

  25148214.786 7 132154836.62907
                  25148221.092 7  98687121.73207  25148218.247 7 107268579.87607
  25148218.806 7 101261553.02307  25148219.981 8  99974337.45108
  23422809.514 8 123088035.00508
                  23422811.772 8  91916601.38708  23422813.208 8  99909277.08008
  23422810.060 8  94314396.12708  23422810.837 8  93115504.33108
  24270246.127 6 127541033.85406  99382665.86203  24270252.141 3  24270245.546 3
  24270252.637 6  24270250.765 7  95241719.52407

  37105711.252 7 194991838.89807
                  37105711.138 6 145610780.92206

  36827689.050 7 193530828.99207
                  36827696.604 7 144519801.99507

  23497689.633 8 123481694.40608
                  23497694.237 8  92210671.37308  23497692.329 8 100228423.29408
  23497692.432 8  94616126.88408  23497693.255 8  93413400.20208
  36979170.652 7 194326867.61807
                  36979174.142 6 145114224.40206

  25601877.212 5 134538734.40605 104835386.23902  25601886.276 2  25601876.323 2


  26868982.389 6 141197765.93506
                  26868987.216 7 105440095.04007  26868985.876 6 114608724.00406
  26868985.215 7 108190681.58207  26868986.256 7 106815385.88507
  22018937.891 7 115710717.04607  90164378.63106  22018942.350 6  22018937.820 6
  22018943.429 7  22018940.638 7  86407612.73907

  28525944.438 5 149904869.82005
                  28525954.664 6 111941990.64506  28525949.516 6 121676056.39406
  28525952.140 5 114862204.28605  28525953.305 6 113402104.04506
  21929611.251 7 115240962.68807  89798208.41506  21929614.782 6  21929610.639 6
  21929615.518 7  21929613.270 7  86056621.86007

  25165084.484 6 132243430.93306 103046884.37803  25165092.580 3  25165084.194 3
  25165092.693 5

  28240020.565 5 148402278.68005
                  28240033.818 6 110819905.80906  28240030.236 6 120456413.04006
  28240031.930 6 113710854.52806  28240032.799 6 112265384.24106
 25  4 11  2 14 30.0000000  0 28G18E19G15E29G23R22R21G10R08R06E33R23
                                G24R07E13E26G08S33S31E07S35G16E08G32
                                E31G27G29E23
  21057835.199 7 110659988.03407  86228714.93706  21057836.876 6  21057834.980 6
  21057837.237 7  21057840.040 8  82635911.09408

  27857814.746 4 146393831.22304
                  27857831.030 5 109320163.97905  27857826.800 5 118826239.74405
  27857827.284 5 112171943.15705  27857828.884 5 110746071.14205
  23133764.368 6 121569235.00606  94729523.92004  23133767.655 4  23133764.123 4
  23133767.941 6

  24510482.686 7 128803916.25907
                  24510487.218 7  96185024.50107  24510488.025 7 104548837.79107
  24510485.178 7  98694162.44207  24510486.033 8  97439488.54508
  20909196.356 8 109879030.63108  85620300.88406  20909198.048 6  20909196.093 6
  20909198.346 7  20909201.142 8  82052808.90808

  19147938.398 8 102213126.46508  79499182.63807
  19147942.420 7

  21132643.453 8 113085300.29208  87955393.89407
  21132651.557 7

  21468735.463 8 112819304.76808  87911351.37606  21468738.958 6  21468735.142 6
  21468738.621 7  21468736.046 8  84248395.07208

  20345809.130 8 108951286.31608  84740080.12007
  20345815.714 7

  22204201.747 6 118485943.94806


  25842049.745 7 135801068.11207
                  25842053.291 7 101410006.16507  25842053.977 7 110228233.89007
  25842051.354 7 104055465.64307  25842052.355 8 102732738.97808
  21490197.898 7 114958152.23407


  22706425.004 7 119323256.94307  92979269.49905  22706430.745 5  22706424.803 5
  22706430.243 7  22706429.993 7  89105156.77007

  19379779.518 8 103741973.95208  80688456.57408
  19379785.184 8

  25152345.915 7 132176545.04207
                  25152352.166 7  98703332.55107  25152349.327 7 107286200.33207
  25152349.789 7 101278186.73607  25152350.964 8  99990759.71708
  23421014.519 7 123078602.35607
                  23421016.834 8  91909557.54308  23421018.220 8  99901620.71608
  23421015.065 8  94307168.52208  23421015.856 8  93108368.60508
  24263260.096 6 127504323.23806  99354060.24303  24263266.366 3  24263259.520 3
  24263266.612 6  24263265.174 7  95214305.82807

  37105711.748 7 194991847.65207
                  37105712.801 6 145610787.73906

  36827685.110 7 193530821.91907
                  36827695.204 7 144519796.42407

  23498959.967 8 123488369.19408
                  23498964.395 8  92215655.80708  23498962.488 8 100233841.15008
  23498962.525 8  94621241.34308  23498963.406 8  93418449.64808
  36979181.608 7 194326917.01207
                  36979183.300 6 145114261.36006

  25608243.994 5 134572190.48705 104861455.81902  25608253.294 2  25608243.073 2


  26876278.683 6 141236109.77906
                  26876283.911 7 105468728.40707  26876282.982 6 114639847.24506
  26876281.877 7 108220061.90107  26876282.835 7 106844392.72607
  22011297.929 7 115670570.09307  90133095.33906  22011302.543 6  22011297.853 6
  22011303.084 7  22011300.916 7  86377632.91407

  28529445.729 5 149923269.29705
                  28529456.298 6 111955730.48406  28529451.549 6 121690991.00906
  28529453.512 6 114876302.55306  28529454.670 6 113416023.09806
  21927527.747 7 115230015.62407  89789678.24306  21927531.663 6  21927527.135 6
  21927532.001 7  21927530.102 7  86048447.11407

  25175934.320 6 132300445.57806 103091311.28303  25175941.591 3  25175934.052 3
  25175942.224 5

  28246083.515 5 148434139.07505
                  28246097.197 6 110843697.57306  28246093.525 6 120482273.67506
  28246094.533 6 113735266.93106  28246095.662 6 112289486.32506
 25  4 11  2 14 45.0000000  0 28G18E19G15E29G23R22R21G10R08R06E33R23
                                G24R07E13E26G08S33S31E07S35G16E08G32
                                E31G27G29E23
  21061647.834 7 110680023.92507  86244327.30906  21061649.587 6  21061647.620 6
  21061649.739 7  21061652.778 8  82650872.95108

  27849230.022 4 146348718.57604
                  27849245.669 5 109286476.28805  27849241.704 5 118789622.57005
  27849242.166 5 112137376.61405  27849243.878 5 110711944.02705
  23143750.870 6 121621713.88006  94770416.51404  23143753.651 4  23143750.629 4
  23143754.120 6

  24504124.613 7 128770503.93107
                  24504129.036 7  96160073.77307  24504129.875 7 104521717.42007
  24504127.002 7  98668560.81807  24504127.833 8  97414212.36908
  20912061.141 8 109894083.64908  85632030.51106  20912062.520 6  20912060.882 6
  20912062.798 7  20912065.589 8  82064049.80308

  19145515.253 8 102200192.70008  79489123.05707
  19145519.525 7

  21141285.266 8 113131543.10908  87991360.50607
  21141293.157 7

  21466516.546 8 112807644.26408  87902265.28406  21466520.005 6  21466516.220 6
  21466520.019 7  21466517.087 8  84239687.56808

  20340184.346 8 108921165.01508  84716652.47307
  20340190.482 7

  22214370.477 6 118540203.56906


  25835871.733 7 135768603.46107
                  25835875.323 7 101385763.09407  25835876.220 7 110201882.73007
  25835873.532 7 104030590.14407  25835874.518 8 102708179.69308
  21480107.452 7 114904180.46507


  22704404.282 7 119312638.77107  92970995.62305  22704409.952 5  22704404.081 5
  22704410.249 7  22704409.443 7  89097227.63707

  19383877.330 8 103763910.03508  80705517.96808
  19383883.607 8

  25156486.907 7 132198306.10007
                  25156493.157 7  98719582.67907  25156490.337 7 107303863.51907
  25156490.742 7 101294860.77507  25156491.964 8 100007221.80108
  23419228.476 8 123069216.14708
                  23419230.655 8  91902548.37308  23419232.083 8  99894002.05108
  23419228.916 8  94299976.50708  23419229.707 8  93101268.01308
  24256292.193 6 127467708.34206  99325529.22103  24256298.537 3  24256291.652 3
  24256299.008 6  24256297.195 7  95186963.60307

  37105715.348 7 194991856.65807
                  37105714.541 6 145610794.32606

  36827684.547 7 193530815.98507
                  36827694.086 7 144519792.11007

  23500248.641 8 123495142.22108
                  23500253.286 8  92220713.59308  23500251.313 8 100239338.74308
  23500251.383 8  94626431.07308  23500252.258 8  93423573.40608
  36979190.698 7 194326967.68707
                  36979193.110 6 145114299.31306

  25614611.637 5 134605653.18105 104887530.53102  25614621.028 2  25614610.757 2


  26883582.900 6 141274493.27606
                  26883587.886 7 105497391.38607  26883586.981 6 114671002.65706
  26883586.029 7 108249472.61707  26883586.994 7 106873429.57107
  22003674.941 7 115630510.87307  90101880.40006  22003679.473 6  22003674.861 6
  22003680.241 7  22003677.816 7  86347718.60607

  28532959.940 5 149941735.47705
                  28532970.293 6 111969520.11706  28532966.366 6 121705979.77206
  28532967.513 5 114890451.90605  28532968.628 6 113429992.59006
  21925472.704 7 115219214.63207  89781261.89206  21925476.362 6  21925472.096 6
  21925476.651 7  21925474.712 7  86040381.44607

  25186780.608 6 132357445.64706 103135726.83703  25186788.741 3  25186780.345 3
  25186789.607 5

  28252145.462 5 148465995.72505
                  28252159.147 6 110867486.51906  28252155.295 6 120508131.26306
  28252157.117 6 113759676.49006  28252157.769 6 112313585.57906
 25  4 11  2 15  0.0000000  0 28G18E19G15E29G23R22R21G10R08R06E33R23
                                G24R07E13E26G08S33S31E07S35G16E08G32
                                E31G27G29E23
  21065478.829 7 110700155.83207  86260014.50006  21065480.592 6  21065478.610 6
  21065480.739 7  21065483.701 8  82665906.50408

  27840646.424 4 146303610.76804
                  27840661.699 5 109252792.22905  27840657.401 5 118753009.34605
  27840658.007 5 112102813.78405  27840659.857 5 110677820.58505
  23153744.725 6 121674231.54106  94811339.34504  23153747.575 4  23153744.493 4
  23153748.457 6

  24497779.292 7 128737157.53507
                  24497783.363 7  96135172.27907  24497784.130 7 104494650.57207
  24497781.388 7  98643009.72107  24497782.189 8  97388986.07408
  20914931.569 8 109909167.76208  85643784.37206  20914932.926 6  20914931.306 6
  20914933.380 7  20914935.977 8  82075313.92008

  19143121.224 8 102187413.27708  79479183.50207
  19143125.525 7

  21149948.664 8 113177903.20808  88027418.32707
  21149956.768 7

  21464304.122 8 112796018.81808  87893206.50007  21464307.754 7  21464303.792 7
  21464307.639 7  21464304.822 8  84231006.23708

  20334584.252 8 108891175.14508  84693327.05407
  20334590.220 7

  22224541.052 6 118594476.42806


  25829693.060 7 135736135.91207
                  25829696.968 7 101361517.89007  25829697.741 7 110175529.22007
  25829695.189 7 104005712.43807  25829696.135 8 102683618.23708
  21470028.736 8 114850260.92908


  22702409.436 7 119302155.77107  92962827.08005  22702415.076 5  22702409.213 5
  22702415.374 7  22702414.661 7  89089399.46407

  19387998.077 8 103785968.18208  80722674.29908
  19388003.812 8

  25160637.200 7 132220116.41607
                  25160643.479 7  98735869.58807  25160640.719 7 107321566.68707
  25160641.241 7 101311572.56407  25160642.349 8 100023721.15008
  23417450.510 8 123059873.17308
                  23417452.746 8  91895571.49108  23417454.251 8  99886418.48108
  23417451.022 8  94292817.61808  23417451.789 8  93094200.12808
  24249342.294 6 127431186.05006  99297070.32503  24249348.267 3  24249341.767 3
  24249349.885 6  24249347.229 7  95159690.53407

  37105715.250 7 194991863.70607
                  37105716.003 6 145610799.52506

  36827684.350 7 193530808.15107
                  36827692.521 7 144519786.33107

  23501555.603 8 123502010.01508
                  23501560.152 8  92225842.15108  23501558.231 8 100244913.25608
  23501558.317 8  94631693.41508  23501559.138 8  93428768.85608
  36979200.648 7 194327016.07107
                  36979202.385 6 145114335.37106

  25620980.083 6 134639118.71706 104913607.47302  25620989.396 2  25620979.212 2


  26890893.904 6 141312912.80506
                  26890898.942 7 105526081.27007  26890897.735 6 114702187.31506
  26890896.869 7 108278910.93407  26890897.931 7 106902493.67407
  21996067.962 7 115590536.27107  90070731.40606  21996072.451 6  21996067.873 6
  21996073.735 7  21996070.904 7  86317867.50107

  28536485.842 5 149960264.78405
                  28536496.194 6 111983356.88906  28536491.477 6 121721019.78306
  28536493.547 5 114904649.66205  28536494.717 6 113444009.85006
  21923444.305 7 115208556.40107  89772956.79106  21923448.222 6  21923443.702 6
  21923448.840 7  21923446.581 7  86032422.38707

  25197623.998 6 132414427.44006 103180128.14203  25197632.336 3  25197623.762 3
  25197632.521 5

  28258206.513 6 148497845.01406
                  28258220.339 6 110891269.98906  28258216.217 6 120533982.90106
  28258217.688 6 113784080.38106  28258218.701 6 112337679.25906
 25  4 11  2 15 15.0000000  0 28G18E19G15E29G23R22R21G10R08R06E33R23
                                G24R07E13E26G08S33S31E07S35G16E08G32
                                E31G27G29E23
  21069328.219 7 110720384.39407  86275777.00306  21069330.020 6  21069327.996 6
  21069330.333 7  21069333.069 8  82681012.23608

  27832062.513 5 146258508.42505
                  27832078.745 5 109219112.21205  27832074.623 5 118716400.50605
  27832075.371 5 112068255.11905  27832076.863 5 110643701.24305
  23163745.882 6 121726788.25806  94852292.57904  23163749.182 4  23163745.668 4
  23163749.231 6

  24491446.147 7 128703877.80607
                  24491450.409 7  96110320.56507  24491451.170 7 104467637.82207
  24491448.492 7  98617509.69307  24491449.240 8  97363810.20208
  20917807.873 8 109924283.51108  85655562.88406  20917809.414 6  20917807.610 6
  20917809.822 7  20917812.399 8  82086601.65808

  19140756.255 8 102174789.11108  79469364.72207
  19140760.585 7

  21158634.111 8 113224380.67608  88063567.44307
  21158642.075 7

  21462098.853 8 112784428.96908  87884175.45807  21462102.265 7  21462098.518 7
  21462102.287 7  21462099.305 8  84222351.48808

  20329008.206 8 108861317.36508  84670104.35507
  20329014.205 7

  22234714.157 6 118648762.77806


  25823514.313 7 135703666.19707
                  25823518.161 7 101337271.04107  25823518.963 7 110149173.95207
  25823516.411 7 103980833.06907  25823517.336 8 102659055.12808
  21459958.788 7 114796394.80507


  22700440.368 7 119291808.76907  92954764.50905  22700446.029 5  22700440.145 5
  22700445.774 7  22700445.572 7  89081672.83707

  19392141.930 8 103808149.09508  80739926.12407
  19392147.529 7

  25164797.308 7 132241976.65507
                  25164803.397 7  98752193.77707  25164800.587 7 107339310.37207
  25164801.178 7 101328322.60107  25164802.219 8 100040258.26308
  23415680.917 8 123050574.17108
                  23415683.206 8  91888627.44308  23415684.693 8  99878870.59608
  23415681.437 8  94285692.41908  23415682.239 8  93087165.50508
  24242409.807 6 127394757.19606  99268684.27404  24242416.635 4  24242409.257 4
  24242416.956 6  24242415.207 6  95132487.23706

  37105718.197 7 194991869.98707
                  37105717.080 6 145610804.34606

  36827681.340 7 193530798.54807
                  36827690.858 7 144519779.20007

  23502880.768 8 123508973.06508
                  23502885.153 8  92231041.84808  23502883.288 8 100250565.09608
  23502883.301 8  94637028.75808  23502884.156 8  93434036.37608
  36979209.394 7 194327063.46707
                  36979211.247 6 145114370.90906

  25627348.626 6 134672587.28106 104939686.79002  25627358.172 2  25627347.763 2


  26898211.989 6 141351368.72806
                  26898216.948 7 105554798.33607  26898216.241 6 114733401.53306
  26898214.934 7 108308377.13807  26898215.894 7 106931585.31007
  21988477.111 7 115550647.05307  90039648.94006  21988481.756 6  21988477.022 6
  21988482.313 7  21988480.147 7  86288080.14607

  28540024.027 5 149978857.65405
                  28540034.331 6 111997241.12906  28540029.800 6 121736111.34506
  28540031.537 5 114918896.09705  28540032.929 6 113458075.19306
  21921443.258 7 115198041.57407  89764763.43306  21921447.319 6  21921442.650 6
  21921447.779 7  21921445.710 7  86024570.42107

  25208464.312 6 132471391.27106 103224515.45503  25208472.551 3  25208464.076 3
  25208471.966 5

  28264265.534 6 148529687.28906
                  28264279.637 6 110915048.18806  28264275.970 6 120559828.83806
  28264277.320 6 113808478.91806  28264278.156 6 112361767.62806
 25  4 11  2 15 30.0000000  0 28G18E19G15E29G23R22R21G10R08R06E33R23
                                G24R07E13E26G08S33S31E07S35G16E08G32
                                E31G27G29E23
  21073197.117 7 110740715.62207  86291619.51106  21073198.890 6  21073196.903 6
  21073199.197 7  21073201.992 8  82696194.64408

  27823482.778 5 146213417.92205
                  27823498.156 5 109185441.04805  27823494.199 5 118679801.32705
  27823494.418 5 112033705.54605  27823496.043 5 110609590.87405
  23173755.464 7 121779389.80707  94893280.77405  23173758.936 5  23173755.263 5
  23173759.228 6

  24485127.090 7 128670670.84307
                  24485131.325 7  96085523.20507  24485132.138 7 104440684.14807
  24485129.318 7  98592065.44607  24485130.131 8  97338689.39908
  20920691.444 8 109939436.79508  85667370.64206  20920693.038 6  20920691.181 6
  20920693.241 7  20920696.018 8  82097917.43108

  19138421.946 8 102162326.61008  79459671.66807
  19138425.719 7

  21167342.607 8 113270981.56808  88099812.53907
  21167350.552 7

  21459901.275 8 112772880.63108  87875176.76506  21459904.668 6  21459900.940 6
  21459904.865 7  21459901.771 8  84213727.74608

  20323458.179 8 108831598.00008  84646989.33507
  20323464.811 7

  22244890.646 5 118703068.24905


  25817336.517 7 135671200.40207
                  25817340.175 7 101313027.15107  25817340.899 7 110122821.87807
  25817338.373 7 103955956.72307  25817339.275 8 102634495.00808
  21449899.970 7 114742588.72207


  22698498.935 7 119281603.98207  92946812.74905  22698504.052 5  22698498.703 5
  22698503.797 7  22698503.547 7  89074052.40907

  19396309.185 8 103830458.10508  80757277.57807
  19396315.297 7

  25168967.731 7 132263892.81707
                  25168973.935 7  98768559.73407  25168971.308 7 107357099.45607
  25168971.657 7 101345115.49707  25168972.741 8 100056837.68908
  23413920.948 8 123041325.25408
                  23413923.253 8  91881720.80008  23413924.675 8  99871363.37108
  23413921.413 8  94278605.59508  23413922.222 8  93080168.77108
  24235496.650 6 127358428.05906  99240375.91803  24235503.439 3  24235496.092 3
  24235503.251 6  24235501.983 7  95105358.39507

  37105717.450 7 194991880.68207
                  37105719.070 6 145610812.37006

  36827681.519 7 193530794.05707
                  36827689.883 7 144519775.94807

  23504224.879 8 123516037.26508
                  23504229.435 8  92236317.07108  23504227.504 8 100256299.03208
  23504227.560 8  94642441.59108  23504228.424 8  93439380.40508
  36979218.078 7 194327115.54007
                  36979221.237 6 145114409.88806

  25633719.202 5 134706064.48405 104965772.77202  25633728.749 2  25633718.348 2


  26905537.975 6 141389866.87406
                  26905542.948 7 105583546.92107  26905541.848 7 114764650.00807
  26905540.977 7 108337875.68807  26905541.901 7 106960708.87807
  21980904.296 7 115510849.41207  90008637.83406  21980908.473 6  21980904.207 6
  21980908.838 7  21980906.811 7  86258361.17707

  28543575.454 5 149997519.84205
                  28543585.948 6 112011177.11506  28543581.708 6 121751259.18406
  28543582.954 6 114933195.62606  28543584.296 6 113472192.94606
  21919470.563 7 115187676.20707  89756686.53706  21919474.765 6  21919469.946 6
  21919475.218 7  21919473.309 7  86016830.05807

  25219301.573 6 132528342.77406 103268893.14003  25219310.199 3  25219301.301 3
  25219310.564 5

  28270324.970 5 148561528.25605
                  28270339.135 6 110938825.45906  28270334.205 6 120585673.68206
  28270336.717 6 113832876.45406  28270337.486 6 112385855.02806
 25  4 11  2 15 45.0000000  0 28G18E19G15E29G23R22R21G10R08R06E33R23
                                G24R07E13E26G08S33S31E07S35G16E08G32
                                E31G27G29E23
  21077083.953 7 110761140.40107  86307534.91406  21077085.575 6  21077083.739 6
  21077085.795 7  21077088.736 8  82711446.90108

  27814902.255 5 146168330.07205
                  27814917.674 5 109151771.85005  27814913.924 5 118643204.25705
  27814914.556 5 111999157.99505  27814915.849 6 110575482.49806
  23183772.090 6 121832026.50706  94934296.34704  23183775.084 4  23183771.871 4
  23183776.104 6

  24478819.978 7 128637527.64207
                  24478824.426 7  96060773.45707  24478825.106 7 104413782.23407
  24478822.313 7  98566670.04607  24478823.154 8  97313616.82508
  20923580.578 8 109954618.37608  85679200.45206  20923581.974 6  20923580.315 6
  20923582.422 7  20923585.007 8  82109254.33008

  19136115.425 8 102150016.70108  79450097.29307
  19136119.790 7

  21176072.389 8 113317696.06308  88136145.99107
  21176080.164 7

  21457709.765 8 112761364.56508  87866203.22507  21457713.274 7  21457709.430 7
  21457713.057 7  21457710.266 8  84205128.10608

  20317933.047 8 108802007.40708  84623974.44907
  20317938.674 7

  22255069.708 6 118757383.33006


  25811157.132 7 135638729.50007
                  25811161.150 7 101288779.43007  25811161.805 7 110096465.64307
  25811159.296 7 103931076.45307  25811160.231 8 102609931.01308
  21439850.368 7 114688833.82807


  22696581.516 7 119271532.38907  92938964.78605  22696587.188 5  22696581.280 5
  22696587.835 7  22696586.999 7  89066531.45807

  19400498.998 8 103852885.41108  80774721.03608
  19400504.719 8

  25173147.152 7 132285855.79507
                  25173153.445 7  98784960.65107  25173150.459 7 107374926.55107
  25173151.139 7 101361944.26707  25173152.174 8 100073452.53308
  23412168.828 8 123032117.40808
                  23412170.987 8  91874844.81908  23412172.449 8  99863889.47708
  23412169.233 8  94271550.24408  23412170.007 8  93073203.10508
  24228601.094 6 127322189.75806  99212138.33303  24228606.928 3  24228600.536 3
  24228607.864 6  24228606.107 7  95078297.39707

  37105721.559 7 194991886.52807
                  37105720.215 6 145610816.66906

  36827678.514 7 193530785.03307
                  36827688.103 7 144519769.14807

  23505586.502 8 123523193.32108
                  23505591.179 8  92241660.89108  23505589.300 8 100262107.52908
  23505589.247 8  94647924.81208  23505590.154 8  93444793.92408
  36979227.397 7 194327162.48907
                  36979230.194 6 145114444.83906

  25640091.041 5 134739540.85505 104991858.18702  25640099.054 2  25640090.223 2


  26912870.063 6 141428397.82206
                  26912875.003 7 105612320.00407  26912873.897 6 114795925.10706
  26912873.216 7 108367399.37307  26912874.078 7 106989857.26107
  21973346.173 7 115471134.39507  89977691.10806  21973350.952 6  21973346.057 6
  21973351.658 7  21973349.277 7  86228703.90707

  28547137.793 5 150016241.96705
                  28547148.539 6 112025157.87106  28547144.154 6 121766455.66606
  28547145.693 6 114947541.09206  28547146.828 6 113486356.05806
  21917525.134 7 115177451.19707  89748719.00306  21917528.974 6  21917524.517 6
  21917529.578 7  21917527.532 7  86009194.50807

  25230135.431 6 132585272.57406 103313253.92503  25230143.514 3  25230135.132 3
  25230144.438 5

  28276381.992 5 148593358.52405
                  28276395.923 6 110962594.68606  28276391.947 6 120611509.87506
  28276393.389 6 113857265.79406  28276394.746 6 112409934.31306
 25  4 11  2 16  0.0000000  0 28G18E19G15E29G23R22R21G10R08R06E33R23
                                G24R07E13E26G08S33S31E07S35G16E08G32
                                E31G27G29E23
  21080989.824 7 110781666.28707  86323529.10206  21080991.555 6  21080989.614 6
  21080991.819 7  21080994.727 8  82726774.66608

  27806323.885 4 146123252.68704
                  27806339.625 5 109118110.49405  27806335.611 5 118606615.65405
  27806336.326 5 111964618.45305  27806337.721 6 110541382.04606
  23193796.854 6 121884705.55406  94975344.91904  23193799.389 4  23193796.644 4
  23193800.289 6

  24472526.595 7 128604455.89307
                  24472531.020 7  96036077.06007  24472531.656 7 104386938.31307
  24472529.016 7  98541329.38207  24472529.774 8  97288598.29408
  20926476.234 8 109969835.71708  85691058.12406  20926477.739 6  20926475.966 6
  20926478.188 7  20926480.728 8  82120617.94108

  19133839.751 8 102137867.39908  79440647.84708
  19133843.606 8

  21184824.719 8 113364531.77708  88172573.74707
  21184832.694 7

  21455526.016 8 112749888.23308  87857260.65007  21455529.391 7  21455525.686 7
  21455529.282 7  21455526.402 8  84196558.14108

  20312432.606 8 108772553.41508  84601065.82607
  20312438.227 7

  22265251.360 6 118811715.16606


  25804978.725 7 135606261.11207
                  25804982.558 7 101264533.58107  25804983.127 7 110070111.45607
  25804980.649 7 103906198.09707  25804981.665 8 102585368.91308
  21429813.150 7 114635138.11107


  22694692.482 7 119261601.81007  92931226.69805  22694697.423 5  22694692.259 5
  22694698.407 7  22694697.364 7  89059115.79707

  19404712.070 8 103875438.40208  80792262.25808
  19404717.940 8

  25177336.909 7 132307873.16807
                  25177343.176 7  98801402.17507  25177340.353 7 107392797.77607
  25177340.922 7 101378814.70207  25177341.941 8 100090108.51308
  23410425.794 8 123022958.31708
                  23410428.026 8  91868005.24608  23410429.582 8  99856455.15308
  23410426.289 8  94264532.25008  23410427.081 8  93066274.32108
  24221723.469 6 127286050.03506  99183977.56004  24221729.608 4  24221722.911 4
  24221730.668 6  24221728.772 7  95051310.01507

  37105721.331 7 194991895.44407
                  37105721.802 6 145610823.35106

  36827679.355 7 193530778.69307
                  36827686.968 7 144519764.35407

  23506967.263 8 123530448.67708
                  23506971.835 8  92247078.86308  23506969.988 8 100267996.62508
  23506969.906 8  94653484.12208  23506970.799 8  93450282.56608
  36979238.129 7 194327212.62707
                  36979239.727 6 145114482.32506

  25646461.858 5 134773023.53005 105017948.42902  25646470.651 2  25646461.067 2


  26920210.067 6 141466968.87906
                  26920214.989 7 105641123.03607  26920213.918 6 114827232.74806
  26920212.952 7 108396953.79107  26920213.929 7 107019035.98507
  21965805.742 7 115431509.74007  89946814.79806  21965810.562 6  21965805.622 6
  21965811.772 7  21965808.964 7  86199114.11707

  28550713.569 5 150035031.38705
                  28550724.096 6 112039188.85806  28550720.016 6 121781706.78006
  28550721.133 6 114961938.15106  28550722.490 6 113500570.07806
  21915607.346 7 115167374.11707  89740866.74406  21915611.364 6  21915606.725 6
  21915611.512 7  21915609.933 7  86001669.42607

  25240965.748 5 132642187.88205 103357603.44103  25240974.432 3  25240965.449 3
  25240974.547 5

  28282438.480 5 148625185.38105
                  28282452.401 6 110986361.40906  28282448.878 6 120637343.30806
  28282450.556 6 113881652.50206  28282451.161 6 112434011.02706
 25  4 11  2 16 15.0000000  0 28G18E19G15E29G23R22R21G10R08R06E33R23
                                G24R07E13E26G08S33S31E07S35G16E08G32
                                E31G27G29E23
  21084913.618 7 110802287.30707  86339597.42106  21084915.561 6  21084913.395 6
  21084915.902 7  21084918.771 8  82742173.46808

  27797746.761 4 146078179.74804
                  27797762.509 5 109084452.48605  27797758.220 5 118570030.74305
  27797758.876 5 111930082.39705  27797760.281 6 110507285.01206
  23203827.816 6 121937420.71906  95016421.62704  23203830.942 4  23203827.615 4
  23203831.393 6

  24466245.784 7 128571449.70707
                  24466250.119 7  96011429.62807  24466250.762 7 104360147.60607
  24466248.158 7  98516038.97207  24466248.888 8  97263629.37408
  20929377.789 8 109985082.76208  85702938.94406  20929379.160 6  20929377.521 6
  20929379.262 7  20929382.141 8  82132003.72508

  19131592.781 8 102125872.91808  79431318.81907
  19131596.905 7

  21193599.232 8 113411482.23408  88209090.72407
  21193606.730 7

  21453348.351 8 112738445.52608  87848344.26907  21453351.899 7  21453348.034 7
  21453351.803 7  21453348.877 8  84188013.28708

  20306956.245 8 108743230.25108  84578258.94807
  20306962.322 7

  22275435.803 6 118866057.40606


  25798799.512 7 135573789.33607
                  25798803.242 7 101240285.21307  25798804.002 7 110043754.51607
  25798801.417 7 103881317.15507  25798802.459 8 102560804.25808
  21419785.389 7 114581496.04707


  22692828.294 7 119251806.43507  92923593.96705  22692833.530 5  22692828.071 5
  22692833.371 6  22692833.246 7  89051801.09207

  19408947.347 8 103898110.68508  80809896.26007
  19408953.046 7

  25181535.737 7 132329938.95307
                  25181542.180 7  98817879.85607  25181539.426 7 107410708.31207
  25181539.733 7 101395722.23707  25181540.934 8 100106801.12008
  23408691.006 8 123013842.12108
                  23408693.303 8  91861197.71408  23408694.800 8  99849055.65908
  23408691.551 8  94257547.12508  23408692.315 8  93059377.99308
  24214864.388 6 127250003.20706  99155889.19104  24214870.971 4  24214863.852 4
  24214871.061 6  24214868.999 7  95024391.99007

  37105724.314 7 194991901.54807
                  37105722.844 6 145610828.01206

  36827675.814 7 193530769.28507
                  36827685.157 7 144519757.43507

  23508365.653 8 123537797.23008
                  23508370.207 8  92252566.43308  23508368.283 8 100273961.37008
  23508368.248 8  94659114.84108  23508369.178 8  93455841.71108
  36979246.544 7 194327259.58207
                  36979248.643 6 145114517.34206

  25652832.412 6 134806506.18006 105044038.71502  25652842.450 2  25652831.608 2


  26927556.351 6 141505573.85806
                  26927561.123 7 105669951.40507  26927560.264 6 114858567.95406
  26927559.238 7 108426534.21007  26927560.228 7 107048240.37907
  21958281.811 7 115391969.65607  89916004.38706  21958286.288 6  21958281.691 6
  21958287.103 7  21958284.621 7  86169587.48207

  28554301.020 5 150053881.86505
                  28554311.045 6 112053265.48906  28554306.823 6 121797007.46806
  28554308.012 5 114976381.95505  28554309.679 6 113514830.29206
  21913716.975 7 115157439.03907  89733125.13806  21913720.887 6  21913716.349 6
  21913721.041 7  21913719.374 8  85994250.38908

  25251793.413 6 132699082.30106 103401936.64503  25251800.758 3  25251793.114 3
  25251801.151 5

  28288493.402 5 148657002.56805
                  28288507.280 6 111010120.89006  28288503.653 6 120663168.89206
  28288504.707 6 113906031.83806  28288505.818 6 112458080.43806
 25  4 11  2 16 30.0000000  0 28G18E19G15E29G23R22R21G10R08R06E33R23
                                G24R07E13E26G08S33S31E07S35G16E08G32
                                E31G27G29E23
  21088857.540 7 110823011.95207  86355746.48006  21088859.344 6  21088857.317 6
  21088859.678 7  21088862.509 8  82757649.64908

  27789172.519 4 146033120.01704
                  27789187.759 5 109050804.32005  27789183.412 5 118533456.52105
  27789183.796 5 111895556.40205  27789185.332 6 110473197.93906
  23213867.449 6 121990180.15406  95057532.84504  23213870.732 4  23213867.248 4
  23213871.341 6

  24459979.022 7 128538517.71607
                  24459983.337 7  95986837.58807  24459984.099 7 104333417.11407
  24459981.292 7  98490805.40307  24459982.093 8  97238716.56908
  20932286.615 8 110000367.92608  85714849.46706  20932287.817 6  20932286.356 6
  20932287.997 7  20932290.797 8  82143417.97708

  19129376.529 8 102114042.11008  79422117.08707
  19129380.568 7

  21202395.636 8 113458555.81308  88245703.48607
  21202403.855 7

  21451178.891 8 112727044.86008  87839460.64807  21451182.406 7  21451178.570 7
  21451182.394 7  21451179.405 8  84179499.81308

  20301506.198 8 108714046.15308  84555560.24207
  20301512.505 7

  22285621.921 6 118920418.29006


  25792621.568 7 135541322.82807
                  25792625.110 7 101216040.77007  25792625.808 7 110017401.85707
  25792623.341 7 103856440.25607  25792624.255 8 102536243.58708
  21409769.151 7 114527916.51907


  22690991.386 7 119242154.91707  92916073.33205  22690996.811 5  22690991.158 5
  22690997.412 7  22690996.602 7  89044593.83307

  19413206.798 8 103920910.39508  80827629.36907
  19413212.271 7

  25185745.574 7 132352061.66107
                  25185751.971 7  98834400.06007  25185749.195 7 107428665.05707
  25185749.634 7 101412673.40507  25185750.761 8 100123536.80608
  23406966.198 8 123004777.46408
                  23406968.393 8  91854428.66608  23406969.801 8  99841697.98708
  23406966.597 8  94250601.48908  23406967.364 8  93052520.65108
  24208023.928 6 127214057.98606  99127879.98804  24208030.739 4  24208023.405 4
  24208031.480 6  24208028.495 7  94997549.85407

  37105726.071 7 194991912.36407
                  37105725.107 6 145610835.84006

  36827674.074 7 193530765.20007
                  36827684.455 7 144519754.39207

  23509783.274 8 123545247.36508
                  23509787.971 8  92258129.84708  23509786.033 8 100280008.55908
  23509785.994 8  94664823.39308  23509786.875 8  93461477.69408
  36979256.762 7 194327311.84907
                  36979258.664 6 145114556.23006

  25659205.551 6 134839996.88506 105070135.25902  25659215.791 2  25659204.733 2


  26934910.592 6 141544221.01606
                  26934915.541 7 105698811.27007  26934914.320 6 114889937.38406
  26934913.599 7 108456146.94907  26934914.536 7 107077476.68407
  21950775.009 7 115352522.81207  89885266.63006  21950779.883 6  21950774.875 6
  21950780.385 7  21950778.062 7  86140130.47907

  28557901.230 6 150072801.74006
                  28557911.755 6 112067393.88506  28557907.639 6 121812364.45206
  28557908.897 6 114990878.93606  28557910.127 6 113529142.98506
  21911854.558 7 115147654.48207  89725500.81406  21911858.997 6  21911853.941 6
  21911858.915 7  21911857.454 8  85986943.74708

  25262616.905 6 132755964.08006 103446259.99403  25262625.014 3  25262616.597 3
  25262625.579 5

  28294547.514 6 148688818.35106
                  28294561.528 6 111033879.33006  28294558.356 6 120688993.31006
  28294559.667 6 113930410.06306  28294560.346 6 112482148.76706
 25  4 11  2 16 45.0000000  0 28G18E19G15E29G23R22R21G10R08R06E33R23
                                G24R07E13E26G08S33S31E07S35G16E08G32
                                E31G27G29E23
  21092819.233 7 110843830.73207  86371968.89706  21092821.063 6  21092819.014 6
  21092821.230 7  21092824.186 8  82773196.12808

  27780598.439 4 145988064.32304
                  27780613.637 5 109017159.15805  27780609.319 5 118496885.56105
  27780609.694 5 111861033.50305  27780611.188 6 110439113.90406
  23223914.461 6 122042973.84506  95098670.75105  23223917.386 5  23223914.269 5
  23223917.589 6

  24453724.396 7 128505650.50007
                  24453728.895 7  95962293.93007  24453729.523 7 104306739.21207
  24453726.810 7  98465621.46907  24453727.639 8  97213852.77308
  20935200.353 8 110015681.58608  85726782.19706  20935201.978 6  20935200.094 6
  20935202.063 7  20935204.870 8  82154853.51008

  19127189.121 8 102102365.63108  79413035.38807
  19127193.139 7

  21211212.418 7 113505742.47307  88282404.19507
  21211221.139 7

  21449015.834 8 112715676.63708  87830602.30307  21449019.107 7  21449015.517 7
  21449019.010 7  21449016.082 8  84171010.57108

  20296080.526 8 108684991.87408  84532962.49807
  20296086.650 7

  22295812.236 6 118974787.79406


  25786442.358 7 135508852.10407
                  25786446.196 7 101191793.19107  25786446.921 7 109991045.77507
  25786444.277 7 103831560.12307  25786445.247 8 102511679.72908
  21399762.668 7 114474390.61107


  22689180.564 7 119232637.92907  92908657.52405  22689185.656 5  22689180.332 5
  22689185.903 7  22689185.654 7  89037487.04007

  19417487.263 8 103943827.39508  80845453.70808
  19417493.391 8

  25189964.339 7 132374231.81907
                  25189970.766 7  98850955.68007  25189968.039 7 107446660.30507
  25189968.594 7 101429660.91207  25189969.598 8 100140308.37008
  23405249.081 8 122995754.93208
                  23405251.388 8  91847691.07308  23405252.925 8  99834374.51308
  23405249.608 8  94243688.12608  23405250.417 8  93045695.17308
  24201201.235 6 127178205.10206  99099942.74804  24201208.017 4  24201200.708 4
  24201208.974 6  24201205.827 7  94970776.66907

  37105726.496 7 194991919.49207
                  37105726.466 6 145610841.11706

  36827672.004 7 193530757.29107
                  36827682.854 7 144519748.46607

  23511218.570 8 123552789.40008
                  23511223.119 8  92263761.90008  23511221.240 8 100286130.35108
  23511221.171 8  94670602.36508  23511222.083 8  93467183.20608
  36979265.075 7 194327360.80307
                  36979267.885 6 145114592.98206

  25665578.372 5 134873485.76305 105096230.34502  25665588.685 2  25665577.514 2


  26942271.081 7 141582900.59507
                  26942276.188 7 105727695.34407  26942275.286 6 114921333.13106
  26942274.107 7 108485784.52507  26942275.055 7 107106737.50807
  21943284.866 7 115313159.88707  89854594.27106  21943289.338 6  21943284.737 6
  21943290.050 7  21943287.483 7  86110736.13807

  28561512.695 5 150091781.20305
                  28561523.419 6 112081566.82406  28561519.037 6 121827769.82506
  28561520.346 5 115005421.59705  28561521.664 6 113543500.78406
  21910019.765 7 115138010.95107  89717986.38606  21910023.799 6  21910019.157 6
  21910024.186 7  21910022.309 8  85979742.42608

  25273436.737 6 132812823.33406 103490565.83503  25273444.605 3  25273436.389 3
  25273445.183 5

  28300600.011 5 148720622.90905
                  28300614.074 6 111057629.38406  28300610.205 6 120714808.60106
  28300611.545 6 113954779.68306  28300612.540 6 112506208.60506
 25  4 11  2 17  0.0000000  0 28G18E19G15E29G23R22R21G10R08R06E33R23
                                G24R07E13E26G08S33S31E07S35G16E08G32
                                E31G27G29E23
  21096800.185 7 110864751.60207  86388270.86606  21096802.166 6  21096799.953 6
  21096802.444 7  21096805.332 8  82788818.84908

  27772026.701 4 145943020.54104
                  27772041.184 5 108983522.87505  27772038.068 5 118460324.28905
  27772037.934 5 111826519.72205  27772039.374 5 110405038.87005
  23233968.559 6 122095809.53506  95139841.38504  23233971.717 4  23233968.354 4
  23233972.191 6

  24447483.706 7 128472856.13107
                  24447488.241 7  95937804.67107  24447488.893 7 104280120.43107
  24447486.245 7  98440493.35107  24447487.047 8  97189044.08408
  20938121.692 8 110031031.61608  85738743.26706  20938122.976 6  20938121.438 6
  20938123.254 7  20938125.879 8  82166316.20308

  19125032.092 8 102090851.78508  79404080.17507
  19125036.159 7

  21220054.022 8 113553050.12808  88319198.99507
  21220061.855 7

  21446860.205 8 112704348.69608  87821775.35907  21446863.441 7  21446859.897 7
  21446863.587 7  21446860.478 8  84162551.42308

  20290680.356 8 108656075.32708  84510471.88607
  20290686.930 7

  22306002.836 6 119029173.53406


  25780264.322 7 135476385.24907
                  25780267.983 7 101167548.49207  25780268.637 7 109964692.83207
  25780266.118 7 103806682.95407  25780266.985 8 102487118.79408
  21389768.133 7 114420926.68107


  22687396.878 7 119223263.64907  92901352.92005  22687401.872 5  22687396.646 5
  22687402.326 7  22687401.725 7  89030486.78707

  19421792.042 8 103966869.55208  80863375.38607
  19421797.884 7

  25194193.846 7 132396457.36807
                  25194200.111 7  98867552.66407  25194197.621 7 107464700.50707
  25194198.053 7 101446690.85407  25194198.993 8 100157121.83408
  23403541.703 8 122986782.61808
                  23403544.009 8  91840990.97908  23403545.481 8  99827091.79808
  23403542.236 8  94236813.25108  23403543.022 8  93038907.68808
  24194397.913 6 127142452.73806  99072083.81803  24194404.372 3  24194397.377 3
  24194404.749 6  24194402.809 7  94944078.54307

  37105729.952 7 194991931.07907
                  37105728.528 6 145610850.08006

  36827672.187 7 193530753.02407
                  36827682.004 7 144519745.28207

  23512672.710 7 123560431.16807
                  23512677.270 8  92269468.42708  23512675.439 8 100292333.09308
  23512675.310 8  94676457.76008  23512676.250 8  93472964.16708
  36979274.823 7 194327412.85507
                  36979277.812 6 145114631.74006

  25671953.107 5 134906980.42605 105122329.98102  25671962.365 2  25671952.204 2


  26949639.276 6 141621620.29206
                  26949644.266 7 105756609.37407  26949643.583 6 114952761.44006
  26949642.259 7 108515452.83207  26949643.207 7 107136028.67407
  21935811.551 7 115273888.99207  89823993.61806  21935816.295 6  21935811.408 6
  21935816.710 7  21935814.446 7  86081410.52007

  28565137.752 5 150110828.00405
                  28565147.958 6 112095790.03506  28565142.283 5 121843229.87305
  28565144.933 6 115020015.89206  28565146.339 6 113557909.53306
  21908212.882 7 115128516.42607  89710588.06806  21908216.910 6  21908212.274 6
  21908217.488 7  21908215.582 8  85972652.36908

  25284254.379 6 132869667.73506 103534860.09003  25284261.487 3  25284254.066 3
  25284262.788 5

  28306651.451 5 148752423.94505
                  28306665.686 6 111081376.80806  28306661.942 6 120740621.05506
  28306663.202 6 113979146.62306  28306664.152 6 112530265.78906
 25  4 11  2 17 15.0000000  0 28G18E19G15E29G23R22R21G10R08R06E33R23
                                G24R07E13E26G08S33S31E07S35G16E08G32
                                E31G27G29E23
  21100800.073 7 110885769.82207  86404648.68606  21100801.805 6  21100799.837 6
  21100802.053 7  21100804.995 8  82804514.26108

  27763455.645 4 145897984.11804
                  27763471.078 5 108949892.09605  27763467.056 5 118423768.93105
  27763467.269 5 111792011.56605  27763468.955 6 110370969.40706
  23244030.145 6 122148681.94106  95181040.62504  23244032.953 4  23244029.940 4
  23244033.436 6

  24441256.094 7 128440129.97807
                  24441260.610 7  95913366.35207  24441261.378 7 104253557.02807
  24441258.519 7  98415417.50807  24441259.436 8  97164287.00308
  20941048.303 8 110046413.17208  85750728.90006  20941049.921 6  20941048.035 6
  20941050.345 7  20941052.929 8  82177802.43808

  19122904.546 8 102079496.08008  79395247.98007
  19122908.768 7

  21228916.660 8 113600473.60808  88356083.88807
  21228923.978 7

  21444711.269 8 112693056.17308  87812976.00907  21444714.544 7  21444710.965 7
  21444714.801 7  21444711.534 8  84154118.71108

  20285305.345 8 108627291.75208  84488084.68307
  20285311.875 7

  22316197.209 6 119083570.35006


  25774085.838 7 135443917.59307
                  25774089.511 7 101143303.19307  25774090.081 7 109938339.22307
  25774087.574 7 103781805.15207  25774088.579 8 102462557.24608
  21379784.445 7 114367520.29207


  22685638.769 7 119214027.49707  92894155.94905  22685644.256 5  22685638.533 5
  22685644.175 6  22685643.999 7  89023589.68707

  19426118.923 8 103990031.28208  80881390.07108
  19426124.484 8

  25198432.766 7 132418733.59507
                  25198439.121 7  98884187.49407  25198436.684 7 107482781.84707
  25198436.904 7 101463759.65107  25198438.042 8 100173973.64708
  23401843.178 8 122977855.90108
                  23401845.283 8  91834324.93108  23401846.761 8  99819846.09408
  23401843.522 8  94229973.30808  23401844.315 8  93032154.69308
  24187612.692 6 127106796.39906  99044299.72004  24187619.436 4  24187612.142 4
  24187619.355 6  24187617.698 7  94917452.14307

  37105730.637 7 194991940.88507
                  37105730.540 6 145610857.21606

  36827672.250 7 193530747.94807
                  36827681.087 7 144519741.43307

  23514144.888 7 123568167.82407
                  23514149.532 8  92275245.80708  23514147.578 8 100298612.84808
  23514147.596 8  94682385.85308  23514148.478 8  93478816.90408
  36979287.554 7 194327464.41207
                  36979287.663 6 145114670.34906

  25678326.667 5 134940475.74105 105148430.11702  25678336.283 2  25678325.742 2


  26957014.228 6 141660375.14906
                  26957018.818 7 105785549.66207  26957017.886 6 114984218.26606
  26957017.011 7 108545148.08207  26957017.994 7 107165346.44307
  21928355.014 7 115234705.56407  89793461.12006  21928359.820 6  21928354.862 6
  21928360.024 7  21928358.023 7  86052150.21907

  28568774.266 6 150129937.22906
                  28568784.187 6 112110059.84306  28568779.522 5 121858740.56205
  28568781.649 6 115034657.96706  28568782.649 6 113572365.47906
  21906433.837 7 115119166.20807  89703302.19706  21906437.468 6  21906433.247 6
  21906437.988 7  21906436.302 8  85965670.07608

  25295067.577 5 132926492.19705 103579138.76103  25295075.807 3  25295067.264 3
  25295076.181 5

  28312701.449 5 148784216.41805
                  28312715.650 6 111105117.83806  28312712.004 6 120766426.57606
  28312713.025 6 114003507.01606  28312714.190 6 112554316.49706
 25  4 11  2 17 30.0000000  0 28G18E19G15E29G23R22R21G10R08R06E33R23
                                G24R07E13E26G08S33S31E07S35G16E08G32
                                E31G27G29E23
  21104817.404 7 110906880.80407  86421098.79506  21104819.097 6  21104817.172 6
  21104819.402 7  21104822.273 8  82820278.94408

  27754885.942 4 145852950.62304
                  27754901.148 5 108916263.50105  27754897.711 5 118387216.02205
  27754897.928 5 111757505.67605  27754899.193 6 110336902.16606
  23254097.282 6 122201586.34906  95222264.80805  23254100.418 5  23254097.081 5
  23254100.792 6

  24435040.857 7 128407467.57307
                  24435045.188 7  95888975.63707  24435045.953 7 104227045.37007
  24435043.062 7  98390390.51207  24435043.952 8  97139578.14808
  20943980.374 8 110061821.58408  85762735.46006  20943982.053 6  20943980.102 6
  20943982.330 7  20943985.010 8  82189308.72808

  19120805.911 8 102068294.10308  79386535.33407
  19120810.347 7

  21237799.383 8 113648008.02308  88393055.07007
  21237806.961 7

  21442568.061 8 112681794.37608  87804200.59107  21442571.474 7  21442567.757 7
  21442571.097 7  21442568.520 8  84145708.94008

  20279954.338 8 108598636.43608  84465797.24607
  20279960.395 7

  22326392.798 6 119137973.21506


  25767906.101 7 135411444.63907
                  25767910.026 7 101119053.93807  25767910.666 7 109911981.32807
  25767908.097 7 103756923.30507  25767909.155 8 102437991.69608
  21369811.324 7 114314167.38607


  22683906.839 7 119204925.03507  92887063.14605  22683911.981 5  22683906.611 5
  22683912.500 7  22683911.968 7  89016792.43307

  19430467.506 8 104013307.81908  80899494.04407
  19430472.324 7

  25202680.716 7 132441055.90607
                  25202686.932 7  98900856.74407  25202684.454 7 107500900.60207
  25202684.658 7 101480863.75107  25202685.842 8 100190860.32208
  23400152.180 8 122968970.29008
                  23400154.374 8  91827689.59008  23400155.858 8  99812633.75808
  23400152.615 8  94223164.86808  23400153.430 8  93025432.80308
  24180844.750 6 127071231.75106  99016587.06604  24180851.215 4  24180844.187 4
  24180851.667 6  24180849.659 7  94890894.18707

  37105730.359 7 194991945.43507
                  37105731.488 6 145610860.59206

  36827671.771 7 193530737.68307
                  36827679.035 7 144519733.83007

  23515634.289 7 123575994.62307
                  23515638.913 8  92281090.50708  23515637.086 8 100304965.78108
  23515636.946 8  94688383.02208  23515637.872 8  93484737.83908
  36979293.586 7 194327510.11707
                  36979296.262 6 145114704.53906

  25684699.949 5 134973966.80005 105174526.96002  25684709.548 2  25684699.051 2


  26964394.708 6 141699160.34306
                  26964399.585 7 105814512.60707  26964398.772 6 115015699.74106
  26964397.583 7 108574866.58307  26964398.533 7 107194687.17107
  21920914.899 7 115195605.18107  89762993.33506  21920919.170 6  21920914.756 6
  21920920.089 7  21920917.477 7  86022951.94907

  28572421.428 5 150149103.97505
                  28572431.497 6 112124372.61906  28572427.827 6 121874297.93606
  28572428.965 6 115049344.10206  28572429.928 6 113586864.93506
  21904680.929 7 115109955.72407  89696125.20606  21904684.744 6  21904680.335 6
  21904685.534 7  21904683.682 8  85958792.12508

  25305876.374 6 132983291.87106 103623398.14403  25305884.478 3  25305876.066 3
  25305884.524 5

  28318749.318 5 148815995.48305
                  28318763.008 6 111128848.87006  28318759.539 6 120792221.21006
  28318760.600 6 114027857.12006  28318761.675 6 112578357.06506
 25  4 11  2 17 45.0000000  0 28G18E19G15E29G23R22R21G10R08R06E33R23
                                G24R07E13E26G08S33S31E07S35G16E08G32
                                E31G27G29E23
  21108853.998 7 110928093.42707  86437628.09806  21108855.778 6  21108853.766 6
  21108856.149 7  21108858.914 8  82836119.52708

  27746318.414 4 145807929.03904
                  27746333.724 5 108882643.81605  27746329.983 5 118350672.75305
  27746330.298 5 111723008.89005  27746331.685 6 110302843.93206
  23264172.503 7 122254531.30707  95263520.57505  23264175.229 5  23264172.284 5
  23264175.823 6

  24428839.377 7 128374877.90207
                  24428843.534 7  95864639.23007  24428844.172 7 104200592.73907
  24428841.400 7  98365419.23407  24428842.317 8  97114924.30608
  20946919.447 8 110077265.62308  85774769.78106  20946920.982 6  20946919.170 6
  20946921.095 7  20946923.927 8  82200841.62008

  19118738.364 8 102057255.13608  79377949.47307
  19118742.326 7

  21246704.863 8 113695662.08308  88430119.29407
  21246712.774 7

  21440432.506 8 112670572.12408  87795455.99007  21440435.939 7  21440432.202 7
  21440435.925 7  21440433.001 8  84137328.69808

  20274628.550 8 108570118.43608  84443616.60807
  20274634.920 7

  22336591.269 6 119192390.85806


  25761727.717 7 135378975.35107
                  25761731.243 7 101094807.41907  25761731.996 7 109885626.40607
  25761729.493 7 103732044.27307  25761730.432 8 102413428.92108
  21359848.967 7 114260877.45007


  22682201.900 7 119195965.30807  92880081.57305  22682207.090 5  22682201.650 5
  22682206.960 6  22682207.000 7  89010101.76607

  19434838.428 8 104036707.67908  80917693.95407
  19434843.812 7

  25206938.974 7 132463433.19007
                  25206945.162 7  98917567.04807  25206942.291 7 107519063.97807
  25206943.071 7 101498009.96707  25206944.110 8 100207788.58208
  23398470.862 8 122960134.79808
                  23398473.026 8  91821091.66908  23398474.497 8  99805462.10008
  23398471.253 8  94216394.82608  23398472.077 8  93018748.82108
  24174096.090 6 127035767.88706  98988952.94503  24174102.258 3  24174095.523 3
  24174102.798 6  24174100.883 7  94864411.49807

  37105732.278 7 194991953.17707
                  37105732.856 6 145610866.51206

  36827667.219 7 193530729.86207
                  36827677.595 7 144519727.96707

  23517142.420 7 123583920.31307
                  23517147.084 8  92287009.04808  23517145.293 8 100311398.97408
  23517145.185 8  94694455.96308  23517146.075 8  93490733.57908
  36979301.720 7 194327559.47607
                  36979305.612 6 145114741.30806

  25691074.055 5 135007462.12805 105200627.07702  25691083.542 2  25691073.175 2


  26971782.710 6 141737984.48506
                  26971787.703 7 105843504.63007  26971786.753 6 115047212.82606
  26971785.729 7 108604614.92507  26971786.574 7 107224057.35207
  21913491.793 7 115156596.93607  89732597.34406  21913496.066 6  21913491.650 6
  21913496.399 7  21913494.364 7  85993822.45707

  28576081.215 6 150168336.92206
                  28576091.403 6 112138734.81006  28576086.708 6 121889909.08406
  28576089.135 6 115064080.99906  28576090.206 6 113601414.47906
  21902956.562 7 115100893.85607  89689064.02006  21902960.299 6  21902955.968 6
  21902960.619 7  21902959.285 8  85952025.15208

  25316681.450 6 133040075.27106 103667644.84703  25316690.365 3  25316681.115 3
  25316690.368 5

  28324795.547 5 148847769.74905
                  28324809.517 6 111152576.31806  28324805.626 6 120818011.95106
  28324807.067 6 114052203.55106  28324808.114 6 112602394.00906
 25  4 11  2 18  0.0000000  0 28G18E19G15E29G23R22R21G10R08R06E33R23
                                G24R07E13E26G08S33S31E07S35G16E08G32
                                E31G27G29E23
  21112909.184 7 110949404.14207  86454233.84406  21112911.115 6  21112908.956 6
  21112911.307 7  21112914.204 8  82852033.36608

  27737753.036 5 145762916.04805
                  27737767.870 5 108849030.51705  27737764.249 5 118314136.46205
  27737764.210 5 111688518.71905  27737765.644 6 110268792.19206
  23274254.468 7 122307512.79907  95304804.81205  23274257.517 5  23274254.249 5
  23274258.409 6

  24422650.971 7 128342357.50407
                  24422655.074 7  95840354.56207  24422655.467 7 104174196.34307
  24422653.046 7  98340501.05307  24422653.864 8  97090322.88108
  20949864.523 8 110092741.66208  85786829.03806  20949866.056 6  20949864.237 6
  20949866.086 7  20949868.959 8  82212398.41008

  19116700.191 8 102046375.84208  79369487.80207
  19116704.426 7

  21255631.395 8 113743431.88608  88467273.54407
  21255639.504 7

  21438303.939 8 112659385.74108  87786739.34307  21438307.237 7  21438303.640 7
  21438307.260 7  21438304.345 8  84128975.24208

  20269327.824 8 108541734.26108  84421540.07307
  20269334.463 7

  22346789.053 5 119246819.09505


  25755548.638 7 135346506.29107
                  25755552.637 7 101070561.07207  25755553.277 7 109859271.66707
  25755550.672 7 103707165.40607  25755551.736 8 102388866.31308
  21349898.106 7 114207647.22707


  22680523.237 7 119187144.98407  92873208.62005  22680528.738 5  22680522.987 5
  22680528.959 7  22680528.378 7  89003515.18707

  19439231.953 8 104060226.88808  80935986.66907
  19439237.307 7

  25211207.092 7 132485861.92007
                  25211213.364 7  98934315.75807  25211210.788 7 107537269.10207
  25211211.140 7 101515195.60807  25211212.157 8 100224755.75708
  23396798.383 8 122951345.99908
                  23396800.541 8  91814528.61608  23396802.042 8  99798328.34608
  23396798.828 8  94209660.55908  23396799.614 8  93012100.16208
  24167365.664 6 127000401.50606  98961394.78403  24167372.032 3  24167365.097 3
  24167373.322 6  24167371.004 7  94838001.60307

  37105735.341 7 194991961.11607
                  37105734.327 6 145610872.51606

  36827667.268 7 193530722.54907
                  36827676.088 7 144519722.60607

  23518668.835 7 123591941.19607
                  23518673.427 8  92292998.68208  23518671.558 8 100317909.44208
  23518671.467 8  94700601.84108  23518672.392 8  93496801.33608
  36979312.192 7 194327608.37507
                  36979314.877 6 145114777.85506

  25697448.886 5 135040957.65205 105226727.37502  25697457.693 2  25697448.001 2


  26979177.452 6 141776843.81106
                  26979182.355 7 105872522.92107  26979181.265 6 115078754.45706
  26979180.462 7 108634390.22107  26979181.265 7 107253454.14307
  21906085.044 7 115117677.40507  89702270.48206  21906089.848 6  21906084.892 6
  21906090.558 7  21906088.226 7  85964759.22707

  28579753.334 6 150187632.29206
                  28579763.231 6 112153143.63006  28579759.373 6 121905570.82706
  28579761.094 6 115078865.68806  28579762.007 6 113616011.23406
  21901259.980 7 115091977.08007  89682115.88706  21901263.475 6  21901259.395 6
  21901264.061 7  21901262.447 8  85945366.53508

  25327483.148 6 133096838.50806 103711875.85903  25327492.253 3  25327482.818 3
  25327492.302 5

  28330840.525 5 148879535.44405
                  28330854.742 6 111176297.34306  28330850.514 6 120843795.70806
  28330851.770 6 114076543.38006  28330853.028 6 112626424.43506
 25  4 11  2 18 15.0000000  0 28G18E19G15E29G23R22R21G10R08R06E33R23
                                G24R07E13E26G08S33S31E07S35G16E08G32
                                E31G27G29E23
  21116983.632 7 110970814.85407  86470917.51106  21116985.461 6  21116983.409 6
  21116985.648 7  21116988.540 8  82868021.87808

  27729189.238 5 145717913.69105
                  27729203.742 5 108815425.10305  27729199.302 5 118277608.76205
  27729200.471 5 111654036.61705  27729201.713 6 110234748.43706
  23284343.600 6 122360532.36906  95346118.71805  23284347.067 5  23284343.364 5
  23284347.079 6

  24416475.872 7 128309908.41607
                  24416480.146 7  95816123.13907  24416480.832 7 104147857.82107
  24416478.187 7  98315637.50107  24416478.965 8  97065775.39408
  20952815.884 8 110108251.50008  85798914.62806  20952817.492 6  20952815.598 6
  20952817.679 7  20952820.318 8  82223980.43608

  19114692.267 8 102035658.39008  79361152.02507
  19114696.570 7

  21264580.526 8 113791319.03508  88504519.07707
  21264588.191 7

  21436182.155 8 112648237.01708  87778052.03007  21436185.707 7  21436181.851 7
  21436185.620 7  21436182.825 8  84120649.90408

  20264053.179 8 108513485.73908  84399569.00807
  20264059.103 7

  22356992.630 5 119301259.57005


  25749370.490 7 135314039.44407
                  25749374.368 7 101046316.36907  25749374.830 7 109832918.72607
  25749372.541 7 103682288.23307  25749373.483 8 102364305.37308
  21339958.932 7 114154478.99707


  22678871.635 7 119178466.10507  92866445.88705  22678877.144 5  22678871.390 5
  22678877.198 7  22678876.882 7  88997034.24207

  19443648.300 8 104083866.85508  80954373.31708
  19443653.625 8

  25215485.397 7 132508344.00207
                  25215491.523 7  98951104.31207  25215488.840 7 107555517.53507
  25215489.336 7 101532422.12407  25215490.346 8 100241763.29208
  23395135.273 8 122942605.91208
                  23395137.365 8  91808001.93808  23395138.894 8  99791234.12508
  23395135.551 8  94202963.62108  23395136.421 8  93005488.35308
  24160655.161 6 126965134.71606  98933914.23803  24160660.864 3  24160654.620 3
  24160661.783 6  24160659.970 7  94811666.09007

  37105737.568 7 194991969.83507
                  37105735.906 6 145610878.84806

  36827665.319 7 193530716.32507
                  36827675.006 7 144519717.80607

  23520213.554 7 123600059.05207
                  23520218.214 8  92299060.72708  23520216.396 8 100324498.62108
  23520216.258 8  94706822.02908  23520217.163 8  93502942.45208
  36979321.636 7 194327658.59507
                  36979324.433 6 145114815.29306

  25703822.846 5 135074454.98405 105252829.05502  25703832.299 2  25703821.975 2


  26986579.068 6 141815739.95406
                  26986584.014 7 105901568.70707  26986583.287 6 115110325.97206
  26986581.926 7 108664193.72707  26986582.959 7 107282878.78907
  21898696.112 7 115078848.67007  89672014.36406  21898701.010 6  21898695.965 6
  21898701.706 7  21898699.214 7  85935763.78607

  28583437.070 5 150206991.74605
                  28583447.061 6 112167600.30206  28583442.421 6 121921284.65206
  28583444.827 6 115093699.49506  28583446.115 6 113630656.47506
  21899590.820 7 115083207.30407  89675282.30506  21899594.620 6  21899590.230 6
  21899595.049 7  21899593.622 8  85938817.69008

  25338281.686 5 133153583.09705 103756092.29203  25338290.855 3  25338281.378 3
  25338291.425 5

  28336883.980 5 148911294.09905
                  28336898.215 6 111200013.13706  28336894.283 6 120869573.78206
  28336895.836 6 114100877.86206  28336896.640 6 112650449.57706
 25  4 11  2 18 30.0000000  0 28G18E19G15E29G23R22R21G10R08R06E33R23
                                G24R07E13E26G08S33S31E07S35G16E08G32
                                E31G27G29E23
  21121076.060 7 110992320.55007  86487675.19106  21121077.827 6  21121075.828 6
  21121078.054 7  21121080.953 8  82884081.31308

  27720626.757 5 145672917.03905
                  27720641.046 5 108781824.04305  27720636.407 5 118241085.70205
  27720637.526 5 111619558.93905  27720638.954 6 110200709.06606
  23294439.857 7 122413584.78407  95387458.22105  23294442.569 5  23294439.616 5
  23294442.802 6

  24410313.763 7 128277525.72807
                  24410317.863 7  95791941.30007  24410318.708 7 104121573.20107
  24410315.985 7  98290824.82407  24410316.707 8  97041278.13408
  20955772.798 8 110123790.05108  85811022.59906  20955774.370 6  20955772.512 6
  20955774.469 7  20955777.209 8  82235583.90608

  19112714.084 8 102025097.98208  79352938.36607
  19112718.085 7

  21273550.173 8 113839318.22708  88541851.74407
  21273557.785 7

  21434066.906 8 112637120.86708  87769390.09907  21434070.397 7  21434066.616 7
  21434070.439 7  21434067.542 8  84112348.88908

  20258802.068 8 108485367.85008  84377699.57507
  20258808.382 7

  22367195.963 5 119355706.95005


  25743191.897 7 135281569.91307
                  25743195.652 7 101022069.67607  25743196.339 7 109806563.61807
  25743193.765 7 103657409.01507  25743194.729 8 102339742.41708
  21330030.328 7 114101368.25207


  22677246.388 7 119169923.84307  92859789.60905  22677251.455 5  22677246.134 5
  22677251.920 7  22677251.270 7  88990655.32007

  19448085.571 8 104107622.29108  80972849.77307
  19448091.380 7

  25219772.638 7 132530874.45007
                  25219778.915 7  98967928.98807  25219776.230 7 107573805.23007
  25219776.750 7 101549685.70107  25219777.774 8 100258807.41808
  23393480.278 8 122933909.65408
                  23393482.506 8  91801507.99508  23393484.031 8  99784175.48108
  23393480.727 8  94196300.26508  23393481.563 8  92998909.70408
  24153961.649 6 126929962.78406  98906507.58803  24153968.066 3  24153961.068 3
  24153969.056 6  24153966.665 7  94785401.38807

  37105738.583 7 194991975.86407
                  37105737.024 6 145610883.56506

  36827662.622 7 193530706.67107
                  36827673.173 7 144519710.63207

  23521775.781 7 123608268.74307
                  23521780.442 8  92305191.34408  23521778.607 8 100331162.33008
  23521778.515 8  94713112.57508  23521779.418 8  93509153.03308
  36979331.022 7 194327705.87707
                  36979333.479 6 145114850.78206

  25710196.293 5 135107948.65205 105278927.91002  25710206.163 2  25710195.430 2


  26993986.843 6 141854667.68506
                  26993991.905 7 105930638.08607  26993991.159 6 115141923.14606
  26993989.849 7 108694021.44107  26993990.765 7 107312327.33907
  21891324.012 7 115040105.92007  89641825.25306  21891328.525 6  21891323.860 6
  21891329.331 7  21891326.647 7  85906832.56407

  28587131.990 5 150226410.09205
                  28587142.978 6 112182100.95306  28587138.308 6 121937046.24106
  28587140.287 6 115108578.44206  28587141.352 6 113645346.27206
  21897948.868 7 115074579.57507  89668559.40406  21897952.779 6  21897948.274 6
  21897953.588 7  21897951.781 8  85932374.90308

  25349076.428 5 133210303.70005 103800290.05403  25349084.739 3  25349076.151 3
  25349084.163 5

  28342924.978 5 148943040.53305
                  28342939.785 6 111223719.76406  28342935.532 6 120895341.91006
  28342936.698 6 114125202.95706  28342937.968 6 112674465.43506
 25  4 11  2 18 45.0000000  0 28G18E19G15E29G23R22R21G10R08R06E33R23
                                G24R07E13E26G08S33S31E07S35G16E08G32
                                E31G27G29E23
  21125187.779 7 111013927.99207  86504512.14806  21125189.578 6  21125187.551 6
  21125189.731 7  21125192.702 8  82900216.73508

  27712066.180 5 145627933.07705
                  27712080.619 5 108748232.40905  27712076.608 5 118204572.95105
  27712077.065 5 111585090.95505  27712078.457 6 110166679.25906
  23304542.518 7 122466676.41407  95428828.30405  23304545.615 5  23304542.268 5
  23304545.805 6

  24404165.252 7 128245216.32407
                  24404169.617 7  95767814.18707  24404170.080 7 104095348.05907
  24404167.493 7  98266068.30207  24404168.400 8  97016836.31808
  20958736.472 8 110139363.99308  85823158.14306  20958737.956 6  20958736.191 6
  20958738.226 7  20958740.873 8  82247213.80408

  19110766.623 8 102014701.75408  79344852.42907
  19110770.774 7

  21282542.386 8 113887435.90508  88579276.57207
  21282549.909 7

  21431959.049 8 112626043.98408  87760758.77907  21431962.523 7  21431958.754 7
  21431962.373 7  21431959.658 8  84104077.20908

  20253576.513 8 108457387.40808  84355937.03707
  20253583.036 7

  22377401.691 5 119410167.55905


  25737013.957 7 135249104.56407
                  25737017.761 7 100997826.10007  25737018.079 7 109780211.88307
  25737015.771 7 103632532.98907  25737016.767 8 102315182.61608
  21320113.772 7 114048322.25607


  22675648.408 7 119161524.99007  92853245.07805  22675652.957 5  22675648.154 5
  22675653.337 6  22675652.947 7  88984383.49307

  19452546.349 8 104131499.49708  80991420.94607
  19452552.109 7

  25224070.572 7 132553460.03707
                  25224076.814 7  98984794.84107  25224074.248 7 107592137.68907
  25224074.601 7 101566991.53307  25224075.674 8 100275893.26108
  23391835.102 8 122925264.12808
                  23391837.319 8  91795051.92708  23391838.830 8  99777158.01808
  23391835.554 8  94189675.77808  23391836.364 8  92992369.42608
  24147288.021 6 126894892.67406  98879180.28003  24147294.492 3  24147287.467 3
  24147294.916 6  24147292.843 7  94759212.75007

  37105740.125 7 194991984.91807
                  37105738.813 6 145610890.31406

  36827661.947 7 193530700.83907
                  36827671.965 7 144519706.49307

  23523356.822 8 123616576.89408
                  23523361.421 8  92311395.49908  23523359.583 8 100337905.97008
  23523359.515 8  94719478.57808  23523360.405 8  93515438.11308
  36979340.654 7 194327756.33707
                  36979343.053 6 145114888.44006

  25716571.121 5 135141445.08405 105305028.91602  25716580.403 2  25716570.254 2


  27001401.884 7 141893633.54407
                  27001406.776 7 105959735.93607  27001405.783 6 115173551.24106
  27001404.893 7 108723878.36807  27001405.699 7 107341804.72507
  21883969.109 7 115001456.08807  89611708.54506  21883973.694 6  21883968.957 6
  21883974.023 7  21883971.843 7  85877970.73207

  28590840.013 6 150245893.81906
                  28590850.540 6 112196650.40506  28590846.186 6 121952860.93206
  28590847.910 6 115123507.46806  28590849.091 6 113660085.51106
  21896336.061 7 115066100.65107  89661952.45506  21896339.261 6  21896335.489 6
  21896339.941 7  21896338.330 8  85926043.25208

  25359866.491 6 133267006.84806 103844474.20503  25359875.234 3  25359866.210 3
  25359875.077 5

  28348964.851 5 148974781.20205
                  28348979.499 6 111247422.13406  28348975.729 6 120921105.37806
  28348977.179 6 114149523.63906  28348978.083 6 112698476.95906
 25  4 11  2 19  0.0000000  0 28G18E19G15E29G23R22R21G10R08R06E33R23
                                G24R07E13E26G08S33S31E07S35G16E08G32
                                E31G27G29E23
  21129318.251 7 111035633.34307  86521425.40406  21129319.958 6  21129318.023 6
  21129320.187 7  21129323.078 8  82916425.26508

  27703507.178 4 145582958.11504
                  27703521.678 5 108714647.49605  27703517.648 5 118168067.52505
  27703518.396 5 111550629.93105  27703519.660 6 110132656.28706
  23314652.305 7 122519802.95707  95470225.57905  23314655.278 5  23314652.060 5
  23314655.931 6

  24398030.206 7 128212976.46707
                  24398034.570 7  95743739.00807  24398034.869 7 104069179.37207
  24398032.388 7  98241365.06907  24398033.330 8  96992447.11208
  20961706.036 8 110154969.38808  85835318.19806  20961707.556 6  20961705.759 6
  20961707.749 7  20961710.423 8  82258867.18808

  19108849.078 8 102004466.07708  79336891.35007
  19108853.341 7

  21291555.578 8 113935667.94108  88616790.34007
  21291563.709 7

  21429857.891 8 112615002.38708  87752154.94507  21429861.379 7  21429857.592 7
  21429861.360 7  21429858.453 8  84095831.87108

  20248376.258 8 108429540.52208  84334278.37807
  20248382.968 7

  22387609.672 5 119464637.33405


  25730836.138 7 135216639.63407
                  25730839.796 7 100973582.82507  25730840.432 7 109753860.50107
  25730837.874 7 103607657.28707  25730838.872 8 102290623.12908
  21310209.703 8 113995337.82508


  22674076.587 7 119153266.19407  92846809.68505  22674081.370 5  22674076.337 5
  22674081.801 7  22674081.241 7  88978216.24307

  19457028.534 8 104155494.06108  81010083.38708
  19457034.163 8

  25228377.986 7 132576096.92807
                  25228384.512 7  99001698.99407  25228381.742 7 107610511.77507
  25228382.193 7 101584336.66807  25228383.322 8 100293017.90508
  23390198.979 8 122916665.59608
                  23390201.031 8  91788630.95208  23390202.499 8  99770178.70008
  23390199.356 8  94183087.30508  23390200.103 8  92985864.70208
  24140632.839 6 126859920.81106  98851929.54503  24140639.546 3  24140632.312 3
  24140640.393 6  24140637.623 6  94733097.45106

  37105743.689 7 194991993.37707
                  37105740.387 6 145610896.58106

  36827661.406 7 193530694.07507
                  36827670.745 7 144519701.45807

  23524955.688 8 123624979.54008
                  23524960.410 8  92317670.20308  23524958.639 8 100344726.29908
  23524958.462 8  94725916.96708  23524959.377 8  93521794.66008
  36979350.635 7 194327805.50707
                  36979352.551 6 145114925.05606

  25722945.531 5 135174940.02905 105331128.78502  25722954.643 2  25722944.700 2


  27008823.136 7 141932633.43607
                  27008828.096 7 105988859.19407  27008827.182 6 115205206.97806
  27008826.209 7 108753761.37007  27008827.175 7 107371307.85507
  21876631.360 7 114962895.50407  89581661.38506  21876635.833 6  21876631.213 6
  21876636.459 7  21876633.880 7  85849175.54107

  28594559.389 6 150265438.86706
                  28594569.931 6 112211245.69706  28594565.526 6 121968725.37006
  28594567.393 6 115138483.48006  28594568.274 6 113674871.16806
  21894749.884 7 115057766.69407  89655458.47606  21894753.253 6  21894749.317 6
  21894753.863 7  21894752.411 8  85919819.86308

  25370651.836 5 133323688.42305 103888641.54603  25370661.378 3  25370651.515 3
  25370661.302 5

  28355002.926 5 149006511.99905
                  28355017.750 6 111271117.10006  28355014.082 6 120946860.80006
  28355015.354 6 114173836.73906  28355016.209 6 112722480.99106
 25  4 11  2 19 15.0000000  0 28G18E19G15E29G23R22R21G10R08R06E33R23
                                G24R07E13E26G08S33S31E07S35G16E08G32
                                E31G27G29E23
  21133467.659 7 111057437.29807  86538415.49006  21133469.114 6  21133467.436 6
  21133469.410 7  21133472.204 8  82932707.43808

  27694951.265 5 145537992.91305
                  27694965.014 5 108681069.88005  27694961.205 5 118131570.02605
  27694961.462 5 111516176.32905  27694962.888 6 110098640.67706
  23324768.791 7 122572964.85707  95511650.38805  23324772.029 5  23324768.532 5
  23324772.170 6

  24391908.661 7 128180806.95807
                  24391912.795 7  95719716.36807  24391913.481 7 104043067.79107
  24391910.725 7  98216715.74807  24391911.634 8  96968111.13208
  20964681.864 8 110170606.87608  85847503.26206  20964683.305 6  20964681.587 6
  20964683.375 7  20964686.178 8  82270544.54008

  19106962.033 8 101994391.88908  79329055.87807
  19106966.231 7

  21300590.546 8 113984014.77008  88654393.38707
  21300598.335 7

  21427763.654 8 112603996.69908  87743579.09507  21427767.077 7  21427763.355 7
  21427766.734 7  21427764.133 8  84087613.34508

  20243201.009 8 108401827.90908  84312724.14307
  20243207.703 7

  22397817.898 5 119519116.51805


  25724658.359 7 135184175.90907
                  25724662.092 7 100949340.45807  25724662.653 7 109727510.09607
  25724660.222 7 103582782.51107  25724661.186 8 102266064.55808
  21300316.078 8 113942415.54308


  22672531.395 7 119145148.14407  92840483.96205  22672536.657 5  22672531.145 5
  22672537.017 7  22672536.711 7  88972154.09407

  19461533.044 8 104179606.39408  81028837.44008
  19461538.987 8

  25232695.720 7 132598785.82707
                  25232702.124 7  99018641.99107  25232699.622 7 107628928.07307
  25232699.854 7 101601721.65807  25232700.902 8 100310181.89908
  23388571.798 8 122908114.88108
                  23388573.906 8  91782245.69108  23388575.333 8  99763238.18608
  23388572.164 8  94176535.46708  23388572.951 8  92979396.15308
  24133997.232 6 126825048.12006  98824756.06003  24134003.618 3  24133996.718 3
  24134004.542 6  24134001.797 7  94707056.22507

  37105742.808 7 194992001.94507
                  37105742.023 6 145610903.05506

  36827660.646 7 193530687.64807
                  36827669.537 7 144519696.64707

  23526572.865 8 123633477.23308
                  23526577.431 8  92324015.89208  23526575.654 8 100351623.78508
  23526575.522 8  94732428.19608  23526576.432 8  93528223.11808
  36979360.629 7 194327855.72907
                  36979361.950 6 145114962.75506

  25729319.380 5 135208433.88105 105357227.77902  25729328.498 2  25729318.553 2


  27016251.175 6 141971667.82606
                  27016256.227 7 106018008.22407  27016255.278 6 115236890.73006
  27016254.418 7 108783670.80907  27016255.148 7 107400837.08907
  21869310.429 7 114924425.02007  89551684.42906  21869315.103 6  21869310.273 6
  21869315.756 7  21869313.161 7  85820447.63507

  28598290.380 5 150285045.75305
                  28598300.702 6 112225887.10506  28598296.583 6 121984639.98106
  28598298.705 6 115153506.88106  28598299.450 6 113689703.57106
  21893191.339 7 115049578.43207  89649078.01806  21893194.969 6  21893190.763 6
  21893195.878 7  21893194.199 8  85913705.25508

  25381434.029 6 133380348.72206 103932792.32103  25381443.318 3  25381433.712 3
  25381443.662 5

  28361039.777 5 149038233.34205
                  28361054.567 6 111294805.00206  28361050.137 6 120972608.59906
  28361051.284 6 114198142.63006  28361052.730 6 112746477.88506
 25  4 11  2 19 30.0000000  0 28G18E19G15E29G23R22R21G10R08R06E33R23
                                G24R07E13E26G08S33S31E07S35G16E08G32
                                E31G27G29E23
  21137634.720 7 111079336.85807  86555480.07806  21137636.510 6  21137634.497 6
  21137636.997 7  21137639.541 8  82949060.99308

  27686395.224 5 145493034.67305
                  27686409.599 5 108647497.41805  27686405.446 5 118095078.09705
  27686405.580 5 111481728.03205  27686407.306 6 110064630.30006
  23334891.019 7 122626158.81907  95553100.18505  23334894.235 5  23334890.760 5
  23334894.699 6

  24385799.756 7 128148704.91707
                  24385803.987 7  95695744.10107  24385804.465 7 104017010.96207
  24385801.938 7  98192118.10807  24385802.785 8  96943826.17808
  20967662.841 8 110186273.36608  85859710.92206  20967664.549 6  20967662.555 6
  20967664.553 7  20967667.426 8  82282243.54808

  19105104.311 8 101984476.42408  79321343.85907
  19105108.083 7

  21309646.531 8 114032472.93108  88692083.02407
  21309653.362 7

  21425675.432 8 112593023.83508  87735028.82207  21425678.995 7  21425675.128 7
  21425678.920 7  21425675.992 8  84079419.34108

  20238051.110 8 108374246.72108  84291272.14807
  20238057.234 7

  22408028.788 6 119573601.53506


  25718480.480 7 135151710.54307
                  25718484.053 7 100925096.86607  25718484.707 7 109701158.34507
  25718482.303 7 103557906.47007  25718483.206 8 102241504.74208
  21290433.534 8 113889553.33608


  22671012.965 7 119137168.03207  92834265.71905  22671018.004 5  22671012.711 5
  22671018.271 6  22671018.108 7  88966194.95607

  19466058.872 8 104203832.99408  81047680.34908
  19466064.435 8

  25237022.842 7 132621523.76207
                  25237029.079 7  99035621.60007  25237026.213 7 107647384.17507
  25237026.688 7 101619144.21207  25237027.791 8 100327382.98008
  23386953.215 8 122899609.12908
                  23386955.285 8  91775894.01108  23386956.696 8  99756334.17708
  23386953.553 8  94170018.08708  23386954.345 8  92972961.62208
  24127379.947 6 126790271.81006  98797657.71303  24127386.032 3  24127379.438 3
  24127386.379 6  24127384.251 7  94681086.97807

  37105744.302 7 194992007.80907
                  37105743.061 6 145610907.49906

  36827658.312 7 193530677.87207
                  36827667.543 7 144519689.23207

  23528207.442 8 123642066.83608
                  23528212.019 8  92330430.22208  23528210.129 8 100358595.87608
  23528210.107 8  94739009.85708  23528210.971 8  93534721.11408
  36979368.825 7 194327902.52807
                  36979370.862 6 145114997.50606

  25735691.530 5 135241923.40805 105383323.40402  25735701.258 2  25735690.721 2


  27023685.354 6 142010733.51806
                  27023690.378 7 106047180.62307  27023689.165 6 115268599.86406
  27023688.416 7 108813604.23607  27023689.077 7 107430390.00507
  21862006.249 7 114886041.82507  89521775.48906  21862010.918 6  21862006.080 6
  21862011.469 7  21862009.096 7  85791784.91107

  28602032.976 6 150304711.19806
                  28602042.730 6 112240572.30606  28602038.858 6 122000602.15506
  28602040.528 6 115168575.16206  28602041.621 6 113704580.31306
  21891660.402 7 115041532.87107  89642808.75406  21891663.970 6  21891659.821 6
  21891665.134 7  21891663.218 8  85907697.21708

  25392211.088 6 133436984.42306 103976923.90903  25392220.653 3  25392210.793 3
  25392221.460 5

  28367073.722 5 149069942.01405
                  28367088.317 6 111318483.45306  28367084.416 6 120998346.07706
  28367085.612 6 114222438.78306  28367086.800 6 112770465.18506
 25  4 11  2 19 45.0000000  0 28G18E19G15E29G23R22R21G10R08R06E33R23
                                G24R07E13E26G08S33S31E07S35G16E08G32
                                E31G27G29E23
  21141820.762 7 111101335.60107  86572621.94506  21141822.776 6  21141820.526 6
  21141823.175 7  21141825.785 8  82965488.61708

  27677840.777 5 145448087.21905
                  27677855.821 5 108613933.07905  27677852.478 5 118058595.00005
  27677852.251 5 111447288.08005  27677853.830 6 110030628.15206
  23345020.439 6 122679388.09506  95594577.50205  23345023.417 5  23345020.180 5
  23345023.902 6

  24379704.479 7 128116674.04107
                  24379708.624 7  95671824.97707  24379709.127 7 103991011.90207
  24379706.630 7  98167575.01007  24379707.467 8  96919595.06608
  20970650.384 8 110201972.34408  85871943.89506  20970651.986 6  20970650.094 6
  20970652.172 7  20970654.823 8  82293966.82508

  19103277.161 8 101974723.56008  79313758.30807
  19103281.358 7

  21318723.087 8 114081045.96108  88729862.02607
  21318730.745 7

  21423594.197 8 112582087.27908  87726506.84307  21423597.825 7  21423593.889 7
  21423597.872 7  21423594.812 8  84071252.44508

  20232925.007 8 108346800.36908  84269925.02407
  20232931.812 7

  22418240.931 5 119628095.89305


  25712302.863 7 135119247.13407
                  25712306.506 7 100900854.73207  25712307.187 7 109674808.19307
  25712304.729 7 103533031.92707  25712305.624 8 102216946.40308
  21280563.808 8 113836755.26008


  22669521.269 7 119129329.58907  92828157.86805  22669526.110 5  22669521.001 5
  22669527.236 6  22669526.254 7  88960341.59607

  19470606.445 8 104228177.02108  81066614.59808
  19470612.031 8

  25241359.494 7 132644314.32607
                  25241365.994 7  99052640.51907  25241363.123 7 107665883.01107
  25241363.711 7 101636607.10607  25241364.715 8 100344623.88608
  23385344.033 8 122891152.04208
                  23385345.962 8  91769578.66208  23385347.474 8  99749469.66908
  23385344.268 8  94163537.99108  23385344.999 8  92966563.90008
  24120779.726 6 126755595.75306  98770637.45303  24120787.456 3  24120779.217 3
  24120788.086 6  24120785.614 7  94655192.56407

  37105744.266 7 194992014.26107
                  37105744.415 6 145610912.24906

  36827657.060 7 193530669.31907
                  36827665.911 7 144519682.89907

  23529859.988 8 123650751.82508
                  23529864.646 8  92336915.76508  23529862.839 8 100365645.37308
  23529862.826 8  94745664.58408  23529863.669 8  93541291.24808
  36979379.124 7 194327950.70107
                  36979379.939 6 145115033.64706

  25742064.316 5 135275411.61305 105409417.98802  25742073.968 2  25742063.529 2


  27031126.059 7 142049833.81707
                  27031131.020 7 106076378.85607  27031130.181 6 115300337.08406
  27031128.725 7 108843564.16307  27031129.652 7 107459969.08407
  21854719.593 7 114847749.67907  89491937.49906  21854724.006 6  21854719.419 6
  21854724.618 7  21854722.262 7  85763190.18407

  28605786.768 6 150324438.58506
                  28605797.175 6 112255303.73606  28605793.148 6 122016614.60206
  28605795.523 6 115183690.90006  28605795.615 6 113719503.89606
  21890157.203 7 115033633.61207  89636653.49406  21890160.825 6  21890156.622 6
  21890161.629 7  21890160.034 8  85901798.42708

  25402985.046 6 133493598.85306 104021038.92703  25402994.133 3  25402984.783 3
  25402994.718 5

  28373105.864 5 149101641.28305
                  28373120.805 6 111342154.89706  28373116.336 6 121024075.93606
  28373117.840 6 114246727.75206  28373118.849 6 112794445.39706
 25  4 11  2 20  0.0000000  0 28G18E19G15E29G23R22R21G10R08R06E33R23
                                G24R07E13E26G08S33S31E07S35G16E08G32
                                E31G27G29E23
  21146027.079 7 111123439.75707  86589845.95606  21146029.061 6  21146026.838 6
  21146029.284 7  21146032.059 8  82981994.96008

  27669291.262 5 145403156.88505
                  27669305.676 5 108580381.51005  27669302.443 5 118022125.80205
  27669302.334 5 111412861.22305  27669303.667 6 109996638.94106
  23355157.438 7 122732658.42007  95636086.80405  23355160.680 5  23355157.179 5
  23355160.772 6

  24373624.108 7 128084720.65607
                  24373628.094 7  95647963.73007  24373628.586 7 103965075.74407
  24373626.056 7  98143091.28207  24373626.914 8  96895422.57908
  20973645.151 8 110217709.97308  85884206.99106  20973646.735 6  20973644.865 6
  20973646.738 7  20973649.586 8  82305718.95608

  19101481.717 8 101965139.86908  79306304.34807
  19101485.921 7

  21327822.919 8 114129739.88308  88767735.02507
  21327830.256 7

  21421521.277 8 112571193.16608  87718017.93507  21421524.754 7  21421520.969 7
  21421524.475 7  21421521.811 8  84063117.24508

  20227826.396 8 108319495.35108  84248687.79807
  20227832.518 7

  22428455.787 5 119682605.44105


  25706126.971 7 135086792.06307
                  25706130.593 7 100876618.80807  25706131.309 7 109648464.79107
  25706128.624 7 103508163.75907  25706129.638 8 102192394.35708
  21270707.069 8 113784027.89608


  22668058.012 7 119121639.22907  92822165.40805  22668062.570 5  22668057.744 5
  22668063.552 6  22668063.038 7  88954598.82407

  19475177.131 8 104252644.67708  81085644.98907
  19475182.845 7

  25245707.534 7 132667163.74107
                  25245714.130 7  99069703.38507  25245711.352 7 107684429.60507
  25245711.719 7 101654115.09507  25245712.809 8 100361909.31308
  23383745.023 8 122882749.97208
                  23383747.116 8  91763304.39808  23383748.568 8  99742649.81108
  23383745.368 8  94157100.04508  23383746.125 8  92960207.79408
  24114201.453 6 126721026.37206  98743700.31903  24114208.697 3  24114200.917 3
  24114209.240 6  24114206.896 7  94629377.84107

  37105749.167 7 194992027.44207
                  37105746.812 6 145610922.15706

  36827654.716 7 193530667.30407
                  36827665.562 7 144519681.42507

  23531532.193 8 123659538.25608
                  23531536.685 8  92343477.06808  23531534.800 8 100372777.22808
  23531534.825 8  94752397.05608  23531535.676 8  93547938.13608
  36979388.527 7 194328005.41607
                  36979390.345 6 145115074.49906

  25748437.490 5 135308904.44305 105435516.22802  25748447.555 2  25748436.744 2


  27038574.057 7 142088974.74307
                  27038579.248 7 106105607.43507  27038578.265 6 115332107.30006
  27038577.153 7 108873555.23007  27038578.078 7 107489578.90607
  21847451.214 7 114809554.98807  89462175.44506  21847455.760 6  21847451.036 6
  21847456.673 7  21847454.050 7  85734668.22307

  28609553.636 6 150344233.92606
                  28609564.110 6 112270085.89406  28609559.834 6 122032682.20706
  28609562.389 6 115198858.67806  28609562.747 6 113734478.86806
  21888683.209 7 115025886.89007  89630617.09406  21888686.710 6  21888682.619 6
  21888687.244 7  21888685.813 8  85896013.54608

  25413755.202 6 133550197.77906 104065141.85203  25413764.461 3  25413754.939 3
  25413764.918 5

  28379137.814 5 149133337.16005
                  28379152.382 6 111365823.79606  28379148.295 6 121049803.02706
  28379149.420 6 114271014.12506  28379150.656 6 112818423.03306
 25  4 11  2 20 15.0000000  0 28G18E19G15E29G23R22R21G10R08R06E33R23
                                G24R07E13E26G08S33S31E07S35G16E08G32
                                E31G27G29E23
  21150251.222 7 111145635.86807  86607141.62106  21150252.880 6  21150250.986 6
  21150253.112 7  21150255.892 8  82998569.97108

  27660741.989 5 145358230.34605
                  27660756.314 5 108546832.73305  27660752.239 5 117985659.65005
  27660752.609 5 111378437.24005  27660754.108 6 109962652.56206
  23365299.578 7 122785956.13607  95677617.45405  23365302.753 5  23365299.319 5
  23365303.185 6

  24367555.582 7 128052831.42807
                  24367559.654 7  95624150.38207  24367560.422 7 103939191.66307
  24367557.743 7  98118656.71207  24367558.551 8  96871298.62108
  20976644.696 8 110233472.69208  85896489.63506  20976646.263 6  20976644.406 6
  20976646.379 7  20976649.163 8  82317489.82708

  19099715.780 8 101955712.01508  79298971.56507
  19099719.713 7

  21336942.623 8 114178540.57208  88805691.08307
  21336949.991 7

  21419453.745 8 112560327.91708  87709551.51707  21419457.175 7  21419453.455 7
  21419457.135 7  21419454.212 8  84055003.59508

  20222750.966 8 108292317.89808  84227549.82307
  20222757.343 7

  22438672.299 5 119737116.19705


  25699949.946 7 135054332.01207
                  25699953.680 7 100852379.19807  25699954.022 7 109622117.37607
  25699951.573 7 103483291.80607  25699952.677 8 102167838.57508
  21260860.882 8 113731358.09008


  22666619.851 7 119114083.65307  92816277.96805  22666624.778 5  22666619.565 5
  22666625.952 6  22666625.219 7  88948956.69907

  19479768.074 8 104277221.52608  81104760.33108
  19479774.142 8

  25250064.385 7 132690058.58307
                  25250070.811 7  99086800.17107  25250068.288 7 107703013.07407
  25250068.523 7 101671657.88407  25250069.551 8 100379229.10108
  23382154.153 8 122874389.59608
                  23382156.167 8  91757061.27008  23382157.702 8  99735863.79608
  23382154.382 8  94150694.04908  23382155.189 8  92953883.23308
  24107641.811 6 126686550.44506  98716836.02303  24107648.013 3  24107641.261 3
  24107649.027 6  24107646.300 7  94603632.88807

  37105750.271 7 194992034.08307
                  37105748.185 6 145610927.15206

  36827653.652 7 193530658.62607
                  36827663.939 7 144519674.97907

  23533220.649 8 123668412.56108
                  23533225.400 8  92350103.99408  23533223.674 8 100379980.40808
  23533223.455 8  94759196.85808  23533224.393 8  93554651.50008
  36979396.782 7 194328052.60307
                  36979399.632 6 145115109.59206

  25754809.486 5 135342388.06005 105461607.25702  25754819.729 2  25754808.744 2


  27046027.500 6 142128142.56706
                  27046032.617 7 106134856.10207  27046031.462 6 115363899.35006
  27046030.509 7 108903566.90907  27046031.508 7 107519209.07907
  21840199.135 7 114771444.43407  89432478.95306  21840203.499 6  21840198.966 6
  21840204.305 7  21840201.848 7  85706209.09807

  28613330.900 6 150364083.49006
                  28613341.562 6 112284908.55106  28613337.207 6 122048793.82806
  28613339.307 6 115214068.02506  28613340.025 6 113749494.87106
  21887235.390 7 115018279.27607  89624689.08506  21887239.156 6  21887234.805 6
  21887239.520 7  21887238.078 8  85890332.53808

  25424520.209 6 133606767.53606 104109222.07003  25424529.396 3  25424519.981 3
  25424529.681 5

  28385166.103 5 149165015.91905
                  28385180.741 6 111389479.89506  28385176.686 6 121075516.22306
  28385178.341 6 114295287.35206  28385178.882 6 112842387.69606
 25  4 11  2 20 30.0000000  0 28G18E19G15E29G23R22R21G10R08R06E33R23
                                G24R07E13E26G08S33S31E07S35G16E08G32
                                E31G27G29E23
  21154494.200 7 111167933.56107  86624516.44406  21154496.020 6  21154493.964 6
  21154496.089 7  21154498.991 8  83015220.83908

  27652195.521 5 145313317.40405
                  27652209.243 5 108513294.12505  27652205.695 5 117949204.51605
  27652205.782 5 111344023.65605  27652207.344 6 109928676.46506
  23375448.809 7 122839290.46807  95719176.63205  23375452.053 5  23375448.564 5
  23375452.513 6

  24361501.335 7 128021016.08107
                  24361505.353 7  95600392.21007  24361506.066 7 103913367.54107
  24361503.496 7  98094278.76207  24361504.260 8  96847230.55908
  20979651.083 8 110249270.07008  85908799.28306  20979652.432 6  20979650.797 6
  20979652.386 7  20979655.283 8  82329286.57108

  19097980.279 8 101946449.97308  79291767.76107
  19097984.716 7

  21346083.874 8 114227457.56708  88843737.60707
  21346091.638 7

  21417393.493 8 112549501.09508  87701115.03907  21417396.888 7  21417393.198 7
  21417396.964 7  21417393.891 8  84046918.63708

  20217701.368 8 108265277.85708  84206518.70007
  20217707.548 7

  22448889.622 5 119791637.58005


  25693773.808 7 135021876.68207
                  25693777.535 7 100828143.09807  25693778.083 7 109595773.78707
  25693775.592 7 103458423.46407  25693776.588 8 102143286.35408
  21251027.485 8 113678756.25508


  22665209.468 7 119106672.62307  92810503.16905  22665214.621 5  22665209.187 5
  22665215.412 6  22665214.762 7  88943422.52307

  19484381.670 8 104301916.94708  81123967.89208
  19484387.384 8

  25254431.757 7 132713008.48807
                  25254437.962 7  99103938.07207  25254435.420 7 107721641.22707
  25254435.702 7 101689242.86107  25254436.797 8 100396590.54108
  23380572.811 8 122866080.64208
                  23380575.043 8  91750856.53608  23380576.372 8  99729119.52208
  23380573.278 8  94144327.45908  23380574.037 8  92947597.57208
  24101100.847 6 126652177.84606  98690052.23803  24101107.366 3  24101100.293 3
  24101108.296 6  24101105.626 7  94577965.09907

  37105750.558 7 194992043.27707
                  37105749.947 6 145610933.83706

  36827652.042 7 193530652.81807
                  36827662.816 7 144519670.65807

  23534927.920 8 123677384.22408
                  23534932.680 8  92356803.62308  23534930.852 8 100387262.61308
  23534930.772 8  94766071.26208  23534931.641 8  93561438.51608
  36979407.742 7 194328103.74207
                  36979409.157 6 145115147.87706

  25761181.953 6 135375871.72706 105487698.33102  25761191.765 2  25761181.198 2


  27053487.856 6 142167346.71606
                  27053493.124 7 106164131.88707  27053491.879 6 115395720.86206
  27053490.674 7 108933606.41507  27053491.717 7 107548866.72607
  21832964.685 7 114733427.84807  89402855.68506  21832969.174 6  21832964.502 6
  21832969.972 7  21832967.240 7  85677820.13107

  28617120.350 6 150383996.71506
                  28617130.880 6 112299778.76206  28617125.821 6 122064957.10206
  28617129.034 6 115229326.14806  28617129.618 6 113764559.03306
  21885815.999 7 115010820.36007  89618876.95306  21885819.810 6  21885815.414 6
  21885820.243 7  21885818.712 8  85884762.57708

  25435281.702 6 133663317.38106 104153286.73403  25435290.830 3  25435281.506 3
  25435291.688 5

  28391192.666 5 149196686.85605
                  28391207.459 6 111413130.19006  28391203.707 6 121101223.11006
  28391204.603 6 114319554.61106  28391205.654 6 112866346.47206
 25  4 11  2 20 45.0000000  0 28G18E19G15E29G23R22R21G10R08R06E33R23
                                G24R07E13E26G08S33S31E07S35G16E08G32
                                E31G27G29E23
  21158755.304 7 111190326.30507  86641965.32706  21158757.195 6  21158755.068 6
  21158757.578 7  21158760.203 8  83031942.68408

  27643649.530 5 145268411.53005
                  27643663.942 5 108479760.83505  27643659.876 5 117912755.15805
  27643660.282 5 111309615.55005  27643661.751 6 109894705.76906
  23385603.607 7 122892654.41907  95760758.88305  23385607.099 5  23385603.348 5
  23385606.919 6

  24355459.928 7 127989268.20807
                  24355463.953 7  95576684.41907  24355464.369 7 103887598.19207
  24355462.020 7  98069952.50607  24355462.812 8  96823213.53608
  20982662.311 8 110265095.49108  85921130.78506  20982663.918 6  20982662.030 6
  20982664.107 7  20982666.749 8  82341104.26108

  19096274.967 8 101937347.35508  79284687.95807
  19096279.166 7

  21355245.242 8 114276483.89108  88881869.14607
  21355252.795 7

  21415339.147 8 112538706.08208  87692703.34707  21415342.687 7  21415338.843 7
  21415342.707 7  21415339.696 8  84038857.43508

  20212676.187 8 108238368.52108  84185589.25607
  20212682.369 7

  22459107.465 6 119846162.61506


  25687597.380 7 134989419.62107
                  25687601.145 7 100803905.70407  25687601.565 7 109569428.78507
  25687599.250 7 103433553.78707  25687600.191 8 102118732.81908
  21241205.076 8 113626215.93508


  22663825.773 7 119099399.79507  92804836.05205  22663830.886 5  22663825.487 5
  22663831.333 7  22663830.777 7  88937991.54407

  19489015.533 8 104326724.35408  81143262.54008
  19489021.778 8

  25258808.345 7 132736006.92607
                  25258814.379 7  99121112.22007  25258811.831 7 107740308.79107
  25258812.334 7 101706865.03307  25258813.268 8 100413988.70008
  23379000.368 8 122857816.75008
                  23379002.410 8  91744685.46208  23379003.833 8  99722411.82508
  23379000.662 8  94137995.39808  23379001.466 8  92941346.00308
  24094579.140 6 126617902.29806  98663344.06603  24094584.646 3  24094578.582 3
  24094585.051 6  24094583.127 7  94552369.77307

  37105750.790 7 194992049.29707
                  37105750.953 6 145610938.32506

  36827651.971 7 193530643.63707
                  36827661.122 7 144519663.77307

  23536652.637 7 123686446.60107
                  23536657.171 8  92363570.98208  23536655.305 8 100394618.43808
  23536655.257 8  94773015.16008  23536656.158 8  93568294.14508
  36979415.840 7 194328151.17207
                  36979418.073 6 145115183.31206

  25767552.027 5 135409348.37305 105513783.90402  25767562.405 2  25767551.236 2


  27060953.932 6 142206580.44806
                  27060959.043 7 106193429.76807  27060958.271 6 115427566.39906
  27060956.812 7 108963668.58607  27060957.722 7 107578546.75607
  21825747.031 7 114695498.84607  89373300.65506  21825751.497 6  21825746.848 6
  21825752.433 7  21825749.701 7  85649496.57807

  28620920.446 5 150403966.83605
                  28620931.111 6 112314691.42806  28620926.721 6 122081166.55806
  28620929.011 6 115244627.86606  28620929.773 6 113779666.22106
  21884423.797 7 115003503.65607  89613175.62706  21884427.405 6  21884423.203 6
  21884428.007 7  21884426.431 8  85879298.81708

  25446038.274 6 133719840.54606 104197330.63303  25446047.389 3  25446038.033 3
  25446047.957 5

  28397216.532 5 149228343.26705
                  28397231.656 6 111436769.62406  28397227.860 6 121126918.16906
  28397228.890 6 114343810.71906  28397229.918 6 112890294.24406
 25  4 11  2 21  0.0000000  0 28G18E19G15E29G23R22R21G10R08R06E33R23
                                G24R07E13E26G08S33S31E07S35G16E08G32
                                E31G27G29E23
  21163035.945 7 111212821.05407  86659493.69406  21163037.817 6  21163035.700 6
  21163038.176 7  21163040.812 8  83048740.70008

  27635106.725 5 145223520.12105
                  27635120.994 5 108446238.30105  27635117.245 5 117876317.50905
  27635117.358 5 111275218.47605  27635118.935 6 109860745.95806
  23395765.401 7 122946054.69707  95802369.44205  23395768.866 5  23395765.124 5
  23395769.510 6

  24349432.777 7 127957594.89807
                  24349436.680 7  95553032.31207  24349437.260 7 103861889.36607
  24349434.771 7  98045683.37407  24349435.543 8  96799252.91708
  20985680.530 8 110280955.85208  85933489.51106  20985682.040 6  20985680.249 6
  20985681.939 7  20985684.886 8  82352948.04108

  19094601.294 8 101928411.52108  79277737.86907
  19094605.844 7

  21364428.257 7 114325626.52807  88920091.17107
  21364436.898 7

  21413292.287 8 112527949.74808  87684321.79307  21413295.842 7  21413291.983 7
  21413295.773 7  21413292.840 8  84030825.11608

  20207677.066 8 108211597.05308  84164767.03307
  20207683.334 7

  22469327.148 5 119900698.06305


  25681422.144 7 134956967.96407
                  25681425.699 7 100779672.34707  25681426.422 7 109543088.16307
  25681423.850 7 103408688.25207  25681424.840 8 102094183.37308
  21231396.413 8 113573744.73708


  22662469.359 7 119092272.33007  92799282.21705  22662474.849 5  22662469.069 5
  22662474.955 7  22662474.505 7  88932669.12607

  19493672.145 8 104351650.10708  81162649.24608
  19493678.242 8

  25263194.863 7 132759060.91707
                  25263201.397 7  99138327.85107  25263198.876 7 107759021.43607
  25263199.411 7 101724529.77007  25263200.310 8 100431428.88508
  23377437.661 8 122849604.98608
                  23377439.724 8  91738553.31108  23377441.185 8  99715746.44508
  23377437.996 8  94131703.27708  23377438.821 8  92935133.86808
  24088075.619 6 126583730.98706  98636717.11104  24088081.709 4  24088075.061 4
  24088083.303 6  24088080.391 7  94526852.30007

  37105752.834 7 194992059.11707
                  37105752.795 6 145610945.89606

  36827650.209 7 193530637.97107
                  36827659.990 7 144519659.65107

  23538395.712 7 123695606.49207
                  23538400.268 8  92370411.17708  23538398.375 8 100402053.41908
  23538398.281 8  94780033.78808  23538399.232 8  93575223.55608
  36979424.291 7 194328201.77407
                  36979427.754 6 145115221.01706

  25773922.455 5 135442824.83905 105539869.36302  25773933.005 2  25773921.686 2


  27068426.733 6 142245850.49006
                  27068431.885 7 106222754.75307  27068430.604 6 115459441.40106
  27068429.863 7 108993758.58407  27068430.662 7 107608254.24307
  21818547.298 7 114657664.61007  89343819.47506  21818551.880 6  21818547.115 6
  21818552.439 7  21818550.128 7  85621243.79007

  28624732.825 6 150424000.58606
                  28624743.290 5 112329651.62505  28624739.470 5 122097427.70005
  28624741.187 6 115259978.36306  28624742.023 6 113794821.56306
  21883059.871 7 114996336.17407  89607590.58206  21883063.381 6  21883059.286 6
  21883063.845 7  21883062.544 8  85873946.47508

  25456790.291 5 133776343.75905 104241358.93803  25456799.942 3  25456790.019 3
  25456799.419 5

  28403239.130 5 149259991.82405
                  28403254.312 6 111460403.19006  28403250.367 6 121152606.85706
  28403252.033 6 114368060.82906  28403252.626 6 112914236.08606
