     2.11           OBSERVATION DATA    M                   RINEX VERSION / TYPE
ssrcrin-13.7.0x                         11-APR-25 01:00     PGM / RUN BY / DATE 
(000000000000583293750002) Septentrio proprietary           COMMENT             
SEPT                                                        MARKER NAME         
Unknown                                                     MARKER NUMBER       
Unknown             Unknown                                 OBSERVER / AGENCY   
3083514             SEPT POLARX5E       5.4.0               REC # / TYPE / VERS 
Unknown             Unknown                                 ANT # / TYPE        
 -1908063.1790 -5042727.1373  3400842.2505                  APPROX POSITION XYZ 
        0.0000        0.0000        0.0000                  ANTENNA: DELTA H/E/N
     1     1                                                WAVELENGTH FACT L1/2
    14    C1    L1    L2    P2    P1    C2    C5    L5    C6# / TYPES OF OBSERV 
          L6    C7    L7    C8    L8                        # / TYPES OF OBSERV 
For GPS, L2 corresponds to the L2P carrier phase.           COMMENT             
For GLONASS, L2 corresponds to the L2CA carrier phase.      COMMENT             
  2025     4    11     1     0    0.0000000     GPS         TIME OF FIRST OBS   
                                                            END OF HEADER       
 25  4 11  1  0  0.0000000  0 31G18R20G15E29G05G23R22R21G13G10R08R06
                                E33G24G26R07E13E26E15S33S31E07S35G16
                                E21E08G32E31G27G29E23
  20679983.322 8 108674362.22508  84681474.03007  20679984.949 7  20679983.099 7
  20679985.170 8  20679987.967 8  81153138.58008

  22835697.028 5 122112703.43105  94976591.02806
  22835707.972 6

  20798044.063 8 109294959.67008  85165158.10406  20798045.816 6  20798043.773 6
  20798046.050 7

  26835106.772 6 141019803.97406
                  26835117.854 6 105307251.15806  26835116.138 6 114464311.80606
  26835115.224 7 108054363.38607  26835116.169 7 106680702.34807
  25129369.848 6 132055822.54406 102900720.03905  25129376.931 5  25129369.482 5
  25129377.483 6

  20420513.961 8 107310979.70808  83619220.91807  20420515.730 7  20420513.702 7
  20420516.050 8  20420518.625 8  80135106.99408

  20861748.537 8 111361542.93908  86614612.43307
  20861754.220 7

  19668554.517 8 105250682.20408  81861806.39708
  19668561.580 8

  23631397.547 6 124184056.90706  96766921.86904  23631402.127 4  23631397.074 4


  22514163.675 7 118313034.86107  92192171.73806  22514169.424 6  22514163.345 6
  22514169.486 7  22514166.882 7  88350846.18307

  22995550.560 7 123140413.65607  95776038.81706
  22995564.043 6

  19650814.832 6 104860596.79106


  27605010.852 6 145065444.26306
                  27605018.318 6 108328194.96506  27605017.837 6 117748009.66106
  27605015.740 6 111154130.59706  27605017.149 7 109741165.85307
  24213714.449 6 127244038.07906  99151287.13503  24213723.923 3  24213714.217 3
  24213724.386 6  24213725.262 7  95020002.64507

  24824118.811 6 130451610.63106 101650640.86603  24824129.951 3  24824118.329 3
  24824130.580 6  24824129.283 6  97415191.79506

  19436122.552 8 104043566.12008  80923024.06108
  19436129.497 8

  24299188.211 7 127693177.46107
                  24299194.159 8  95355364.96608  24299191.563 7 103647104.49407
  24299191.928 8  97842880.66608  24299192.997 8  96599122.89108
  24219758.592 7 127276017.28107
                  24219761.830 8  95043986.83508  24219762.805 7 103308610.56607
  24219760.014 8  97523365.99508  24219760.833 8  96283681.98708
  28075485.652 6 147537563.79506
                  28075499.384 6 110174144.33106  28075494.922 6 119754508.39406
  28075496.585 6 113048247.49506  28075498.091 7 111611195.98607
  37104931.137 7 194987713.66107
                  37104929.073 6 145607717.29506

  36827870.490 7 193531783.90507
                  36827881.175 7 144520541.81407

  23969925.680 7 125963289.74007
                  23969931.960 8  94063804.34608  23969929.622 8 102242700.67308
  23969929.785 8  96517603.19308  23969930.742 8  95290704.84508
  36976264.598 7 194311583.21807
                  36976269.005 6 145102820.97406

  24058466.537 6 126428130.85906  98515454.52403  24058470.619 3  24058465.666 3


  27381974.260 6 143893199.68306
                  27381987.107 6 107452741.00106  27381984.391 6 116796455.97706
  27381984.441 6 110255848.71906  27381985.902 7 108854297.93307
  25201163.710 7 132433329.14807
                  25201167.972 7  98895226.12707  25201167.312 7 107494735.03307
  25201165.998 8 101475076.62908  25201166.933 8 100185148.95208
  24805039.616 6 130351620.76606 101572834.73703  24805053.936 3  24805039.554 3
  24805053.894 6  24805053.333 6  97340707.84106

  28165947.136 6 148013080.00806
                  28165956.810 6 110529292.84906  28165953.281 6 120140514.47906
  28165954.702 6 113412653.24706  28165955.797 6 111970979.61906
  23628259.929 6 124167389.62806  96753857.02104  23628265.893 4  23628259.339 4
  23628266.576 6  23628265.577 7  92722449.90607

  22079386.478 7 116028050.03907  90411540.73306  22079390.171 6  22079386.210 6
  22079390.377 6

  26608817.659 6 139830323.26106
                  26608825.797 6 104418792.27406  26608823.664 6 113498672.61506
  26608823.724 7 107142752.84607  26608824.549 7 105780776.63307
 25  4 11  1  0 15.0000000  0 31G18R20G15E29G05G23R22R21G13G10R08R06
                                E33G24G26R07E13E26E15S33S31E07S35G16
                                E21E08G32E31G27G29E23
  20679068.787 8 108669557.65608  84677730.21106  20679070.628 6  20679068.564 6
  20679070.787 8  20679073.687 8  81149550.75008

  22843721.587 5 122155621.64905  95009971.78106
  22843734.315 6

  20802785.202 8 109319873.46408  85184571.44406  20802786.791 6  20802784.912 6
  20802787.159 7

  26826418.891 6 140974150.88206
                  26826429.940 7 105273159.74007  26826428.256 6 114427255.84206
  26826427.351 6 108019382.61406  26826428.454 7 106646166.25207
  25137933.013 6 132100823.98706 102935786.05005  25137940.692 5  25137932.651 5
  25137941.386 6

  20420590.997 8 107311385.78408  83619537.35206  20420592.990 6  20420590.738 6
  20420593.346 8  20420595.927 8  80135410.24108

  20853800.752 8 111319114.43608  86581612.51807
  20853805.754 7

  19669690.742 8 105256761.07108  81866534.40208
  19669697.394 8

  23639734.128 6 124227865.69806  96801058.55704  23639738.644 4  23639733.663 4


  22509154.909 7 118286712.39907  92171660.77206  22509160.366 6  22509154.570 6
  22509160.740 7  22509157.845 7  88331189.85807

  22984117.090 7 123079190.95707  95728421.42606
  22984131.231 6

  19656529.887 6 104891097.29306


  27599500.910 6 145036490.23406
                  27599508.476 6 108306573.53906  27599507.597 6 117724508.07706
  27599505.817 6 111131945.11906  27599507.341 7 109719262.40307
  24206659.365 6 127206963.78406  99122398.20103  24206668.776 3  24206659.106 3
  24206670.322 6  24206670.263 7  94992317.43507

  24829570.994 6 130480263.02106 101672967.32903  24829583.032 3  24829570.485 3
  24829583.219 6  24829581.985 7  97436587.98307

  19431210.575 8 104017269.85208  80902571.44008
  19431217.381 8

  24301004.631 7 127702722.34307
                  24301010.528 8  95362492.63008  24301007.988 7 103654851.95407
  24301008.343 8  97850194.26608  24301009.325 8  96606343.52308
  24216530.815 7 127259054.50407
                  24216533.945 8  95031319.82808  24216534.926 7 103294842.07007
  24216532.096 8  97510368.54508  24216532.912 8  96270849.75908
  28080490.025 6 147563862.71106
                  28080503.985 6 110193783.13206  28080499.849 6 119775854.91206
  28080501.686 6 113068398.60106  28080502.650 7 111631090.94007
  37104933.802 7 194987735.96907
                  37104933.612 6 145607733.75506

  36827871.076 7 193531785.82207
                  36827881.568 7 144520543.24507

  23965555.896 7 125940326.15707
                  23965562.051 8  94046656.24808  23965559.759 8 102224061.42408
  23965559.955 8  96500007.75308  23965560.893 8  95273333.07508
  36976273.792 7 194311637.23907
                  36976279.294 6 145102861.35206

  24061522.842 6 126444194.27406  98527971.45803  24061527.657 3  24061521.966 3


  27389219.305 6 143931273.65006
                  27389232.968 6 107481172.75406  27389229.246 6 116827360.10306
  27389229.803 6 110285022.20706  27389231.191 7 108883100.55607
  25204560.245 7 132451178.33807
                  25204564.480 7  98908555.06607  25204563.845 7 107509223.01007
  25204562.499 8 101488753.28508  25204563.515 8 100198651.74808
  24794704.514 6 130297314.12806 101530518.18903  24794719.247 3  24794704.425 3
  24794719.451 6  24794719.219 6  97300154.54206

  28164594.642 6 148005973.14506
                  28164604.617 6 110523985.79406  28164600.397 6 120134745.92706
  28164602.148 6 113407207.73806  28164603.480 6 111965603.33506
  23619610.507 7 124121937.16707  96718439.57804  23619616.782 4  23619609.922 4
  23619617.272 6  23619616.111 7  92688508.20207

  22088400.410 7 116075418.11007  90448450.87706  22088404.243 6  22088400.142 6
  22088404.390 7

  26613041.713 6 139852519.90706
                  26613049.787 6 104435367.65706  26613047.150 6 113516689.36406
  26613047.641 7 107159760.63507  26613048.453 7 105797568.22007
 25  4 11  1  0 30.0000000  0 32G18R20G15E29G05G23R22R21G13G10R08R06
                                E33R23G24G26R07E13E26E15S33S31E07S35
                                G16E21E08G32E31G27G29E23
  20678166.150 8 108664814.97808  84674034.62206  20678168.147 6  20678165.931 6
  20678168.402 8  20678171.212 8  81146009.14108

  22851762.335 5 122198617.84005  95043413.24307
  22851775.299 7

  20807552.443 8 109344926.87408  85204093.57406  20807554.364 6  20807552.166 6
  20807554.645 7

  26817733.331 6 140928507.62706
                  26817744.275 7 105239075.67607  26817742.590 6 114390207.87706
  26817741.730 7 107984409.37107  26817742.676 7 106611637.60207
  25146492.619 6 132145803.56206 102970835.03305  25146500.147 5  25146492.253 5
  25146500.356 5

  20420681.510 8 107311859.91008  83619906.81207  20420683.205 7  20420681.256 7
  20420683.369 8  20420686.159 8  80135764.30608

  20845859.846 8 111276725.34808  86548643.24807
  20845864.828 7

  19670850.663 8 105262966.30708  81871360.70107
  19670857.209 7

  23648088.733 6 124271768.02806  96835268.13403  23648092.525 3  23648088.237 3


  22504156.768 7 118260448.50607  92151195.43706  22504162.456 6  22504156.429 6
  22504162.912 7  22504160.000 7  88311577.25207

  22972694.079 7 123018026.88607  95680849.62506
  22972709.271 6

  19662274.295 6 104921745.32106


  27593987.921 6 145007518.72906
                  27593995.496 6 108284939.05306  27593994.352 6 117700992.28506
  27593992.625 6 111109746.23206  27593994.206 7 109697345.71507
  24596832.238 6 131576484.65616


  24199610.352 6 127169920.23206  99093533.22403  24199619.674 3  24199610.102 3
  24199619.827 6  24199621.084 7  94964655.17807

  24835030.530 6 130508952.73906 101695322.86303  24835042.762 3  24835030.007 3
  24835042.868 6  24835041.429 7  97458012.01607

  19426329.826 8 103991144.75608  80882251.94808
  19426336.992 8

  24302826.016 7 127712294.60007
                  24302832.068 8  95369640.74308  24302829.476 7 103662621.64307
  24302829.737 8  97857528.85508  24302830.867 8  96613584.87408
  24213304.442 7 127242100.33707
                  24213307.574 8  95018659.26408  24213308.545 8 103281080.58508
  24213305.774 8  97497377.70508  24213306.636 8  96258024.05808
  28085498.039 6 147590181.67606
                  28085512.552 6 110213436.87606  28085507.500 6 119797217.68506
  28085509.676 6 113088565.06206  28085510.921 7 111651001.03807
  37104938.672 7 194987757.80307
                  37104937.516 6 145607750.11606

  36827872.686 7 193531787.16307
                  36827881.662 7 144520544.58707

  23961203.274 7 125917452.09107
                  23961209.244 8  94029575.00808  23961206.817 8 102205494.84808
  23961207.123 8  96482480.90708  23961208.082 8  95256029.03308
  36976284.448 7 194311690.08907
                  36976289.342 6 145102900.66506

  24064600.043 6 126460364.15206  98540571.35403  24064604.420 3  24064599.176 3


  27396462.678 6 143969337.08506
                  27396476.296 6 107509596.63806  27396473.848 6 116858255.67606
  27396473.251 6 110314187.58706  27396474.589 7 108911895.18507
  25207974.999 7 132469122.20307
                  25207979.103 7  98921954.70707  25207978.321 7 107523787.83907
  25207977.090 8 101502502.48508  25207978.126 8 100212226.16808
  24784370.940 6 130243011.61306 101488204.85603  24784385.878 3  24784370.815 3
  24784386.383 6  24784385.632 6  97259604.33106

  28163260.062 6 147998961.13606
                  28163270.487 6 110518749.59306  28163266.169 6 120129054.39606
  28163267.641 6 113401834.91906  28163269.126 6 111960298.82406
  23610974.851 6 124076558.25006  96683079.43304  23610981.176 4  23610974.275 4
  23610981.536 6  23610980.722 7  92654621.41307

  22097429.294 7 116122865.87707  90485423.12106  22097433.231 6  22097429.008 6
  22097433.320 7

  26617278.329 6 139874784.24706
                  26617286.427 6 104451993.58606  26617284.107 6 113534761.03806
  26617284.616 7 107176820.29207  26617285.244 7 105814411.01207
 25  4 11  1  0 45.0000000  0 32G18R20G15E29G05G23R22R21G13G10R08R06
                                E33R23G24G26R07E13E26E15S33S31E07S35
                                G16E21E08G32E31G27G29E23
  20677275.722 8 108660136.13308  84670388.77407  20677277.793 7  20677275.508 7
  20677277.840 8  20677280.872 8  81142515.20708

  22859816.675 5 122241693.71705  95076916.59307
  22859830.572 7

  20812347.055 8 109370121.47108  85223725.72306  20812348.815 6  20812346.778 6
  20812348.830 7

  26809049.534 6 140882876.24106
                  26809060.541 6 105205000.47506  26809059.209 6 114353169.54106
  26809058.018 6 107949445.21806  26809059.116 7 106577117.92507
  25155049.331 6 132190762.89406 103005868.23105  25155055.778 5  25155048.969 5
  25155056.006 6

  20420784.845 8 107312403.72308  83620330.57207  20420786.701 7  20420784.595 7
  20420786.918 8  20420789.620 8  80136170.41308

  20837926.657 8 111234377.85508  86515706.35007
  20837931.854 7

  19672033.885 8 105269300.12608  81876287.00607
  19672040.510 7

  23656460.632 6 124315765.42106  96869551.77904  23656465.182 4  23656460.136 4


  22499170.641 7 118234244.92307  92130777.10106  22499176.123 6  22499170.306 6
  22499176.169 7  22499173.547 7  88292009.68707

  22961284.457 7 122956923.26907  95633324.81406
  22961297.636 6

  19668044.989 6 104952542.29106


  27588471.702 6 144978531.47206
                  27588479.297 6 108263292.80406  27588478.314 6 117677463.73906
  27588476.525 6 111087535.30806  27588478.053 7 109675417.12907
  24586816.114 6 131522907.44206


  24192567.439 6 127132909.55706  99064693.85203  24192576.600 3  24192567.203 3
  24192577.277 6  24192577.752 7  94937017.49907

  24840497.807 6 130537681.21206 101717708.59803  24840509.679 3  24840497.280 3
  24840509.822 6  24840508.588 7  97479464.98807

  19421481.723 8 103965193.14208  80862067.39208
  19421488.876 8

  24304653.232 7 127721896.14907
                  24304659.131 8  95376810.73008  24304656.459 7 103670415.10307
  24304656.838 8  97864885.87908  24304657.981 8  96620848.37908
  24210080.183 7 127225156.67707
                  24210083.280 8  95006006.54508  24210084.390 8 103267327.62608
  24210081.510 8  97484394.91008  24210082.355 8  96245206.30108
  28090510.436 6 147616522.50306
                  28090525.200 6 110233106.96706  28090519.882 6 119818598.21606
  28090521.962 6 113108748.28506  28090523.476 7 111670927.69907
  37104942.482 7 194987780.91607
                  37104941.880 6 145607767.57006

  36827873.115 7 193531789.62507
                  36827882.109 7 144520546.24407

  23956867.784 7 125894669.47707
                  23956873.813 8  94012562.04808  23956871.456 8 102187002.48308
  23956871.724 8  96465024.12908  23956872.660 8  95238794.16308
  36976293.297 7 194311744.22507
                  36976299.635 6 145102941.31106

  24067698.289 6 126476641.91106  98553255.31103  24067701.980 3  24067697.382 3


  27403704.049 6 144007391.55406
                  27403717.729 6 107538013.82006  27403715.237 6 116889143.95506
  27403714.830 6 110343346.10106  27403716.190 7 108940683.03407
  25211407.700 7 132487162.41107
                  25211412.093 7  98935426.28707  25211411.495 7 107538430.85907
  25211410.123 7 101516325.48907  25211411.049 8 100225873.46008
  24774038.953 6 130188715.30506 101445896.37203  24774052.982 3  24774038.851 3
  24774052.953 6  24774052.779 6  97219058.76106

  28161944.699 6 147992045.84706
                  28161954.466 6 110513585.58206  28161950.177 6 120123441.33206
  28161951.770 6 113396536.21306  28161953.132 7 111955067.46307
  23602354.501 6 124031255.03206  96647778.27304  23602360.182 4  23602353.929 4
  23602361.297 6  23602359.558 7  92620791.15607

  22106473.656 7 116170394.76407  90522458.57306  22106477.687 6  22106473.352 6
  22106478.012 7

  26621528.479 6 139897117.84906
                  26621536.362 6 104468671.24306  26621534.264 6 113552888.94506
  26621534.519 7 107193933.02807  26621535.266 7 105831306.20707
 25  4 11  1  1  0.0000000  0 32G18R20G15E29G05G23R22R21G13G10R08R06
                                E33R23G24G26R07E13E26E15S33S31E07S35
                                G16E21E08G32E31G27G29E23
  20676396.504 8 108655516.34708  84666788.93907  20676398.695 7  20676396.281 7
  20676398.885 8  20676401.766 8  81139065.36808

  22867887.059 5 122284844.03905  95110477.91806
  22867899.382 6

  20817167.182 8 109395451.93208  85243463.74206  20817169.027 6  20817166.910 6
  20817169.444 7

  26800367.977 6 140837251.98406
                  26800378.510 7 105170930.60607  26800376.842 6 114316137.01506
  26800376.060 6 107914486.56506  26800376.987 7 106542603.65807
  25163599.269 6 132235696.72106 103040881.56205  25163606.330 5  25163598.889 5
  25163606.079 5

  20420900.486 8 107313012.15408  83620804.68607  20420902.489 7  20420900.241 7
  20420902.567 8  20420905.442 8  80136624.77608

  20830000.687 8 111192067.33108  86482798.18107
  20830005.568 7

  19673240.489 8 105275757.62608  81881309.50108
  19673247.443 8

  23664850.958 6 124359852.66706  96903905.43004  23664854.988 4  23664850.462 4


  22494194.946 7 118208096.69007  92110401.90106  22494200.254 6  22494194.616 6
  22494200.453 7  22494197.638 7  88272483.46207

  22949883.309 7 122895875.68407  95585843.63406
  22949897.189 6

  19673843.212 6 104983482.62506


  27582951.633 6 144949523.59206
                  27582959.221 6 108241631.14606  27582957.987 6 117653918.40906
  27582956.485 6 111065308.54006  27582957.942 7 109653472.91707
  24576792.402 6 131469284.91906


  24185529.111 6 127095927.29606  99035876.64303  24185539.223 3  24185528.848 3
  24185539.643 6  24185540.267 7  94909401.01007

  24845971.304 6 130566443.16006 101740120.43003  24845982.922 3  24845970.759 3
  24845982.859 6  24845981.849 7  97500942.95907

  19416665.085 8 103939409.96208  80842013.83308
  19416672.385 8

  24306484.941 7 127731522.14207
                  24306490.855 8  95383998.97008  24306488.249 7 103678228.41407
  24306488.641 8  97872261.64008  24306489.741 8  96628130.37908
  24206857.107 7 127208218.66307
                  24206860.093 8  94993358.03208  24206861.155 8 103253579.23908
  24206858.289 8  97471416.43508  24206859.160 8  96232392.80608
  28095526.465 6 147642880.31906
                  28095540.385 6 110252789.74206  28095535.640 6 119839992.53206
  28095537.532 6 113128944.51306  28095539.125 7 111690867.20007
  37104947.150 7 194987799.26707
                  37104945.484 6 145607781.08306

  36827871.000 7 193531787.35907
                  36827881.760 7 144520544.44407

  23952548.687 7 125871973.53107
                  23952554.893 8  93995613.81308  23952552.508 8 102168580.47808
  23952552.712 8  96447633.76308  23952553.748 8  95221624.86308
  36976305.929 7 194311793.90907
                  36976309.026 6 145102978.42106

  24070815.327 6 126493022.40306  98566019.31903  24070819.063 3  24070814.397 3


  27410943.372 6 144045431.83706
                  27410956.416 6 107566420.42106  27410953.169 6 116920020.75506
  27410953.326 6 110372493.74706  27410955.044 7 108969460.15507
  25214858.131 7 132505293.87907
                  25214862.361 7  98948966.01907  25214861.621 7 107553147.96207
  25214860.417 7 101530218.43707  25214861.362 8 100239589.80208
  24763706.736 6 130134420.57806 101403589.08503  24763720.328 3  24763706.611 3
  24763721.435 6  24763720.965 6  97178514.35206

  28160646.269 6 147985222.31606
                  28160655.938 6 110508490.10606  28160651.759 6 120117902.74406
  28160653.500 6 113391307.78506  28160654.550 7 111949905.51407
  23593746.587 6 123986022.90906  96612532.52305  23593753.355 5  23593746.006 5
  23593753.348 6  23593752.337 7  92587013.97407

  22115532.691 7 116217999.64407  90559553.24006  22115536.573 6  22115532.387 6
  22115536.708 6

  26625790.545 6 139919515.55006
                  26625798.595 6 104485396.77306  26625796.836 6 113571068.89306
  26625796.541 7 107211094.89307  26625797.416 7 105848249.90407
 25  4 11  1  1 15.0000000  0 32G18R20G15E29G05G23R22R21G13G10R08R06
                                E33R23G24G26R07E13E26E15S33S31E07S35
                                G16E21E08G32E31G27G29E23
  20675529.865 8 108650961.64108  84663239.81707  20675531.969 7  20675529.637 7
  20675532.194 8  20675535.005 8  81135664.12308

  22875971.579 5 122328074.49305  95144101.51307
  22875984.208 7

  20822014.165 8 109420923.84308  85263311.98006  20822016.190 6  20822013.879 6
  20822016.674 7

  26791688.105 6 140791640.97906
                  26791699.084 7 105136870.61707  26791697.473 6 114279115.21806
  26791696.179 6 107879538.03506  26791697.322 7 106508099.40207
  25172146.053 6 132280611.06906 103075879.70304  25172153.179 4  25172145.678 4
  25172153.881 5

  20421029.727 8 107313690.94408  83621333.62207  20421031.603 7  20421029.482 7
  20421031.558 8  20421034.578 8  80137131.67808

  20822082.275 8 111149800.05308  86449923.65607
  20822087.694 7

  19674471.743 8 105282345.03008  81886433.03207
  19674478.185 7

  23673258.386 6 124404034.82806  96938333.05304  23673262.797 4  23673257.904 4


  22489230.454 7 118182009.59307  92090074.33606  22489236.028 6  22489230.106 6
  22489236.292 7  22489233.455 7  88253002.89407

  22938495.871 7 122834890.43007  95538410.89406
  22938508.016 6

  19679669.468 6 105014571.89406


  27577428.778 6 144920500.88406
                  27577436.237 6 108219958.42706  27577435.413 6 117630361.10006
  27577433.918 6 111043070.45206  27577434.983 7 109631517.51007
  24566761.333 6 131415622.93206


  24178498.101 6 127058979.69706  99007086.41803  24178508.451 3  24178497.838 3
  24178508.324 6  24178509.171 7  94881810.42607

  24851452.524 5 130595244.09205 101762562.62403  24851463.835 3  24851452.033 3
  24851463.251 5  24851462.986 7  97522450.04807

  19411880.985 8 103913801.27208  80822095.99908
  19411888.282 8

  24308322.391 7 127741178.53407
                  24308328.462 8  95391209.90708  24308325.766 7 103686066.39007
  24308326.198 8  97879660.69208  24308327.292 8  96635435.37408
  24203636.020 7 127191292.22507
                  24203639.121 8  94980718.16408  24203640.205 8 103239840.25108
  24203637.292 8  97458446.83308  24203638.161 8  96219588.07108
  28100547.002 6 147669261.03806
                  28100560.916 6 110272489.60706  28100556.528 6 119861405.43906
  28100557.982 6 113149158.31406  28100559.335 7 111710824.03407
  37104949.377 7 194987819.41907
                  37104949.258 6 145607796.10406

  36827871.009 7 193531787.56407
                  36827881.747 7 144520544.73607

  23948247.375 7 125849370.25307
                  23948253.616 8  93978734.77408  23948251.268 8 102150233.68208
  23948251.471 8  96430314.40008  23948252.459 8  95204525.66208
  36976313.911 7 194311845.82407
                  36976318.841 6 145103017.17106

  24073952.827 6 126509511.28906  98578867.78303  24073956.850 3  24073951.888 3


  27418180.471 6 144083463.61506
                  27418194.028 6 107594820.65906  27418191.690 6 116950890.60606
  27418191.202 6 110401634.88206  27418192.459 7 108998230.84407
  25218326.689 7 132523522.36207
                  25218330.982 7  98962578.19707  25218330.498 7 107567943.81407
  25218329.183 7 101544185.71507  25218330.107 8 100253379.52908
  24753376.412 6 130080133.59906 101361287.86603  24753389.949 3  24753376.247 3
  24753390.441 6  24753389.791 6  97137975.73806

  28159366.077 6 147978496.40006
                  28159375.984 6 110503467.53406  28159371.815 6 120112443.42806
  28159373.671 6 113386154.20706  28159374.633 7 111944817.44107
  23585153.954 6 123940868.06506  96577346.99004  23585160.668 4  23585153.391 4
  23585160.647 6  23585159.698 7  92553294.51307

  22124607.166 7 116265685.92207  90596711.33306  22124610.881 6  22124606.862 6
  22124610.978 6

  26630065.872 6 139941983.05106
                  26630073.962 6 104502174.41706  26630072.041 6 113589305.45206
  26630072.117 7 107228310.20107  26630072.855 7 105865246.37907
 25  4 11  1  1 30.0000000  0 32G18R20G15E29G05G23R22R21G13G10R08R06
                                E33R23G24G26R07E13E26E15S33S31E07S35
                                G16E21E08G32E31G27G29E23
  20674675.776 8 108646472.99808  84659742.17407  20674677.831 7  20674675.535 7
  20674678.065 8  20674680.852 8  81132312.21608

  22884070.277 5 122371386.21805  95177788.33806
  22884083.545 6

  20826888.394 8 109446537.79908  85283270.90106  20826890.371 6  20826888.099 6
  20826890.701 7

  26783011.355 6 140746044.24606
                  26783022.036 7 105102821.29307  26783020.239 6 114242105.01806
  26783019.332 6 107844600.44406  26783020.384 7 106473605.94407
  25180689.725 6 132325506.77406 103110863.32404  25180696.504 4  25180689.341 4
  25180697.397 5

  20421172.513 8 107314440.77008  83621917.91507  20421174.297 7  20421172.268 7
  20421174.405 8  20421177.290 8  80137691.62408

  20814172.138 8 111107577.23308  86417083.72007
  20814177.954 7

  19675726.775 8 105289063.34408  81891658.37907
  19675733.855 7

  23681683.693 6 124448312.87206  96972835.39004  23681688.791 4  23681683.220 4


  22484278.110 7 118155984.47007  92069795.06406  22484283.590 6  22484277.748 6
  22484283.831 7  22484281.068 7  88233568.60407

  22927118.737 7 122773968.75907  95491027.61106
  22927131.727 6

  19685523.910 6 105045810.49906


  27571903.175 6 144891464.25806
                  27571910.787 6 108198275.30806  27571909.720 6 117606792.43406
  27571908.207 6 111020821.66706  27571909.457 7 109609551.55707
  24556721.564 6 131361922.72706


  24171473.958 6 127022068.00606  98978324.18603  24171484.234 3  24171473.681 3
  24171484.174 6  24171485.260 7  94854246.63707

  24856940.226 5 130624084.52605 101785035.61003  24856951.401 3  24856939.761 3
  24856951.651 6  24856950.993 7  97543986.63107

  19407129.420 8 103888367.93308  80802314.54508
  19407136.898 8

  24310165.955 7 127750866.25507
                  24310171.981 8  95398444.24708  24310169.347 7 103693929.79807
  24310169.760 8  97887083.75008  24310170.812 8  96642764.07308
  24200417.364 7 127174378.29107
                  24200420.544 8  94968087.63908  24200421.544 8 103226111.41708
  24200418.635 8  97445486.81008  24200419.527 8  96206792.79808
  28105571.726 6 147695665.53306
                  28105585.598 6 110292207.24806  28105580.811 6 119882837.66006
  28105582.452 6 113169390.30406  28105583.994 7 111730798.85107
  37104953.746 7 194987842.09607
                  37104953.439 6 145607813.09106

  36827873.025 7 193531790.06407
                  36827882.167 7 144520546.61907

  23943963.984 7 125826860.61107
                  23943970.160 8  93961925.66908  23943967.708 8 102131962.90108
  23943968.033 8  96413066.78708  23943968.989 8  95187497.30308
  36976324.478 7 194311899.74907
                  36976329.143 6 145103057.47606

  24077110.928 6 126526109.11806  98591801.13703  24077115.402 3  24077109.989 3


  27425416.374 6 144121487.43106
                  27425429.582 6 107623214.96306  27425426.908 6 116981754.02406
  27425426.727 6 110430769.92106  27425428.117 7 109026995.51407
  25221814.304 7 132541848.54707
                  25221818.412 7  98976263.33207  25221817.673 7 107582818.95307
  25221816.525 7 101558227.85007  25221817.454 8 100267243.16308
  24743046.729 6 130025855.50406 101318993.54903  24743060.837 3  24743046.564 3
  24743061.035 6  24743060.445 6  97097443.73706

  28158104.637 6 147971868.97406
                  28158114.862 6 110498518.51906  28158110.522 6 120107064.05606
  28158112.280 6 113381076.06706  28158113.488 7 111939803.86307
  23576577.063 6 123895791.66806  96542222.56704  23576582.030 4  23576576.487 4
  23576582.692 6  23576581.539 7  92519633.64307

  22133697.079 7 116313454.36507  90633933.45106  22133700.854 6  22133696.780 6
  22133701.182 6

  26634354.909 6 139964520.91306
                  26634363.026 6 104519004.61306  26634360.775 6 113607599.15406
  26634360.929 7 107245579.45107  26634361.758 7 105882296.10407
 25  4 11  1  1 45.0000000  0 32G18R20G15E29G05G23R22R21G13G10R08R06
                                E33R23G24G26R07E13E26E15S33S31E07S35
                                G16E21E08G32E31G27G29E23
  20673832.960 8 108642043.64208  84656290.73207  20673834.930 7  20673832.719 7
  20673835.063 8  20673837.941 8  81129004.58408

  22892184.515 5 122414771.79505  95211532.60006
  22892197.234 6

  20831788.413 8 109472286.72108  85303334.99006  20831790.263 6  20831788.118 6
  20831790.618 7

  26774335.785 6 140700455.06706
                  26774346.571 7 105068777.60907  26774344.565 6 114205100.91806
  26774343.867 6 107809668.64506  26774344.886 7 106439118.19907
  25189227.638 6 132370376.84806 103145826.98404  25189234.951 4  25189227.254 4
  25189235.737 5

  20421327.418 8 107315254.52608  83622552.02007  20421329.131 7  20421327.177 7
  20421329.430 8  20421332.143 8  80138299.30808

  20806269.793 8 111065392.18108  86384273.14807
  20806274.734 7

  19677005.937 8 105295905.70108  81896980.21407
  19677012.348 7

  23690126.636 6 124492679.47306  97007406.72103  23690131.492 3  23690126.167 3


  22479336.117 7 118130014.30307  92049558.60606  22479341.503 6  22479335.760 6
  22479342.078 7  22479339.024 7  88214175.34307

  22915752.200 7 122713103.77707  95443688.45106
  22915765.150 6

  19691404.380 6 105077190.96106


  27566373.577 6 144862406.67306
                  27566381.168 6 108176576.52906  27566380.570 6 117583206.80006
  27566378.698 6 110998556.83306  27566379.951 7 109587569.75307
  24546674.019 6 131308177.19506


  24164456.051 6 126985185.65106  98949584.82003  24164465.624 3  24164455.783 3
  24164466.053 6  24164466.342 7  94826704.77407

  24862434.200 6 130652957.11306 101807533.63103  24862445.952 3  24862433.753 3
  24862445.841 6  24862445.390 7  97565547.24807

  19402410.533 8 103863102.96908  80782664.04808
  19402417.577 8

  24312014.139 7 127760578.43307
                  24312020.167 8  95405696.83908  24312017.468 7 103701813.05707
  24312017.936 8  97894525.54308  24312018.974 8  96650111.26508
  24197199.839 7 127157469.96107
                  24197202.918 8  94955461.30208  24197203.899 8 103212387.13308
  24197201.115 8  97432531.09408  24197201.976 8  96194001.77108
  28110599.387 6 147722086.87306
                  28110613.247 6 110311937.47406  28110608.795 6 119904283.55906
  28110610.588 6 113189635.23406  28110611.784 7 111750786.43207
  37104957.998 7 194987861.01107
                  37104957.048 6 145607827.38406

  36827872.243 7 193531787.94707
                  36827881.832 7 144520545.01007

  23939697.155 7 125804437.80107
                  23939703.212 8  93945181.39008  23939700.679 8 102113762.58708
  23939701.074 8  96395885.70408  23939702.041 8  95170534.62208
  36976334.369 7 194311949.99107
                  36976338.775 6 145103095.02706

  24080288.626 6 126542808.58906  98604813.68903  24080293.242 3  24080287.661 3


  27432648.843 6 144159496.10006
                  27432662.574 6 107651597.94506  27432660.267 6 117012605.14106
  27432659.651 6 110459893.34806  27432661.132 7 109055748.71807
  25225318.833 7 132560265.32907
                  25225323.085 7  98990016.12807  25225322.425 7 107597767.64707
  25225321.126 7 101572339.41207  25225322.048 8 100281175.34308
  24732718.092 6 129971579.59906 101276700.93803  24732731.612 3  24732717.918 3
  24732732.458 6  24732732.135 6  97056913.38506

  28156861.270 6 147965333.08306
                  28156870.965 6 110493637.82906  28156866.788 6 120101758.96506
  28156868.588 6 113376068.07006  28156869.760 7 111934859.52507
  23568012.275 7 123850787.11707  96507154.13604  23568017.781 4  23568011.694 4
  23568018.897 6  23568017.449 7  92486026.40107

  22142801.529 7 116361297.56307  90671213.81706  22142805.068 6  22142801.230 6
  22142805.377 6

  26638655.767 6 139987122.01006
                  26638663.817 6 104535882.01106  26638661.939 6 113625944.15706
  26638661.923 7 107262897.12607  26638662.618 7 105899393.64107
 25  4 11  1  2  0.0000000  0 32G18R20G15E29G05G23R22R21G13G10R08R06
                                E33R23G24G26R07E13E26E15S33S31E07S35
                                G16E21E08G32E31G27G29E23
  20673002.773 8 108637680.55208  84652890.92407  20673004.648 7  20673002.528 7
  20673004.941 8  20673007.649 8  81125746.43608

  22900311.167 5 122458238.22305  95245339.78406
  22900325.857 6

  20836715.035 8 109498177.05408  85323509.27206  20836717.097 6  20836714.736 6
  20836717.269 7

  26765663.153 6 140654880.49106
                  26765673.834 7 105034744.82507  26765672.391 6 114168108.71106
  26765670.929 6 107774748.01906  26765672.125 7 106404641.49707
  25197763.038 6 132415227.90606 103180775.81404  25197769.964 4  25197762.654 4
  25197770.025 5

  20421495.528 8 107316138.92608  83623241.17507  20421497.421 7  20421495.292 7
  20421497.538 8  20421500.433 8  80138959.75608

  20798375.541 8 111023252.17608  86351497.60707
  20798380.423 7

  19678308.884 8 105302879.08008  81902403.94107
  19678315.238 7

  23698587.621 6 124537141.11106  97042052.10703  23698592.200 3  23698587.165 3


  22474405.361 7 118104105.86507  92029370.25706  22474411.231 6  22474404.981 6
  22474411.458 7  22474408.829 7  88194828.18107

  22904398.542 7 122652303.33207  95396399.42206
  22904410.058 6

  19697312.918 6 105108719.78406


  27560841.349 6 144833335.00306
                  27560848.909 6 108154867.25506  27560848.232 6 117559609.72606
  27560846.229 6 110976281.21506  27560847.682 7 109565577.30707
  24536620.410 6 131254393.72806


  24157443.790 6 126948339.89706  98920873.97203  24157453.597 3  24157443.522 3
  24157454.048 6  24157454.880 7  94799190.22807

  24867936.771 6 130681868.41906 101830061.84503  24867947.586 3  24867936.360 3
  24867948.214 6  24867947.103 7  97587136.74807

  19397723.333 8 103838013.76208  80763150.24108
  19397730.615 8

  24313868.424 7 127770321.99807
                  24313874.280 8  95412972.87708  24313871.742 8 103709721.79308
  24313872.112 8  97901991.39408  24313873.114 8  96657482.21008
  24193984.734 7 127140574.16207
                  24193987.779 8  94942844.32108  24193988.769 8 103198673.01408
  24193985.964 8  97419584.96808  24193986.794 8  96181220.21808
  28115631.456 6 147748532.00306
                  28115645.248 6 110331685.43206  28115640.850 6 119925748.75006
  28115642.367 6 113209898.36306  28115644.135 7 111770791.97407
  37104962.014 7 194987881.82107
                  37104961.081 6 145607842.76906

  36827873.593 7 193531788.48407
                  36827881.886 7 144520545.41207

  23935447.909 7 125782108.80407
                  23935454.121 8  93928507.18008  23935451.728 8 102095638.43208
  23935451.933 8  96378776.50208  23935452.958 8  95153642.91608
  36976343.496 7 194312002.46907
                  36976348.725 6 145103134.19606

  24083487.196 6 126559616.39406  98617910.66603  24083491.655 3  24083486.244 3


  27439880.559 6 144197496.25406
                  27439893.814 6 107679974.56006  27439890.775 6 117043449.32106
  27439891.179 6 110489010.24306  27439892.475 7 109084495.47907
  25228841.853 7 132578779.43907
                  25228846.117 7  99003841.59807  25228845.421 7 107612795.33607
  25228844.182 7 101586525.54707  25228845.154 8 100295181.14508
  24722391.095 6 129917313.06406 101234415.63803  24722405.048 3  24722390.921 3
  24722406.044 6  24722405.184 6  97016390.04006

  28155636.296 6 147958895.58206
                  28155645.692 6 110488830.63506  28155641.864 6 120096533.74106
  28155643.470 6 113371135.45206  28155644.719 6 111929989.61806
  23559463.155 7 123805861.57507  96472147.26904  23559469.121 4  23559462.561 4
  23559469.515 6  23559468.321 7  92452478.15107

  22151921.358 7 116409222.06107  90708557.54006  22151924.764 6  22151921.041 6
  22151925.278 6

  26642969.924 6 140009792.89606
                  26642977.983 6 104552811.54406  26642975.804 6 113644345.85506
  26642975.926 7 107280268.31107  26642976.795 7 105916543.99907
 25  4 11  1  2 15.0000000  0 32G18R20G15E29G05G23R22R21G13G10R08R06
                                E33R23G24G26R07E13E26E15S33S31E07S35
                                G16E21E08G32E31G27G29E23
  20672184.490 8 108633380.57308  84649540.29007  20672186.364 7  20672184.245 7
  20672186.729 8  20672189.355 8  81122535.41208

  22908454.664 5 122501781.78805  95279206.90206
  22908468.769 6

  20841668.007 8 109524205.25408  85343790.97906  20841670.072 6  20841667.694 6
  20841670.431 7

  26756992.492 6 140609317.37606
                  26757003.324 7 105000720.60807  26757001.641 6 114131125.79406
  26757000.896 7 107739836.19407  26757001.604 7 106370173.47507
  25206293.299 6 132460056.57006 103215707.18604  25206300.684 4  25206292.906 4
  25206300.972 5

  20421676.737 8 107317090.50108  83623982.67007  20421678.513 7  20421676.505 7
  20421678.542 8  20421681.512 8  80139670.35208

  20790489.380 8 110981154.23508  86318754.78607
  20790494.276 7

  19679636.162 8 105309980.49708  81907927.26208
  19679642.924 8

  23707065.365 6 124581693.99906  97076768.61503  23707070.200 3  23707064.909 3


  22469486.871 7 118078255.81907  92009227.40706  22469492.178 6  22469486.505 6
  22469491.989 7  22469489.614 7  88175524.62607

  22893056.212 7 122591563.92607  95349157.90106
  22893067.850 6

  19703248.929 6 105140393.30906


  27555305.958 6 144804245.92306
                  27555313.378 6 108133144.96006  27555312.814 6 117535998.51106
  27555310.970 6 110953992.24806  27555312.162 7 109543571.67707
  24526557.427 6 131200568.81406


  24150439.032 6 126911527.79906  98892189.34703  24150448.599 3  24150438.769 3
  24150448.766 6  24150449.409 7  94771700.83407

  24873444.396 6 130710814.70906 101852617.30303  24873455.816 3  24873443.954 3
  24873456.221 6  24873455.316 7  97608752.37707

  19393069.046 8 103813096.81708  80743770.42108
  19393075.710 8

  24315727.901 7 127780093.71607
                  24315733.803 8  95420269.93808  24315731.366 7 103717653.38107
  24315731.675 8  97909478.80608  24315732.612 8  96664874.44608
  24190771.164 7 127123687.64307
                  24190774.389 8  94930234.27008  24190775.570 8 103184966.43708
  24190772.622 8  97406645.96208  24190773.392 8  96168445.68908
  28120668.306 6 147774997.59606
                  28120681.951 6 110351448.71006  28120677.376 6 119947230.55306
  28120679.462 6 113230177.19306  28120680.362 7 111790813.03307
  37104965.421 7 194987901.68407
                  37104964.864 6 145607857.67506

  36827872.404 7 193531787.80507
                  36827881.823 7 144520544.92007

  23931215.880 7 125759870.42207
                  23931222.293 8  93911900.63308  23931219.839 8 102077587.82008
  23931220.096 8  96361736.74408  23931221.104 8  95136819.76308
  36976353.186 7 194312054.08007
                  36976358.611 6 145103172.72506

  24086705.649 6 126576528.82606  98631089.15603  24086710.311 3  24086704.715 3


  27447109.762 6 144235484.26306
                  27447122.968 6 107708342.12306  27447119.727 6 117074283.64406
  27447120.546 6 110518117.82706  27447121.523 7 109113233.04807
  25232382.956 7 132597387.39807
                  25232387.143 7  99017737.13807  25232386.681 7 107627899.19107
  25232385.193 7 101600783.58507  25232386.103 8 100309257.93508
  24712065.686 6 129863052.86306 101192135.26703  24712079.638 3  24712065.499 3
  24712079.929 6  24712079.308 6  96975871.43506

  28154429.167 6 147952553.12206
                  28154438.858 6 110484094.40406  28154435.083 6 120091385.64706
  28154436.525 6 113366275.66606  28154437.765 7 111925191.60807
  23550928.000 6 123761012.01606  96437199.61904  23550934.667 4  23550927.410 4
  23550934.783 6  23550933.947 7  92418986.67507

  22161055.907 7 116457224.25607  90745961.80205  22161059.305 5  22161055.586 5
  22161060.138 7

  26647296.466 6 140032530.05906
                  26647304.749 6 104569790.55706  26647302.547 6 113662801.32506
  26647302.885 7 107297690.26807  26647303.564 7 105933744.48307
 25  4 11  1  2 30.0000000  0 32G18R20G15E29G05G23R22R21G13G10R08R06
                                E33R23G24G26R07E13E26E15S33S31E07S35
                                G16E21E08G32E31G27G29E23
  20671378.742 8 108629146.58908  84646241.08807  20671380.658 7  20671378.497 7
  20671380.727 8  20671383.659 8  81119373.67808

  22916613.873 5 122545405.12705  95313136.10507
  22916627.494 7

  20846647.638 8 109550373.88208  85364182.11306  20846649.805 6  20846647.321 6
  20846650.238 7

  26748324.829 6 140563768.72906
                  26748335.503 7 104966707.18507  26748333.948 6 114094154.61506
  26748332.531 6 107704935.45206  26748333.820 7 106335716.39307
  25214819.561 6 132504865.62506 103250623.29504  25214827.317 4  25214819.181 4
  25214827.382 5

  20421871.180 7 107318111.83707  83624778.52707  20421872.840 7  20421870.952 7
  20421872.856 8  20421875.851 8  80140433.04908

  20782611.516 8 110939101.46508  86286047.10107
  20782616.651 7

  19680987.544 8 105317212.90208  81913552.46508
  19680994.380 8

  23715561.422 6 124626340.67206  97111558.18504  23715566.314 4  23715560.971 4


  22464579.217 7 118052466.85807  91989132.15206  22464584.671 6  22464578.842 6
  22464584.554 7  22464582.080 7  88156266.68507

  22881723.400 7 122530888.92507  95301966.50706
  22881736.845 6

  19709211.819 6 105172213.58006


  27549767.215 6 144775142.17906
                  27549774.854 6 108111411.73506  27549773.935 6 117512375.39706
  27549772.606 6 110931692.05106  27549773.785 7 109521554.96707
  24516489.836 6 131146705.58706


  24143439.785 6 126874752.54906  98863533.42603  24143449.924 3  24143439.513 3
  24143451.185 6  24143451.113 7  94744238.93407

  24878960.033 5 130739798.43305 101875201.92303  24878971.272 3  24878959.622 3
  24878971.566 6  24878971.174 7  97630395.95607

  19388446.696 8 103788355.25108  80724527.01208
  19388454.006 8

  24317593.239 7 127789896.45007
                  24317599.197 8  95427590.16108  24317596.587 7 103725610.14807
  24317596.978 8  97916989.99408  24317598.025 8  96672290.15108
  24187560.283 7 127106813.24607
                  24187563.296 8  94917633.27508  24187564.340 7 103171269.69207
  24187561.528 8  97393716.24108  24187562.289 8  96155680.33108
  28125708.468 6 147801486.45806
                  28125722.370 6 110371229.35906  28125717.231 6 119968731.24206
  28125719.990 6 113250473.86406  28125720.918 7 111810851.68907
  37104972.549 7 194987924.04507
                  37104969.099 6 145607874.51406

  36827872.368 7 193531789.35907
                  36827881.962 7 144520546.09807

  23927001.811 7 125737725.57307
                  23927008.156 8  93895363.92608  23927005.725 8 102059613.12908
  23927006.102 8  96344768.64408  23927007.038 8  95120067.36008
  36976363.998 7 194312107.99807
                  36976368.713 6 145103212.96906

  24089944.317 6 126593548.40006  98644351.15103  24089949.062 3  24089943.374 3


  27454336.910 6 144273462.67206
                  27454349.995 6 107736702.50806  27454347.595 6 117105110.21906
  27454346.832 6 110547218.07106  27454348.484 7 109141963.36107
  25235942.128 7 132616091.83207
                  25235946.502 7  99031704.74407  25235945.678 7 107643081.36707
  25235944.538 7 101615115.55807  25235945.447 8 100323407.72408
  24701742.267 6 129808802.04206 101149862.20503  24701755.645 3  24701742.107 3
  24701755.702 6  24701755.794 6  96935359.80706

  28153240.824 6 147946308.53606
                  28153250.453 6 110479431.23206  28153246.851 6 120086316.98506
  28153248.120 6 113361490.85606  28153249.481 7 111920467.61407
  23542409.059 6 123716241.57506  96402313.61004  23542414.840 4  23542408.474 4
  23542415.460 6  23542414.127 7  92385554.26007

  22170205.881 7 116505306.57207  90783428.49505  22170209.112 5  22170205.568 5
  22170209.329 6

  26651636.158 6 140055336.08306
                  26651644.464 6 104586820.99206  26651642.409 6 113681312.65906
  26651642.637 7 107315164.96507  26651643.457 7 105950997.05107
 25  4 11  1  2 45.0000000  0 32G18R20G15E29G05G23R22R21G13G10R08R06
                                E33R23G24G26R07E13E26E15S33S31E07S35
                                G16E21E08G32E31G27G29E23
  20670585.372 7 108624977.50107  84642992.45207  20670587.285 7  20670585.127 7
  20670587.531 8  20670590.342 8  81116260.40308

  22924783.771 5 122589107.15205  95347126.51707
  22924799.212 7

  20851654.146 8 109576681.25308  85384681.36006  20851656.001 6  20851653.838 6
  20851656.324 7

  26739659.430 6 140518233.51206
                  26739670.298 7 104932703.78107  26739668.863 6 114057194.32506
  26739667.486 7 107670044.98107  26739668.576 7 106301269.45607
  25223343.162 6 132549653.70006 103285523.06204  25223350.064 4  25223342.800 4
  25223351.440 5

  20422078.465 8 107319201.53708  83625627.65507  20422080.234 7  20422078.242 7
  20422080.213 8  20422083.201 8  80141246.80108

  20774741.795 8 110897092.98308  86253373.87907
  20774746.934 7

  19682363.147 8 105324575.15608  81919278.66507
  19682369.828 7

  23724074.912 6 124671079.38406  97146419.48003  23724079.621 3  23724074.474 3


  22459682.905 7 118026737.70207  91969083.49806  22459688.606 6  22459682.521 6
  22459688.210 7  22459685.957 7  88137053.40507

  22870405.430 7 122470277.44807  95254824.45306
  22870417.550 6

  19715202.221 6 105204178.96906


  27544225.943 6 144746022.49806
                  27544233.419 6 108089666.57806  27544233.292 6 117488739.34306
  27544231.359 6 110909379.63606  27544232.456 7 109499526.18107
  24506413.336 6 131092802.97406


  24136449.258 6 126838013.25006  98834905.52503  24136458.547 3  24136448.963 3
  24136459.592 6  24136459.294 7  94716803.89207

  24884482.363 6 130768817.93606 101897814.44403  24884493.524 3  24884481.970 3
  24884494.004 6  24884493.302 7  97652066.28907

  19383857.640 8 103763787.75008  80705418.98908
  19383864.586 8

  24319464.332 7 127799728.98407
                  24319470.266 8  95434932.63608  24319467.585 7 103733591.10107
  24319468.018 8  97924524.00908  24319469.082 8  96679728.39608
  24184351.239 7 127089949.75407
                  24184354.258 8  94905040.41408  24184355.298 8 103157581.80208
  24184352.447 8  97380794.86808  24184353.264 8  96142923.21408
  28130753.095 6 147827997.38106
                  28130767.372 6 110391026.46206  28130762.412 6 119990249.87706
  28130764.384 6 113270787.40906  28130765.923 7 111830907.00807
  37104975.465 7 194987946.55507
                  37104973.360 6 145607891.18206

  36827873.330 7 193531791.89107
                  36827882.494 7 144520548.18807

  23922805.522 7 125715673.09107
                  23922811.676 8  93878896.20408  23922809.331 8 102041713.41808
  23922809.600 8  96327871.32408  23922810.563 8  95103384.83808
  36976375.606 7 194312162.11107
                  36976379.091 6 145103253.38806

  24093203.121 6 126610673.66006  98657695.50403  24093207.766 3  24093202.165 3


  27461561.690 6 144311429.94606
                  27461575.065 6 107765054.58406  27461572.534 6 117135927.73706
  27461572.252 6 110576309.78106  27461573.593 7 109170685.25407
  25239519.756 7 132634891.32007
                  25239523.845 7  99045743.32207  25239523.143 7 107658340.68207
  25239522.002 8 101629520.35708  25239522.857 8 100337629.41208
  24691420.318 6 129754559.62306 101107595.65603  24691433.106 3  24691420.207 3
  24691433.916 6  24691433.162 6  96894854.44806

  28152070.581 6 147940160.46206
                  28152080.726 6 110474840.15306  28152076.508 6 120081326.69106
  28152078.084 6 113356780.00706  28152079.562 7 111915816.64907
  23533903.983 6 123671549.27106  96367488.48504  23533910.230 4  23533903.402 4
  23533910.396 6  23533909.287 7  92352180.19807

  22179370.572 7 116553467.44007  90820956.39405  22179373.922 5  22179370.242 5
  22179374.620 6

  26655988.992 6 140078209.38906
                  26655997.378 6 104603901.67006  26655995.382 6 113699878.64206
  26655995.307 7 107332691.24807  26655996.116 7 105968300.53207
 25  4 11  1  3  0.0000000  0 32G18R20G15E29G05G23R22R21G13G10R08R06
                                E33R23G24G26R07E13E26E15S33S31E07S35
                                G16E21E08G32E31G27G29E23
  20669803.031 7 108620865.47307  84639788.27907  20669804.809 7  20669802.786 7
  20669805.231 8  20669807.870 8  81113189.73908

  22932972.065 5 122632879.45905  95381171.55107
  22932984.790 7

  20856685.082 8 109603119.14908  85405282.30906  20856686.921 6  20856684.783 6
  20856687.009 7

  26730995.524 6 140472703.90306
                  26731006.403 7 104898704.57207  26731004.583 6 114020238.60006
  26731003.362 7 107635158.80707  26731004.481 7 106266826.76507
  25231860.564 6 132594412.50606 103320400.02804  25231867.267 4  25231860.211 4
  25231868.041 5

  20422297.167 8 107320351.47808  83626523.72907  20422299.013 7  20422296.948 7
  20422299.192 8  20422301.996 8  80142105.53908

  20766878.736 8 110855121.04308  86220729.04207
  20766884.132 7

  19683761.757 8 105332059.29808  81925099.65007
  19683768.785 7

  23732604.933 6 124715901.81506  97181345.99303  23732609.130 3  23732604.504 3


  22454796.606 7 118001060.27707  91949075.15706  22454802.317 6  22454796.235 6
  22454802.103 7  22454799.674 7  88117878.76007

  22859096.341 7 122409721.41107  95207725.58406
  22859109.146 6

  19721217.674 6 105236280.92806


  27538680.341 6 144716878.92906
                  27538687.617 6 108067903.59506  27538686.801 6 117465083.88806
  27538685.384 6 110887048.90406  27538686.603 7 109477479.32207
  24496326.276 6 131038852.77906


  24129463.831 6 126801302.33206  98806299.74203  24129472.737 3  24129463.523 3
  24129473.399 6  24129473.660 7  94689390.04407

  24890009.670 6 130797864.93306 101920448.38403  24890021.134 3  24890009.295 3
  24890021.260 5  24890020.775 7  97673757.12107

  19379298.288 8 103739386.50408  80686440.27508
  19379306.119 8

  24321339.649 7 127809583.43607
                  24321345.528 8  95442291.47008  24321342.919 8 103741589.83508
  24321343.320 8  97932074.82108  24321344.328 8  96687183.22008
  24181142.629 7 127073089.28507
                  24181145.788 8  94892449.80908  24181146.747 8 103143896.35908
  24181143.982 8  97367875.81808  24181144.822 8  96130168.38608
  28135800.858 6 147854522.38006
                  28135814.757 6 110410834.08506  28135809.842 6 120011779.87906
  28135811.825 6 113291111.76006  28135813.343 7 111850972.99907
  37104977.334 7 194987961.78907
                  37104976.137 6 145607902.60106

  36827873.146 7 193531786.52307
                  36827881.541 7 144520544.02207

  23918625.324 7 125693705.12907
                  23918631.240 8  93862491.59608  23918628.934 8 102023882.30308
  23918629.207 8  96311038.76108  23918630.173 8  95086766.25308
  36976384.523 7 194312209.15907
                  36976387.981 6 145103288.45306

  24096481.535 6 126627896.30406  98671115.73403  24096485.144 3  24096480.596 3


  27468783.046 6 144349377.90506
                  27468796.290 6 107793392.22706  27468793.071 6 117166729.56606
  27468793.349 6 110605386.67406  27468794.905 7 109199392.52007
  25243113.544 7 132653777.75007
                  25243117.858 7  99059846.82307  25243117.239 7 107673670.57707
  25243115.949 8 101643991.77508  25243116.825 8 100351916.87208
  24681097.567 6 129700317.88706 101065329.69203  24681111.492 3  24681097.460 3
  24681111.562 6  24681111.172 6  96854349.64006

  28150918.071 6 147934100.97506
                  28150927.724 6 110470315.22206  28150923.179 6 120076408.26406
  28150925.338 6 113352137.03506  28150926.442 7 111911232.69707
  23525413.121 6 123626927.47306  96332718.30504  23525418.820 4  23525412.522 4
  23525419.559 6  23525418.179 7  92318858.78207

  22188548.392 7 116601698.62607  90858539.09105  22188552.097 5  22188548.062 5
  22188552.880 6

  26660352.567 6 140101141.83206
                  26660361.208 6 104621026.51206  26660359.317 6 113718492.59706
  26660359.377 7 107350262.81307  26660360.067 7 105985648.73507
 25  4 11  1  3 15.0000000  0 32G18R20G15E29G05G23R22R21G13G10R08R06
                                E33R23G24G26R07E13E26E15S33S31E07S35
                                G16E21E08G32E31G27G29E23
  20669034.290 8 108616826.06508  84636640.69307  20669036.133 7  20669034.045 7
  20669036.366 8  20669039.156 8  81110173.30408

  22941171.304 5 122676737.55505  95415283.32607
  22941186.441 7

  20861743.847 8 109629702.76408  85425996.80906  20861745.627 6  20861743.543 6
  20861745.883 7

  26722335.011 6 140427195.54206
                  26722345.855 7 104864721.23807  26722344.639 6 113983300.14206
  26722343.121 7 107600288.93107  26722344.330 7 106232400.16207
  25240375.385 6 132639157.68306 103355266.35104  25240382.354 4  25240375.023 4
  25240383.070 5

  20422530.405 8 107321576.91108  83627478.62406  20422532.177 6  20422530.177 6
  20422532.208 8  20422535.186 8  80143020.64808

  20759026.169 8 110813201.60608  86188125.07507
  20759031.334 7

  19685186.324 8 105339681.22808  81931027.80307
  19685192.822 7

  23741152.819 6 124760823.08306  97216349.53603  23741157.307 3  23741152.399 3


  22449923.105 7 117975449.97407  91929119.12606  22449928.825 6  22449922.734 6
  22449928.756 7  22449926.148 7  88098754.23007

  22847801.743 7 122349237.38407  95160682.66606
  22847813.710 6

  19727261.728 6 105268534.62106


  27533133.098 6 144687726.77006
                  27533140.099 6 108046134.21106  27533139.412 6 117441421.48506
  27533137.691 6 110864711.62506  27533139.067 7 109455425.99307
  24486234.699 6 130984871.05006


  24122485.530 6 126764635.59106  98777728.36703  24122495.038 3  24122485.200 3
  24122495.752 6  24122496.294 7  94662009.19107

  24895545.374 6 130826954.43606 101943115.43603  24895556.708 3  24895544.990 3
  24895557.445 5  24895556.519 7  97695479.70307

  19374774.715 8 103715167.14808  80667603.01708
  19374781.662 8

  24323221.942 7 127819475.32107
                  24323227.838 8  95449678.27208  24323225.364 7 103749618.97107
  24323225.684 8  97939654.31708  24323226.694 8  96694666.36808
  24177937.703 7 127056247.29807
                  24177940.856 8  94879873.01708  24177941.892 8 103130225.92708
  24177938.979 8  97354970.93008  24177939.867 8  96117427.54608
  28140854.078 6 147881076.92606
                  28140867.865 6 110430663.78406  28140863.144 6 120033333.91106
  28140865.132 6 113311458.75906  28140866.518 7 111871061.35007
  37104979.963 7 194987985.37707
                  37104980.595 6 145607920.40606

  36827873.245 7 193531789.68707
                  36827881.926 7 144520546.38007

  23914463.986 7 125671837.25007
                  23914469.899 8  93846161.71908  23914467.440 8 102006132.42708
  23914467.863 8  96294282.88208  23914468.832 8  95070223.37508
  36976394.070 7 194312264.49807
                  36976398.445 6 145103330.00206

  24099779.568 6 126645231.38306  98684623.56303  24099783.699 3  24099778.625 3


  27476003.545 6 144387321.65006
                  27476017.040 6 107821726.72806  27476014.370 6 117197527.99106
  27476013.944 6 110634460.36506  27476015.516 7 109228096.62107
  25246727.081 7 132672766.37507
                  25246731.271 7  99074026.63507  25246730.724 7 107689083.42407
  25246729.374 8 101658541.49408  25246730.232 8 100366281.63708
  24670778.871 6 129646092.58306 101023076.50703  24670792.011 3  24670778.751 3
  24670792.943 5  24670791.892 6  96813857.05606

  28149784.304 6 147928145.44806
                  28149794.232 6 110465867.95306  28149790.127 6 120071574.27106
  28149791.918 6 113347573.74206  28149793.029 7 111906727.41607
  23516937.938 6 123582391.91606  96298015.32004  23516944.027 4  23516937.326 4
  23516944.330 7  23516943.137 7  92285601.76707

  22197742.771 7 116650015.15007  90896188.28505  22197746.629 5  22197742.427 5
  22197746.865 6

  26664730.956 6 140124148.56706
                  26664739.305 6 104638206.83306  26664736.957 6 113737166.88606
  26664737.213 7 107367891.31707  26664738.125 7 106003053.14707
 25  4 11  1  3 30.0000000  0 32G18R20G15E29G05G23R22R21G13G10R08R06
                                E33R23G24G26R07E13E26E15S33S31E07S35
                                G16E21E08G32E31G27G29E23
  20668277.150 8 108612847.51308  84633540.52807  20668279.069 7  20668276.909 7
  20668279.398 8  20668282.077 8  81107202.30608

  22949388.263 5 122720669.65105  95449452.66506
  22949401.755 6

  20866827.673 8 109656419.98808  85446815.41906  20866829.773 6  20866827.374 6
  20866830.112 7

  26713676.958 6 140381696.72706
                  26713687.983 7 104830745.03107  26713686.287 6 113946369.40006
  26713684.940 7 107565426.37307  26713686.016 7 106197980.77607
  25248885.369 6 132683876.98606 103390112.52304  25248892.397 4  25248885.016 4
  25248892.661 5

  20422775.441 8 107322865.74508  83628482.92106  20422777.441 6  20422775.213 6
  20422777.624 8  20422780.440 8  80143983.10208

  20751180.620 8 110771322.91608  86155552.79407
  20751185.856 7

  19686634.001 8 105347428.88908  81937053.77007
  19686640.692 7

  23749717.643 6 124805830.74706  97251420.41503  23749721.761 3  23749717.214 3


  22445060.172 7 117949894.78407  91909206.02906  22445065.743 6  22445059.810 6
  22445065.595 7  22445063.209 8  88079670.85708

  22836519.640 7 122288813.27507  95113686.36406
  22836530.273 6

  19733332.519 6 105300927.75806


  27527581.390 6 144658554.20406
                  27527588.814 6 108024349.57506  27527588.158 6 117417742.50406
  27527586.505 6 110842358.68106  27527587.696 7 109433357.20407
  24476136.770 6 130930845.90906


  24115514.202 6 126728001.53506  98749182.48103  24115524.431 3  24115513.863 3
  24115523.904 6  24115524.758 7  94634652.73107

  24901086.793 5 130856074.18805 101965806.06803  24901097.710 3  24901086.387 3
  24901098.293 5  24901097.932 7  97717224.89207

  19370281.804 8 103691117.55108  80648897.80208
  19370288.900 8

  24325109.132 7 127829392.78807
                  24325115.075 8  95457084.17108  24325112.438 8 103757668.85308
  24325112.924 8  97947253.41508  24325113.942 8  96702168.86608
  24174733.994 7 127039411.94707
                  24174737.193 8  94867301.17008  24174738.394 8 103116560.87608
  24174735.336 8  97342071.12408  24174736.204 8  96104691.72008
  28145910.230 6 147907649.12906
                  28145924.535 6 110450506.68506  28145920.017 6 120054902.25506
  28145921.582 6 113331819.28306  28145923.056 7 111891163.06007
  37104983.625 7 194988004.68707
                  37104984.383 6 145607934.66906

  36827872.695 7 193531788.73007
                  36827881.805 7 144520545.87007

  23910319.229 7 125650057.65307
                  23910325.323 8  93829897.76808  23910323.036 8 101988454.20608
  23910323.352 8  96277594.65108  23910324.277 8  95053747.28408
  36976401.524 7 194312315.22807
                  36976408.099 6 145103367.77706

  24103096.958 6 126662666.76006  98698209.54903  24103101.643 3  24103096.011 3


  27483220.662 6 144425249.06706
                  27483234.420 6 107850049.04006  27483231.926 6 117228313.14906
  27483231.473 6 110663521.52206  27483232.956 7 109256788.35307
  25250357.648 7 132691845.14807
                  25250361.887 7  99088273.76407  25250361.211 7 107704569.43207
  25250359.948 8 101673160.29708  25250360.787 8 100380714.60408
  24660460.853 6 129591872.03306 100980827.03003  24660473.863 3  24660460.715 3
  24660474.875 6  24660473.715 6  96773368.01906

  28148668.483 6 147922282.02806
                  28148678.407 6 110461489.42206  28148674.442 6 120066814.99506
  28148676.039 6 113343080.99106  28148677.220 7 111902291.77907
  23508477.688 6 123537930.98606  96263370.49605  23508483.627 5  23508477.107 5
  23508483.983 6  23508482.668 7  92252400.48407

  22206951.064 7 116698404.75907  90933894.42005  22206954.876 5  22206950.711 5
  22206955.182 6

  26669120.744 6 140147217.43406
                  26669129.182 6 104655433.54906  26669127.012 6 113755891.58506
  26669127.333 7 107385567.42907  26669128.015 7 106020504.56307
 25  4 11  1  3 45.0000000  0 32G18R20G15E29G05G23R22R21G13G10R08R06
                                E33R23G24G26R07E13E26E15S33S31E07S35
                                G16E21E08G32E31G27G29E23
  20667532.952 8 108608936.56008  84630493.03907  20667534.817 7  20667532.702 7
  20667534.944 8  20667537.810 8  81104281.80608

  22957618.999 5 122764681.89305  95483684.37906
  22957632.402 6

  20871938.517 8 109683277.06208  85467743.00206  20871940.457 6  20871938.213 6
  20871940.865 7

  26705021.891 6 140336214.30206
                  26705032.544 7 104796781.04807  26705031.360 6 113909451.96406
  26705029.659 7 107530576.34607  26705030.837 7 106163573.77207
  25257390.918 6 132728577.18706 103424943.80704  25257398.832 4  25257390.579 4
  25257399.519 5

  20423034.161 7 107324224.48907  83629541.68807  20423036.004 7  20423033.933 7
  20423036.417 8  20423038.980 8  80144997.75308

  20743344.120 8 110729492.13008  86123017.76607
  20743349.377 7

  19688106.944 8 105355309.41608  81943183.05507
  19688113.687 7

  23758300.482 6 124850931.22106  97286563.59403  23758304.428 3  23758300.040 3


  22440208.558 7 117924401.30207  91889341.01906  22440214.399 6  22440208.196 6
  22440214.365 7  22440211.937 8  88060633.57708

  22825245.387 7 122228456.09607  95066742.14906
  22825258.469 6

  19739429.995 6 105333466.35306


  27522027.786 6 144629367.81506
                  27522034.632 6 108002554.61606  27522033.899 6 117394052.30806
  27522032.406 6 110819995.15006  27522033.618 7 109411277.96207
  24466029.607 6 130876783.97206


  24108550.201 6 126691407.19006  98720667.52203  24108560.831 3  24108549.866 3
  24108560.688 6  24108561.252 7  94607325.91807

  24906636.205 6 130885230.45606 101988525.16703  24906646.233 3  24906635.816 3
  24906646.580 5  24906646.134 7  97738997.33807

  19365821.898 8 103667244.64308  80630330.01908
  19365829.413 8

  24327002.533 7 127839342.55307
                  24327008.422 8  95464514.18308  24327005.806 8 103765744.95908
  24327006.296 8  97954877.25408  24327007.321 8  96709695.79308
  24171532.989 7 127022589.93807
                  24171536.040 8  94854739.29708  24171537.257 8 103102906.65708
  24171534.200 8  97329181.54908  24171535.077 8  96091965.99608
  28150971.754 6 147934245.66306
                  28150985.624 6 110470367.72506  28150981.472 6 120076490.34606
  28150982.977 6 113352198.43606  28150984.334 7 111911283.15707
  37104987.601 7 194988026.52207
                  37104988.711 6 145607950.80706

  36827871.867 7 193531790.66407
                  36827882.270 7 144520547.25707

  23906192.988 7 125628373.08607
                  23906198.861 8  93813704.78008  23906196.537 8 101970853.12208
  23906196.841 8  96260979.23808  23906197.815 8  95037343.08308
  36976414.988 7 194312369.75707
                  36976418.545 6 145103408.54406

  24106435.664 6 126680208.80306  98711878.64903  24106439.812 3  24106434.739 3


  27490436.572 6 144463166.48106
                  27490449.985 6 107878363.88906  27490447.149 6 117259090.18606
  27490446.986 6 110692575.02306  27490448.581 7 109285472.52707
  25254006.530 7 132711020.51007
                  25254010.728 7  99102593.03007  25254010.283 7 107720133.85107
  25254008.821 8 101687853.10308  25254009.720 8 100395220.64008
  24650145.350 6 129537663.18506 100938586.65503  24650157.897 3  24650145.234 3
  24650158.671 6  24650158.133 6  96732887.73606

  28147571.776 6 147916517.25406
                  28147581.284 6 110457184.58306  28147577.355 6 120062135.81006
  28147579.127 6 113338663.84206  28147580.197 7 111897930.78607
  23500032.338 6 123493551.65606  96228789.24104  23500038.208 4  23500031.735 4
  23500038.715 6  23500037.551 7  92219260.12807

  22216174.401 7 116746874.02207  90971662.63205  22216178.313 5  22216174.048 5
  22216178.383 6

  26673523.810 6 140170354.86706
                  26673532.161 6 104672711.45906  26673530.257 6 113774671.93506
  26673530.168 7 107403296.08107  26673530.976 7 106038007.84207
 25  4 11  1  4  0.0000000  0 32G18R20G15E29G05G23R22R21G13G10R08R06
                                E33R23G24G26R07E13E26E15S33S31E07S35
                                G16E21E08G32E31G27G29E23
  20666800.388 8 108605087.66308  84627493.90107  20666802.383 7  20666800.138 7
  20666802.687 8  20666805.369 8  81101407.62708

  22965862.421 5 122808768.77005  95517974.06606
  22965876.887 6

  20877074.665 8 109710267.91908  85488774.83306  20877076.634 6  20877074.370 6
  20877077.280 7

  26696368.562 6 140290742.72806
                  26696379.474 7 104762825.17607  26696378.023 6 113872543.33006
  26696376.894 7 107495734.64307  26696377.747 7 106129174.98207
  25265892.571 6 132773252.69306 103459755.84704  25265900.142 4  25265892.241 4
  25265900.058 5

  20423304.945 8 107325647.24008  83630650.33307  20423306.733 7  20423304.722 7
  20423306.859 8  20423309.668 8  80146060.20808

  20735515.534 8 110687703.71508  86090515.66707
  20735521.133 7

  19689603.198 8 105363316.83008  81949411.04207
  19689610.127 7

  23766898.971 6 124896118.46006  97321774.37703  23766903.385 3  23766898.529 3


  22435368.052 7 117898963.77407  91869519.61006  22435373.685 6  22435367.690 6
  22435373.765 7  22435371.294 8  88041638.05608

  22813986.494 7 122168160.62507  95019845.88206
  22813998.354 6

  19745553.944 6 105366144.24306


  27516469.485 6 144600161.86106
                  27516476.815 6 107980745.05206  27516475.903 6 117370346.22306
  27516474.610 6 110797616.63406  27516475.812 7 109389183.92107
  24455915.777 6 130822679.72206


  24101592.745 6 126654847.15906  98692179.31003  24101603.742 3  24101592.419 3
  24101603.185 6  24101603.960 7  94580024.75307

  24912189.408 6 130914417.18506 102011267.99303  24912200.073 3  24912188.993 3
  24912200.397 5  24912200.270 7  97760792.53307

  19361394.121 8 103643542.60908  80611895.13008
  19361401.170 8

  24328901.019 7 127849318.95407
                  24328906.886 8  95471964.09408  24328904.397 7 103773842.68707
  24328904.760 8  97962521.51008  24328905.779 8  96717242.87608
  24168333.273 7 127005775.62707
                  24168336.397 8  94842183.15608  24168337.405 8 103089258.67408
  24168334.462 8  97316297.85108  24168335.412 8  96079246.07708
  28156036.677 6 147960860.82106
                  28156050.454 6 110490242.68306  28156045.825 6 120098093.57806
  28156047.375 6 113372591.86806  28156048.889 7 111931417.35507
  37104992.291 7 194988045.80707
                  37104992.306 6 145607965.45706

  36827871.179 7 193531789.65407
                  36827882.158 7 144520546.42907

  23902083.489 7 125606777.94007
                  23902089.388 8  93797578.56708  23902087.132 8 101953324.61308
  23902087.379 8  96244432.33508  23902088.358 8  95021006.52608
  36976423.184 7 194312420.85307
                  36976428.248 6 145103446.71006

  24109792.775 6 126697851.47206  98725626.16403  24109797.182 3  24109791.890 3


  27497649.379 6 144501067.94306
                  27497662.520 6 107906666.81806  27497659.207 6 117289854.28006
  27497659.693 6 110721616.30406  27497661.031 7 109314144.63807
  25257672.859 7 132730286.61107
                  25257676.997 7  99116980.05007  25257676.318 7 107735771.92107
  25257675.015 8 101702615.43708  25257675.941 8 100409795.31608
  24639830.625 6 129483460.57506 100896351.13603  24639843.303 3  24639830.527 3
  24639843.704 6  24639843.403 6  96692412.09806

  28146492.589 6 147910845.41806
                  28146502.075 6 110452949.15406  28146498.146 6 120057532.07306
  28146499.899 6 113334317.91106  28146500.962 7 111893640.10407
  23491601.580 6 123449248.50706  96194267.35005  23491607.473 5  23491600.972 5
  23491607.908 6  23491606.557 7  92186176.65307

  22225411.857 7 116795416.55207  91009487.92705  22225415.666 5  22225411.504 5
  22225415.732 6

  26677938.372 6 140193554.86906
                  26677946.769 6 104690036.10606  26677944.948 6 113793503.08706
  26677944.990 7 107421072.67107  26677945.814 7 106055558.46207
 25  4 11  1  4 15.0000000  0 32G18R20G15E29G05G23R22R21G13G10R08R06
                                E33R23G24G26R07E13E26E15S33S31E07S35
                                G16E21E08G32E31G27G29E23
  20666080.579 8 108601304.27208  84624545.80807  20666082.429 7  20666080.329 7
  20666082.730 8  20666085.364 8  81098582.36908

  22974123.303 5 122852933.52805  95552324.36307
  22974136.718 7

  20882236.947 8 109737395.76108  85509913.40606  20882238.890 6  20882236.652 6
  20882239.056 7

  26687718.745 6 140245285.50406
                  26687729.297 7 104728880.02807  26687727.564 6 113835646.37706
  26687726.411 7 107460903.95507  26687727.380 7 106094787.06707
  25274389.683 5 132817906.19305 103494550.75104  25274396.972 4  25274389.353 4
  25274396.946 5

  20423588.341 8 107327137.18508  83631811.33906  20423590.315 6  20423588.118 6
  20423590.516 8  20423593.209 8  80147172.83608

  20727696.362 8 110645961.41908  86058049.47107
  20727701.368 7

  19691123.965 8 105371454.84308  81955740.59407
  19691130.842 7

  23775514.354 6 124941395.36606  97357055.05703  23775519.307 3  23775513.907 3


  22430538.958 7 117873585.39207  91849744.28806  22430544.216 6  22430538.601 6
  22430544.006 7  22430541.881 8  88022686.71808

  22802736.664 7 122107930.55307  94973000.53606
  22802750.398 6

  19751704.505 6 105398964.43806


  27510909.063 6 144570939.63906
                  27510915.985 6 107958923.33606  27510915.211 6 117346626.94506
  27510913.609 6 110775225.64306  27510914.924 7 109367077.56607
  24445793.706 6 130768536.68706


  24094643.347 6 126618325.24606  98663720.79703  24094653.500 3  24094643.034 3
  24094653.103 6  24094653.831 7  94552752.03107

  24917749.614 6 130943637.32706 102034036.85403  24917760.093 3  24917749.167 3
  24917761.112 6  24917760.785 7  97782612.65407

  19356999.104 8 103620015.25508  80593596.11508
  19357006.237 8

  24330805.249 7 127859325.41907
                  24330811.074 8  95479436.44508  24330808.483 7 103781964.81707
  24330808.950 8  97970188.79808  24330809.953 8  96724812.69508
  24165135.746 7 126988972.36907
                  24165138.831 8  94829635.28008  24165139.872 8 103075619.68308
  24165136.903 8  97303422.64208  24165137.857 8  96066534.53508
  28161105.592 6 147987497.95806
                  28161119.161 6 110510134.04806  28161114.769 6 120119714.62406
  28161116.332 6 113393002.15606  28161117.764 7 111951568.17907
  37104996.928 7 194988065.62107
                  37104995.969 6 145607980.16906

  36827871.836 7 193531788.78907
                  36827881.948 7 144520545.80707

  23897991.913 8 125585275.67208
                  23897997.629 8  93781521.71508  23897995.318 8 101935871.50408
  23897995.612 8  96227956.60608  23897996.573 8  95004740.23508
  36976434.319 7 194312471.83907
                  36976437.996 6 145103484.68106

  24113169.471 6 126715597.70806  98739454.38103  24113174.098 3  24113168.582 3


  27504859.324 6 144538956.50506
                  27504872.507 6 107934960.11106  27504869.918 6 117320607.90206
  27504869.756 6 110750647.70006  27504871.124 7 109342806.98107
  25261356.796 7 132749646.60807
                  25261361.153 7  99131437.19407  25261360.652 7 107751486.19907
  25261359.046 7 101717449.72507  25261360.030 8 100424441.03308
  24629517.328 6 129429267.81606 100854123.28203  24629530.803 3  24629517.226 3
  24629531.273 6  24629530.099 6  96651943.80506

  28145431.475 6 147905269.83106
                  28145441.016 6 110448785.55906  28145437.133 6 120053006.43006
  28145438.709 6 113330045.70706  28145439.940 7 111889422.20507
  23483186.129 7 123405025.16507  96159807.65905  23483192.130 5  23483185.521 5
  23483192.583 6  23483191.300 7  92153152.79207

  22234663.525 7 116844035.42107  91047372.71505  22234667.627 5  22234663.168 5
  22234667.969 6

  26682365.909 6 140216820.53706
                  26682374.150 6 104707409.77806  26682372.371 6 113812387.53506
  26682372.534 7 107438899.58907  26682373.163 7 106073158.75707
 25  4 11  1  4 30.0000000  0 32G18R20G15E29G05G23R22R21G13G10R08R06
                                E33R23G24G26R07E13E26E15S33S31E07S35
                                G16E21E08G32E31G27G29E23
  20665373.018 8 108597586.29208  84621648.68507  20665374.916 7  20665372.773 7
  20665375.193 8  20665377.869 8  81095805.96508

  22982394.407 5 122897175.23805  95586734.48007
  22982409.695 7

  20887425.104 8 109764659.98408  85531158.25006  20887427.135 6  20887424.809 6
  20887427.388 7

  26679070.819 6 140199842.67506
                  26679081.511 7 104694945.60707  26679080.287 6 113798761.07506
  26679078.740 7 107426084.25807  26679079.718 7 106060410.00707
  25282883.281 6 132862537.59406 103529328.44004  25282889.737 4  25282882.951 4
  25282890.665 5

  20423884.609 8 107328693.91908  83633024.38406  20423886.551 6  20423884.386 6
  20423886.675 8  20423889.406 8  80148335.34008

  20719884.591 8 110604265.38408  86025619.25407
  20719890.339 7

  19692669.296 8 105379723.28308  81962171.59907
  19692675.756 7

  23784147.312 6 124986761.30506  97392405.09903  23784152.289 3  23784146.839 3


  22425720.547 7 117848265.93607  91830014.88106  22425726.038 6  22425720.176 6
  22425726.383 7  22425723.748 8  88003779.38308

  22791503.142 7 122047766.08107  94926206.14407
  22791515.415 7

  19757881.014 6 105431925.78006


  27505344.911 6 144541700.92806
                  27505351.979 6 107937089.31106  27505351.247 6 117322894.26106
  27505349.834 6 110752822.01806  27505350.898 7 109344958.73907
  24435665.807 6 130714354.66506


  24087700.450 6 126581841.53906  98635292.06103  24087710.527 3  24087700.133 3
  24087710.840 6  24087711.326 7  94525507.85007

  24923315.846 6 130972890.25906 102056831.27603  24923326.910 3  24923315.346 3
  24923327.769 5  24923327.583 7  97804457.29507

  19352636.485 8 103596662.37708  80575432.79108
  19352643.622 8

  24332715.103 7 127869361.78807
                  24332720.901 8  95486931.13208  24332718.414 7 103790111.21607
  24332718.845 8  97977878.99808  24332719.810 8  96732405.13908
  24161940.173 7 126972180.03507
                  24161943.334 8  94817095.56308  24161944.425 8 103061989.55108
  24161941.432 8  97290555.80308  24161942.360 8  96053831.25608
  28166178.041 6 148014156.90406
                  28166192.252 6 110530041.68606  28166187.308 6 120141353.35406
  28166189.927 6 113413429.12406  28166190.735 7 111971735.48207
  37105001.373 7 194988084.84707
                  37104999.792 6 145607994.31006

  36827871.697 7 193531787.66307
                  36827881.819 7 144520544.78907

  23893917.559 7 125563866.15107
                  23893923.498 8  93765534.12708  23893921.185 8 101918493.67708
  23893921.549 8  96211551.94608  23893922.446 8  94988544.11108
  36976444.304 7 194312524.16307
                  36976447.695 6 145103523.95606

  24116566.210 6 126733447.02406  98753362.92103  24116570.800 3  24116565.334 3


  27512066.460 6 144576831.71706
                  27512079.994 6 107963243.44006  27512077.314 6 117351350.70206
  27512077.263 6 110779668.87106  27512078.656 7 109371459.22507
  25265058.734 7 132769100.13007
                  25265062.901 7  99145964.17007  25265062.377 7 107767276.39607
  25265061.053 7 101732355.66407  25265061.899 8 100439157.49008
  24619206.863 6 129375084.98106 100811903.19603  24619220.274 3  24619206.711 3
  24619220.712 6  24619219.358 6  96611482.93606

  28144388.659 6 147899790.24606
                  28144398.205 6 110444693.69006  28144394.320 6 120048558.72606
  28144395.936 6 113325847.08306  28144397.189 7 111885276.95507
  23474785.731 7 123360881.75907  96125410.24405  23474791.901 5  23474785.128 5
  23474792.350 6  23474790.903 7  92120188.61707

  22243929.931 7 116892730.10407  91085316.57505  22243933.921 5  22243929.560 5
  22243933.953 6

  26686805.790 6 140240151.41606
                  26686813.911 7 104724832.15007  26686812.025 6 113831324.92606
  26686812.315 7 107456776.46907  26686812.934 7 106090808.38307
 25  4 11  1  4 45.0000000  0 32G18R20G15E29G05G23R22R21G13G10R08R06
                                E33R23G24G26R07E13E26E15S33S31E07S35
                                G16E21E08G32E31G27G29E23
  20664678.644 8 108593936.53008  84618804.71907  20664680.388 7  20664678.403 7
  20664680.854 8  20664683.338 8  81093080.49508

  22990684.767 5 122941496.77505  95621206.72707
  22990698.299 7

  20892639.792 8 109792062.96308  85552511.21306  20892641.718 6  20892639.497 6
  20892641.850 7

  26670426.707 6 140154417.00406
                  26670437.251 7 104661024.01807  26670435.607 6 113761889.73206
  26670434.267 7 107391277.75007  26670435.347 7 106026045.95607
  25291372.271 6 132907149.36506 103564090.83404  25291379.125 4  25291371.932 4
  25291379.895 5

  20424194.072 7 107330319.93607  83634291.42206  20424195.983 6  20424193.844 6
  20424196.136 8  20424198.824 8  80149549.58608

  20712083.071 8 110562618.62908  85993227.34807
  20712088.217 7

  19694239.675 8 105388125.17008  81968706.39408
  19694246.026 8

  23792797.580 6 125032218.61706  97427826.33203  23792802.781 3  23792797.107 3


  22420914.095 7 117823007.93507  91810333.35906  22420919.509 6  22420913.720 6
  22420920.182 7  22420917.250 8  87984917.93508

  22780279.819 7 121987670.13207  94879465.06006
  22780292.537 6

  19764085.677 6 105465031.07906


  27499778.398 6 144512448.31806
                  27499785.284 6 107915244.90606  27499784.853 6 117299150.34106
  27499783.127 6 110730407.76806  27499784.246 7 109322829.40907
  24425528.584 6 130660136.55506


  24080765.715 6 126545399.12706  98606895.49604  24080775.904 4  24080765.398 4
  24080775.838 6  24080776.081 7  94498294.50307

  24928890.394 5 131002178.27505 102079653.03303  24928900.868 3  24928889.916 3
  24928901.420 5  24928901.066 7  97826328.13707

  19348306.872 8 103573486.68608  80557407.28608
  19348314.343 8

  24334631.200 7 127879430.77507
                  24334637.018 8  95494450.18108  24334634.496 7 103798284.09707
  24334634.928 8  97985594.19308  24334635.887 8  96740022.26208
  24158747.369 8 126955401.32108
                  24158750.525 8  94804566.02108  24158751.551 8 103048370.47308
  24158748.504 8  97277699.39908  24158749.465 8  96041138.28408
  28171255.802 6 148040840.27306
                  28171270.025 6 110549967.59206  28171264.438 6 120163011.93206
  28171266.885 6 113433874.82506  28171268.477 7 111991921.28307
  37105005.451 7 194988107.23307
                  37105003.883 6 145608011.31106

  36827872.583 7 193531790.28807
                  36827882.149 7 144520546.81507

  23889861.764 7 125542552.17007
                  23889867.496 8  93749617.87508  23889865.143 8 101901193.38508
  23889865.588 8  96195220.48108  23889866.497 8  94972420.25208
  36976453.484 7 194312578.46607
                  36976458.110 6 145103564.56206

  24119983.483 6 126751401.80606  98767353.63903  24119987.706 3  24119982.620 3


  27519271.654 6 144614695.95106
                  27519285.464 6 107991518.55606  27519282.613 6 117382084.56106
  27519282.234 6 110808681.61106  27519283.951 7 109400103.15907
  25268778.711 7 132788649.65607
                  25268783.069 7  99160562.83407  25268782.465 7 107783144.51207
  25268781.253 7 101747335.16107  25268782.048 8 100453946.57108
  24608898.416 6 129320915.01906 100769693.09403  24608911.382 3  24608898.273 3
  24608912.077 6  24608910.408 6  96571031.66206

  28143364.758 6 147894409.29306
                  28143374.235 6 110440675.46006  28143369.854 6 120044191.07206
  28143372.224 6 113321724.03106  28143373.223 7 111881206.31507
  23466401.091 6 123316821.19706  96091077.37805  23466407.399 5  23466400.497 5
  23466407.965 7  23466406.425 7  92087286.29607

  22253211.090 7 116941502.93107  91123321.32405  22253215.046 5  22253210.728 5
  22253215.300 6

  26691258.123 6 140263549.92506
                  26691266.636 6 104742305.02106  26691264.714 6 113850317.17206
  26691264.861 7 107474705.14507  26691265.543 7 106108509.15807
 25  4 11  1  5  0.0000000  0 32G18R20G15E29G05G23R22R21G13G10R08R06
                                E33R23G24G26R07E13E26E15S33S31E07S35
                                G16E21E08G32E31G27G29E23
  20663996.092 8 108590350.60408  84616010.49207  20663998.027 7  20663995.847 7
  20663998.363 8  20664000.953 8  81090402.69708

  22998986.862 5 122985893.49305  95655737.44606
  22999000.408 6

  20897880.050 8 109819599.84208  85573968.51606  20897881.757 6  20897879.751 6
  20897882.025 7

  26661784.720 6 140109004.23706
                  26661795.108 7 104627112.05307  26661793.728 6 113725028.82406
  26661792.368 7 107356481.11107  26661793.422 7 105991691.65607
  25299856.938 6 132951737.02306 103598834.44104  25299863.622 4  25299856.608 4
  25299864.594 5

  20424515.740 7 107332010.55807  83635608.80306  20424517.676 6  20424515.512 6
  20424517.950 8  20424520.515 8  80150812.07708

  20704289.644 8 110521016.89808  85960870.46607
  20704294.838 7

  19695833.379 8 105396656.00608  81975341.47307
  19695839.903 7

  23801464.560 6 125077762.32006  97463314.89103  23801469.622 3  23801464.091 3


  22416118.911 7 117797806.87707  91790696.21806  22416123.922 6  22416118.540 6
  22416123.988 7  22416121.618 8  87966099.00708

  22769070.251 7 121927638.36907  94832773.90006
  22769081.378 6

  19770315.328 6 105498275.00806


  27494208.124 6 144483177.35206
                  27494215.190 6 107893386.78106  27494214.464 6 117275391.46806
  27494212.873 6 110707979.40406  27494214.139 7 109300686.16707
  24415385.234 6 130605878.08206


  24073837.889 6 126508993.86206  98578527.86904  24073847.907 4  24073837.603 4
  24073847.644 6  24073848.193 7  94471108.89407

  24934469.169 6 131031496.53206 102102498.33703  24934480.764 3  24934468.669 3
  24934480.625 6  24934480.067 7  97848221.54007

  19344010.020 8 103550483.44208  80539515.89908
  19344016.987 8

  24336552.504 7 127889527.95507
                  24336558.435 8  95501990.27408  24336555.966 7 103806479.85507
  24336556.367 8  97993330.98908  24336557.325 8  96747660.70508
  24155556.014 7 126938631.76807
                  24155559.325 8  94792043.31508  24155560.397 8 103034758.83108
  24155557.340 8  97264850.01208  24155558.314 8  96028452.23608
  28176337.429 6 148067543.61606
                  28176351.161 6 110569908.41006  28176346.703 6 120184686.73406
  28176349.152 6 113454335.84206  28176350.020 7 112012122.20507
  37105010.070 7 194988128.02307
                  37105007.711 6 145608026.97206

  36827871.505 7 193531790.74807
                  36827882.239 7 144520547.32707

  23885823.245 7 125521329.29307
                  23885828.879 8  93733769.66508  23885826.570 8 101883967.05608
  23885826.998 8  96178958.83408  23885827.879 8  94956365.32408
  36976463.263 7 194312630.68007
                  36976468.090 6 145103603.38906

  24123418.659 6 126769457.22406  98781422.78603  24123423.638 3  24123417.792 3


  27526474.237 6 144652544.40906
                  27526488.073 6 108019781.90106  27526484.731 6 117412805.64506
  27526485.042 6 110837682.28706  27526486.550 7 109428735.16607
  25272516.524 7 132808290.49007
                  25272520.541 7  99175229.68807  25272520.220 7 107799086.74207
  25272518.739 7 101762384.63107  25272519.582 8 100468804.73308
  24598591.523 6 129266753.63706 100727489.72303  24598604.667 3  24598591.322 3
  24598604.717 6  24598604.387 6  96530586.79806

  28142358.426 6 147889122.44906
                  28142368.252 6 110436727.49606  28142364.513 6 120039899.84106
  28142365.949 6 113317673.08306  28142367.180 7 111877206.86107
  23458032.010 7 123272839.31407  96056805.83005  23458037.939 5  23458031.434 5
  23458038.349 7  23458036.823 7  92054442.74007

  22262506.276 7 116990349.07407  91161383.20705  22262510.270 5  22262505.910 5
  22262510.484 6

  26695722.770 6 140287011.26806
                  26695731.149 6 104759824.82406  26695729.152 6 113869360.45606
  26695729.427 7 107492682.00007  26695730.141 7 106126257.48607
 25  4 11  1  5 15.0000000  0 32G18R20G15E29G05G23R22R21G13G10R08R06
                                E33R23G24G26R07E13E26E15S33S31E07S35
                                G16E21E08G32E31G27G29E23
  20663325.748 8 108586828.66808  84613266.13307  20663327.789 7  20663325.507 7
  20663328.032 8  20663330.770 8  81087772.68508

  23007303.897 5 123030365.42805  95690326.65506
  23007317.984 6

  20903145.377 8 109847270.43108  85595530.00706  20903147.299 6  20903145.073 6
  20903147.940 7

  26653144.857 6 140063604.59106
                  26653155.746 7 104593209.87807  26653154.628 7 113688178.57707
  26653153.103 7 107321694.51207  26653154.060 7 105957347.26707
  25308337.228 6 132996300.54406 103633559.22304  25308344.207 4  25308336.893 4
  25308344.830 5

  20424849.778 7 107333765.65107  83636976.41906  20424851.666 6  20424849.550 6
  20424851.869 8  20424854.470 8  80152122.71708

  20696504.953 8 110479460.60008  85928548.92407
  20696509.324 7

  19697451.814 8 105405315.90408  81982076.94307
  19697458.468 7

  23810147.091 6 125123392.11306  97498870.52603  23810152.534 3  23810146.631 3


  22411333.813 7 117772662.65307  91771103.35606  22411339.183 6  22411333.451 6
  22411339.043 7  22411336.800 8  87947322.52608

  22757871.092 7 121867671.23607  94786133.03306
  22757883.746 6

  19776570.927 6 105531657.00006


  27488634.831 6 144453887.98106
                  27488641.495 6 107871514.89906  27488641.130 6 117251617.67406
  27488639.234 6 110685536.94806  27488640.467 7 109278528.99607
  24405235.323 6 130551579.27906


  24066917.521 6 126472626.16206  98550189.51203  24066927.025 3  24066917.262 3
  24066927.620 6  24066927.571 7  94443951.32507

  24940053.633 6 131060844.63606 102125366.90303  24940065.508 3  24940053.128 3
  24940065.111 6  24940064.662 7  97870137.25207

  19339744.947 8 103527652.99408  80521758.91908
  19339752.349 8

  24338479.298 7 127899653.41207
                  24338485.157 8  95509551.48308  24338482.649 7 103814698.55907
  24338483.152 8  98001089.44608  24338484.143 8  96755320.53808
  24152366.804 7 126921871.48407
                  24152369.953 8  94779527.53108  24152371.060 8 103021154.71308
  24152367.986 8  97252007.73108  24152368.924 8  96015773.20408
  28181422.451 6 148094267.00506
                  28181436.816 6 110589864.19106  28181432.132 5 120206377.79305
  28181434.036 6 113474812.21306  28181435.189 7 112032338.27907
  37105011.747 7 194988145.91607
                  37105011.338 6 145608039.88906

  36827871.921 7 193531788.85007
                  36827881.899 7 144520545.68307

  23881801.585 7 125500197.68507
                  23881807.650 8  93717989.59708  23881805.381 8 101866814.79208
  23881805.810 8  96162767.10908  23881806.634 8  94940379.42708
  36976472.658 7 194312682.12207
                  36976477.709 6 145103642.10206

  24126874.307 6 126787613.07506  98795570.16503  24126878.288 3  24126873.453 3


  27533673.701 6 144690376.87406
                  27533687.085 6 108048033.33406  27533684.146 6 117443513.74006
  27533684.641 6 110866670.71506  27533685.885 7 109457355.09807
  25276271.300 7 132828022.52807
                  25276275.565 7  99189964.65407  25276274.967 7 107815103.01207
  25276273.589 7 101777503.98307  25276274.461 8 100483731.89308
  24588285.743 6 129212601.21806 100685293.28303  24588298.950 3  24588285.547 3
  24588299.620 6  24588298.912 6  96490148.63006

  28141370.810 6 147883929.69706
                  28141380.258 6 110432849.80506  28141376.262 6 120035684.94306
  28141377.961 6 113313694.22406  28141379.036 7 111873278.58407
  23449677.271 6 123228936.45306  96022595.84405  23449683.445 5  23449676.717 5
  23449683.822 6  23449682.297 7  92021658.17407

  22271815.373 7 117039268.29507  91199502.02805  22271819.375 5  22271814.993 5
  22271819.327 6

  26700199.241 6 140310535.26506
                  26700207.635 6 104777391.40806  26700206.356 6 113888454.58406
  26700206.056 7 107510706.83507  26700206.633 7 106144053.19507
 25  4 11  1  5 30.0000000  0 32G18R20G15E29G05G23R22R21G13G10R08R06
                                E33R23G24G26R07E13E26E15S33S31E07S35
                                G16E21E08G32E31G27G29E23
  20662668.627 8 108583374.34808  84610574.45707  20662670.452 7  20662668.386 7
  20662670.820 8  20662673.475 8  81085193.16608

  23015632.334 5 123074915.55505  95724976.67406
  23015648.896 6

  20908436.894 8 109875077.90708  85617198.16306  20908438.780 6  20908436.599 6
  20908439.337 7

  26644509.055 6 140018221.71706
                  26644519.749 7 104559320.22507  26644518.149 6 113651341.93706
  26644516.669 7 107286920.75807  26644517.769 7 105923015.56407
  25316813.544 5 133040843.35105 103668267.87804  25316820.507 4  25316813.231 4
  25316821.137 5

  20425196.542 7 107335588.53407  83638396.85906  20425198.561 6  20425196.319 6
  20425198.626 8  20425201.311 8  80153483.97008

  20688729.100 8 110437953.58908  85896265.72007
  20688734.386 7

  19699094.995 8 105414108.65008  81988915.74207
  19699101.821 7

  23818847.610 6 125169111.11806  97534495.69503  23818852.322 3  23818847.168 3


  22406560.302 7 117747578.68907  91751557.45506  22406565.869 6  22406559.931 6
  22406565.658 7  22406563.503 8  87928591.04708

  22746685.292 7 121807772.81007  94739545.56006
  22746697.566 6

  19782851.966 6 105565180.34506


  27483058.126 6 144424583.66906
                  27483064.943 6 107849631.88506  27483064.320 6 117227831.77106
  27483062.737 6 110663083.07506  27483063.978 7 109256360.55307
  24395079.639 6 130497243.99906


  24060004.946 6 126436299.87306  98521883.43304  24060014.652 4  24060004.705 4
  24060014.594 6  24060015.137 7  94416824.68807

  24945644.320 6 131090225.77806 102148261.21903  24945656.834 3  24945643.829 3
  24945656.844 6  24945656.008 7  97892077.60707

  19335513.048 8 103504998.75108  80504138.96907
  19335519.884 7

  24340412.253 7 127909810.69507
                  24340418.076 8  95517136.47608  24340415.581 7 103822943.11207
  24340416.060 8  98008872.30508  24340417.028 8  96763004.46508
  24149179.987 7 126905124.00907
                  24149182.987 8  94767021.31508  24149184.055 8 103007560.99208
  24149181.086 8  97239175.25908  24149181.968 8  96003103.85908
  28186512.103 6 148121013.85606
                  28186526.580 6 110609837.50406  28186521.499 6 120228087.92306
  28186523.577 6 113495306.55606  28186524.951 7 112052572.10507
  37105016.930 7 194988166.30907
                  37105015.116 6 145608055.31106

  36827872.323 7 193531789.13507
                  36827881.895 7 144520545.91907

  23877798.754 7 125479160.92407
                  23877804.492 8  93702280.35308  23877802.128 8 101849739.52208
  23877802.597 8  96146648.05808  23877803.437 8  94924465.27908
  36976482.174 7 194312733.26507
                  36976487.806 6 145103679.85606

  24130348.872 6 126805872.41406  98809798.19603  24130352.623 3  24130348.018 3


  27540870.817 6 144728196.59206
                  27540884.615 6 108076275.20106  27540881.258 6 117474211.47406
  27540881.347 6 110895649.34206  27540882.751 7 109485965.34407
  25280044.391 7 132847849.08107
                  25280048.450 7  99204770.18507  25280047.922 7 107831195.98007
  25280046.399 7 101792695.75107  25280047.326 8 100498730.54208
  24577984.101 6 129158461.43806 100643106.73303  24577996.748 3  24577983.949 3
  24577996.867 6  24577996.248 6  96449719.89406

  28140400.535 6 147878834.51806
                  28140410.524 6 110429044.99206  28140406.390 6 120031549.26306
  28140408.435 6 113309790.15406  28140409.418 7 111869424.14607
  23441339.153 7 123185116.37507  95988450.37805  23441344.768 5  23441338.617 5
  23441345.158 7  23441343.743 7  91988935.44507

  22281139.186 7 117088263.67407  91237680.19305  22281142.945 5  22281138.806 5
  22281143.123 6

  26704688.384 6 140334125.12706
                  26704696.679 6 104795007.17906  26704694.805 6 113907602.17106
  26704694.905 7 107528782.15107  26704695.659 7 106161898.73907
 25  4 11  1  5 45.0000000  0 32G18R20G15E29G05G23R22R21G13G10R08R06
                                E33R23G24G26R07E13E26E15S33S31E07S35
                                G16E21E08G32E31G27G29E23
  20662024.265 8 108579988.36508  84607936.03607  20662026.113 7  20662024.024 7
  20662026.649 8  20662029.140 8  81082664.67508

  23023980.360 5 123119544.74805  95759688.17606
  23023994.406 6

  20913754.631 8 109903022.50608  85638973.17006  20913756.460 6  20913754.327 6
  20913756.848 7

  26635876.441 6 139972856.40706
                  26635886.725 7 104525443.70407  26635885.426 6 113614519.57206
  26635883.894 7 107252160.47507  26635884.913 7 105888697.16307
  25325285.882 5 133085365.79505 103702960.65904  25325293.082 4  25325285.561 4
  25325293.869 5

  20425556.241 7 107337479.61907  83639870.44306  20425558.397 6  20425556.018 6
  20425558.177 8  20425561.131 8  80154896.15908

  20680962.847 8 110396496.86108  85864021.62507
  20680967.764 7

  19700763.162 8 105423034.72108  81995858.23307
  19700769.539 7

  23827564.634 6 125214919.64606  97570190.60303  23827569.428 3  23827564.183 3


  22401798.865 7 117722555.53207  91732058.93106  22401804.163 6  22401798.499 6
  22401803.860 7  22401801.727 8  87909904.97508

  22735511.620 6 121747943.87606  94693012.20906
  22735524.670 6

  19789162.442 6 105598845.00606


  27477478.999 6 144395265.02106
                  27477485.654 6 107827738.14806  27477485.456 6 117204034.20906
  27477483.652 6 110640618.19706  27477484.757 7 109234181.24507
  24384914.382 6 130442873.04106


  24053099.372 6 126400016.01106  98493610.41303  24053110.141 3  24053099.122 3
  24053109.510 6  24053110.369 7  94389729.72207

  24951242.263 5 131119640.09905 102171181.37303  24951254.192 3  24951241.803 3
  24951253.755 6  24951253.832 7  97914042.77307

  19331314.270 8 103482521.68208  80486656.82607
  19331321.258 7

  24342351.312 7 127920000.49007
                  24342357.083 8  95524745.72908  24342354.716 8 103831214.04808
  24342355.167 8  98016680.06608  24342356.094 8  96770712.97208
  24145995.568 7 126888389.97707
                  24145998.597 8  94754525.13208  24145999.673 8 102993978.18408
  24145996.611 8  97226353.09108  24145997.560 8  95990444.68508
  28191606.648 6 148147784.89806
                  28191620.674 6 110629828.84806  28191615.845 6 120249817.64306
  28191618.162 6 113515819.42506  28191619.291 7 112072824.21107
  37105021.138 7 194988189.19107
                  37105019.315 6 145608072.69906

  36827872.762 7 193531791.72407
                  36827882.355 7 144520547.98107

  23873813.812 7 125458219.71107
                  23873819.466 8  93686642.47008  23873817.048 8 101832741.80808
  23873817.561 8  96130602.22108  23873818.425 8  94908623.42008
  36976494.659 7 194312788.41207
                  36976498.122 6 145103721.16906

  24133842.768 6 126824235.52006  98824107.09103  24133847.200 3  24133841.937 3


  27548065.511 6 144766003.87206
                  27548078.534 6 108104507.79806  27548075.605 6 117504899.12406
  27548075.421 6 110924618.44806  27548077.498 7 109514566.18907
  25283835.127 7 132867770.53307
                  25283839.359 7  99219646.59507  25283838.798 7 107847365.99707
  25283837.341 7 101807960.24107  25283838.247 8 100513800.99208
  24567683.860 6 129104335.20906 100600930.71403  24567696.142 3  24567683.691 3
  24567696.568 6  24567696.413 6  96409301.28206

  28139449.808 6 147873837.46806
                  28139459.229 6 110425313.41606  28139455.504 6 120027493.21506
  28139457.268 6 113305961.25206  28139458.501 7 111865643.90907
  23433016.293 7 123141380.00707  95954370.13005  23433022.037 5  23433015.761 5
  23433022.431 7  23433020.876 7  91956275.22307

  22290477.148 7 117137335.42107  91275917.86505  22290481.110 5  22290476.768 5
  22290481.261 6

  26709189.754 6 140357781.21006
                  26709198.475 6 104812672.39606  26709196.651 6 113926803.50506
  26709196.519 7 107546908.20907  26709197.295 7 106179794.37607
 25  4 11  1  6  0.0000000  0 32G18R20G15E29G05G23R22R21G13G10R08R06
                                E33R23G24G26R07E13E26E15S33S31E07S35
                                G16E21E08G32E31G27G29E23
  20661392.204 8 108576666.07108  84605347.24107  20661393.924 7  20661391.963 7
  20661394.154 8  20661396.920 8  81080183.75108

  23032338.134 5 123164247.72205  95794457.09106
  23032354.114 6

  20919097.459 8 109931099.21708  85660851.11906  20919099.302 6  20919097.151 6
  20919099.525 7

  26627246.323 6 139927504.10506
                  26627256.289 7 104491576.88007  26627254.882 6 113577707.75206
  26627253.451 7 107217410.16207  26627254.520 7 105854388.59507
  25333753.366 5 133129863.14105 103737633.89004  25333760.981 4  25333753.022 4
  25333760.968 5

  20425928.211 7 107339433.97407  83641393.32806  20425930.279 6  20425927.992 6
  20425930.533 8  20425933.009 8  80156355.59408

  20673205.206 8 110355085.88508  85831813.11907
  20673210.093 7

  19702455.532 8 105432089.80108  82002901.05207
  19702461.701 7

  23836297.883 6 125260812.47406  97605951.20303  23836302.847 3  23836297.418 3


  22397047.720 7 117697588.33607  91712604.01306  22397052.975 6  22397047.376 6
  22397052.831 7  22397050.538 8  87891260.68108

  22724351.493 7 121688179.96707  94646529.32606
  22724363.796 6

  19795496.540 6 105632645.75006


  27471896.027 6 144365927.21306
                  27471902.948 6 107805830.13706  27471902.274 6 117180221.10606
  27471900.647 6 110618138.65206  27471901.972 7 109211987.46607
  24374742.891 6 130388461.33406


  24046202.317 6 126363770.13406  98465366.97204  24046212.412 4  24046202.085 4
  24046212.695 6  24046213.136 7  94362663.13207

  24956845.767 6 131149082.50006 102194123.43603  24956856.697 3  24956845.311 3
  24956856.580 6  24956856.382 7  97936028.89707

  19327147.569 8 103460216.90808  80469308.69608
  19327154.213 8

  24344295.700 7 127930218.06407
                  24344301.506 8  95532375.73008  24344299.035 7 103839507.52907
  24344299.508 8  98024509.11408  24344300.431 8  96778442.49608
  24142812.684 7 126871664.68607
                  24142815.897 8  94742035.48108  24142816.915 8 102980402.47308
  24142813.843 8  97213537.62208  24142814.838 8  95977792.12408
  28196704.742 5 148174575.27705
                  28196718.601 6 110649834.66106  28196714.080 6 120271563.08406
  28196716.101 6 113536347.12106  28196717.268 7 112093090.96507
  37105025.046 7 194988208.86207
                  37105023.232 6 145608087.12006

  36827872.949 7 193531791.49007
                  36827882.386 7 144520547.77707

  23869845.997 7 125437369.35907
                  23869851.783 8  93671072.44008  23869849.313 8 101815817.85108
  23869849.848 8  96114626.01308  23869850.701 8  94892850.30108
  36976505.060 7 194312840.80307
                  36976508.026 6 145103760.44006

  24137356.026 6 126842697.38406  98838492.94303  24137360.492 3  24137355.172 3


  27555256.080 6 144803793.64506
                  27555270.378 6 108132727.33406  27555267.232 6 117535572.57206
  27555267.342 6 110953574.15106  27555268.538 7 109543153.81907
  25287643.257 7 132887781.98107
                  25287647.386 7  99234590.22107  25287646.773 7 107863609.05807
  25287645.545 7 101823293.69307  25287646.303 8 100528939.53208
  24557385.788 6 129050218.00806 100558761.72303  24557397.534 3  24557385.623 3
  24557398.962 6  24557397.280 6  96368889.40106

  28138516.964 6 147868933.70306
                  28138526.473 6 110421651.54706  28138522.863 6 120023512.91606
  28138524.170 6 113302203.84906  28138525.314 7 111861934.27207
  23424708.785 6 123097722.85506  95920351.61005  23424714.138 5  23424708.253 5
  23424714.264 7  23424712.794 7  91923674.14707

  22299828.831 7 117186478.44407  91314211.07605  22299832.668 5  22299828.442 5
  22299832.996 6

  26713702.925 6 140381498.50006
                  26713711.726 6 104830383.31206  26713710.116 6 113946054.52706
  26713709.749 7 107565081.15707  26713710.580 7 106197736.30807
 25  4 11  1  6 15.0000000  0 32G18R20G15E29G05G23R22R21G13G10R08R06
                                E33R23G24G26R07E13E26E15S33S31E07S35
                                G16E21E08G32E31G27G29E23
  20660772.143 8 108573407.40308  84602808.02607  20660773.809 7  20660771.911 7
  20660774.115 8  20660776.812 8  81077750.33608

  23040713.019 5 123209024.20805  95829283.16706
  23040727.750 6

  20924465.503 8 109959307.44408  85682831.55106  20924467.235 6  20924465.204 6
  20924467.454 7

  26618618.089 6 139882164.77306
                  26618628.452 7 104457719.75007  26618627.301 6 113540906.44906
  26618625.565 7 107182669.77407  26618626.583 7 105820089.83807
  25342216.336 5 133174335.11405 103772287.34104  25342223.786 4  25342215.988 4
  25342223.878 5

  20426312.220 7 107341451.21907  83642965.21306  20426314.119 6  20426312.001 6
  20426314.129 8  20426316.901 8  80157861.98508

  20665455.545 8 110313720.77608  85799640.28407
  20665460.889 7

  19704171.135 8 105441273.61808  82010044.02207
  19704178.033 7

  23845047.009 6 125306788.90606  97641776.95303  23845051.929 3  23845046.549 3


  22392307.380 7 117672676.79207  91693192.46006  22392312.362 6  22392307.054 6
  22392311.907 7  22392309.974 8  87872657.95208

  22713203.566 7 121628481.10207  94600097.09606
  22713215.557 6

  19801855.985 6 105666581.80406


  27466309.598 6 144336570.05506
                  27466316.441 6 107783907.64506  27466315.952 6 117156392.29006
  27466314.232 6 110595644.26306  27466315.457 7 109189779.02707
  24364563.982 6 130334009.29806


  24039312.415 6 126327562.45206  98437153.29704  24039321.794 4  24039312.187 4
  24039321.891 6  24039322.173 7  94335625.05407

  24962453.108 6 131178552.42406 102217086.95103  24962464.398 3  24962452.648 3
  24962465.379 6  24962464.395 7  97958035.55407

  19323012.966 8 103438084.15508  80452094.36608
  19323019.626 8

  24346245.245 7 127940463.30207
                  24346251.094 8  95540026.39408  24346248.680 8 103847823.47008
  24346249.071 8  98032359.35508  24346250.045 8  96786192.94808
  24139631.789 7 126854947.98307
                  24139634.796 8  94729552.23808  24139635.787 8 102966833.72408
  24139632.813 8  97200728.72708  24139633.752 8  95965146.05708
  28201806.976 6 148201384.81306
                  28201820.551 6 110669854.78006  28201815.734 6 120293324.09606
  28201817.756 6 113556889.50506  28201819.094 7 112113372.21907
  37105028.449 7 194988225.54607
                  37105026.380 6 145608099.58906

  36827873.343 7 193531788.34507
                  36827881.765 7 144520545.32407

  23865895.347 7 125416609.78407
                  23865901.309 8  93655570.19108  23865898.914 8 101798967.57008
  23865899.463 8  96098719.35308  23865900.250 8  94877145.84608
  36976512.389 7 194312890.25207
                  36976517.408 6 145103797.34706

  24140887.729 6 126861257.50706  98852955.34903  24140892.841 3  24140886.858 3


  27562444.333 6 144841565.49406
                  27562458.036 6 108160933.47406  27562454.729 6 117566231.45806
  27562455.144 6 110982516.12506  27562456.577 7 109571727.87307
  25291468.273 7 132907883.03707
                  25291472.513 7  99249600.73907  25291472.119 7 107879924.84907
  25291470.613 7 101838695.80007  25291471.400 8 100544145.84508
  24547088.610 6 128996109.93006 100516599.86203  24547101.310 3  24547088.414 3
  24547101.600 6  24547100.957 6  96328484.32206

  28137601.381 6 147864123.04206
                  28137611.060 6 110418059.17306  28137607.129 6 120019608.15306
  28137608.687 6 113298517.77306  28137609.865 7 111858295.04507
  23416415.841 7 123054145.05707  95886394.93005  23416421.402 5  23416415.327 5
  23416421.760 7  23416420.581 7  91891132.33407

  22309193.832 7 117235692.30907  91352559.49205  22309197.748 5  22309193.443 5
  22309198.332 6

  26718227.623 6 140405276.52806
                  26718236.565 6 104848139.59006  26718234.434 6 113965354.84606
  26718234.658 7 107583300.65407  26718235.415 7 106215724.19507
 25  4 11  1  6 30.0000000  0 32G18R20G15E29G05G23R22R21G13G10R08R06
                                E33R23G24G26R07E13E26E15S33S31E07S35
                                G16E21E08G32E31G27G29E23
  20660164.831 8 108570217.68808  84600322.54007  20660166.826 7  20660164.595 7
  20660167.172 8  20660169.853 8  81075368.41008

  23049100.722 5 123253879.48405  95864170.53306
  23049115.963 6

  20929859.120 8 109987652.13108  85704918.31406  20929861.081 6  20929858.816 6
  20929861.208 7

  26609993.450 6 139836843.80606
                  26610003.971 7 104423876.32707  26610002.849 6 113504120.06506
  26610001.203 7 107147943.46007  26610002.164 7 105785804.96907
  25350675.080 5 133218786.71105 103806924.93004  25350682.320 4  25350674.736 4
  25350682.460 5

  20426709.058 7 107343536.39507  83644590.03106  20426710.949 6  20426708.844 6
  20426710.948 8  20426713.652 8  80159419.10408

  20657716.849 8 110272407.19708  85767507.52707
  20657721.924 7

  19705912.997 8 105450591.50408  82017291.24907
  19705919.317 7

  23853812.551 6 125352853.90906  97677671.72203  23853817.486 3  23853812.078 3


  22387578.360 7 117647826.04507  91673828.28506  22387583.322 6  22387578.043 6
  22387583.011 7  22387581.009 8  87854100.62208

  22702067.355 7 121568853.08607  94553719.92706
  22702080.766 6

  19808242.304 6 105700658.06806


  27460720.274 6 144307198.68706
                  27460727.139 6 107761974.57506  27460726.581 6 117132551.95506
  27460724.934 6 110573139.00806  27460726.188 7 109167559.86507
  24354378.300 6 130279521.92306


  24032430.992 6 126291398.57506  98408973.76404  24032439.882 4  24032430.782 4
  24032440.464 6  24032440.562 7  94308619.68507

  24968067.510 6 131208054.66806 102240075.61903  24968078.895 3  24968067.050 3
  24968079.251 6  24968078.615 7  97980066.35407

  19318911.330 8 103416128.86808  80435018.05807
  19318918.657 7

  24348201.019 7 127950741.45807
                  24348206.955 8  95547701.62708  24348204.417 8 103856166.12008
  24348205.010 8  98040234.82008  24348205.929 8  96793968.29708
  24136453.155 7 126838245.13907
                  24136456.353 8  94717079.35508  24136457.365 8 102953276.23408
  24136454.351 8  97187930.45908  24136455.287 8  95952510.48108
  28206912.896 5 148228218.79405
                  28206926.633 6 110689893.13306  28206921.795 6 120315104.90806
  28206923.995 6 113577450.60206  28206925.378 7 112133671.94107
  37105030.644 7 194988245.71507
                  37105030.034 6 145608115.08106

  36827871.545 7 193531788.11607
                  36827881.626 7 144520545.39407

  23861963.374 7 125395946.30707
                  23861969.157 8  93640139.69708  23861966.771 8 101782195.28108
  23861967.282 8  96082886.32508  23861968.089 8  94861514.08508
  36976522.709 7 194312942.13207
                  36976527.303 6 145103836.13306

  24144439.173 6 126879920.80606  98867498.15603  24144444.544 3  24144438.302 3


  27569629.633 6 144879324.34306
                  27569643.368 6 108189129.91206  27569640.299 6 117596879.81406
  27569640.307 6 111011448.14706  27569641.848 7 109600292.10407
  25295311.279 7 132928078.75107
                  25295315.686 7  99264681.95107  25295315.207 7 107896317.46407
  25295313.664 7 101854170.42707  25295314.523 8 100559423.76408
  24536795.528 6 128942016.45706 100474449.37203  24536807.631 3  24536795.332 3
  24536808.497 6  24536806.889 6  96288090.16006

  28136704.652 6 147859410.64906
                  28136714.097 6 110414540.19206  28136709.954 6 120015783.16606
  28136711.858 6 113294906.98506  28136713.081 7 111854730.16207
  23408139.204 7 123010652.07707  95852504.34005  23408144.880 5  23408138.690 5
  23408145.311 6  23408144.036 7  91858653.86507

  22318573.572 7 117284981.88407  91390966.89905  22318577.339 5  22318573.201 5
  22318577.884 6

  26722765.637 6 140429120.24406
                  26722773.975 6 104865944.92706  26722771.762 6 113984708.48806
  26722771.825 7 107601570.47907  26722772.761 7 106233761.77507
 25  4 11  1  6 45.0000000  0 32G18R20G15E29G05G23R22R21G13G10R08R06
                                E33R23G24G26R07E13E26E15S33S31E07S35
                                G16E21E08G32E31G27G29E23
  20659570.964 8 108567096.67408  84597890.58407  20659572.927 7  20659570.728 7
  20659573.170 8  20659575.901 8  81073037.78608

  23057504.305 5 123298813.10405  95899118.82407
  23057519.359 7

  20935278.654 8 110016132.60208  85727110.88406  20935280.683 6  20935278.350 6
  20935281.094 7

  26601372.927 6 139791541.00706
                  26601382.962 7 104390046.49407  26601381.930 7 113467348.43107
  26601380.167 7 107113231.08807  26601381.207 7 105751533.86607
  25359129.951 5 133263217.61205 103841546.38704  25359137.161 4  25359129.616 4
  25359137.483 5

  20427118.650 7 107345688.93907  83646267.34206  20427120.536 6  20427118.436 6
  20427120.839 8  20427123.269 8  80161026.53308

  20649986.968 8 110231145.10308  85735414.81707
  20649991.578 7

  19707679.207 8 105460043.36808  82024642.70307
  19707685.935 7

  23862595.714 6 125399006.69506  97713634.89803  23862600.338 3  23862595.232 3


  22382860.691 7 117623035.63807  91654511.13106  22382865.769 6  22382860.374 6
  22382865.852 7  22382863.496 8  87835588.36208

  22690945.543 7 121509295.77307  94507397.79407
  22690958.161 7

  19814653.559 6 105734873.62806


  27455128.394 6 144277812.73306
                  27455135.085 6 107740030.58306  27455134.300 6 117108699.76306
  27455133.000 6 110550622.55306  27455134.125 7 109145329.64207
  24344185.522 6 130224999.28306


  24025557.042 6 126255278.44306  98380828.30404  24025566.649 4  24025556.823 4
  24025566.351 6  24025567.285 7  94281646.97707

  24973686.700 5 131237588.46105 102263088.88703  24973699.269 3  24973686.249 3
  24973699.132 6  24973698.770 7  98002120.72007

  19314843.375 8 103394350.92708  80418079.68208
  19314850.012 8

  24350163.261 7 127961052.21807
                  24350169.057 8  95555401.21308  24350166.509 8 103864535.23408
  24350167.045 8  98048135.26108  24350168.009 8  96801768.31108
  24133277.331 7 126821555.81507
                  24133280.439 8  94704616.56408  24133281.532 8 102939729.71408
  24133278.438 8  97175142.54508  24133279.393 8  95939885.12808
  28212024.190 5 148255076.76705
                  28212037.829 6 110709949.43006  28212032.452 6 120336905.22406
  28212034.872 6 113598030.10306  28212036.331 7 112153989.84507
  37105032.692 7 194988266.64807
                  37105034.031 6 145608130.38406

  36827872.203 7 193531789.25407
                  36827881.877 7 144520546.18407

  23858049.530 7 125375378.62007
                  23858055.202 8  93624780.73908  23858052.822 8 101765500.75308
  23858053.286 8  96067126.69208  23858054.149 8  94845954.79108
  36976531.742 7 194312996.02707
                  36976537.512 6 145103876.45506

  24148010.741 6 126898686.48006  98882120.72903  24148015.340 3  24148009.865 3


  27576812.269 6 144917069.53806
                  27576826.196 6 108217316.12606  27576822.566 6 117627517.05306
  27576823.346 6 111040369.66506  27576824.678 7 109628845.97107
  25299172.599 7 132948368.55907
                  25299176.715 7  99279833.42607  25299176.261 7 107912786.46407
  25299174.699 7 101869717.16207  25299175.546 8 100574772.86908
  24526504.350 6 128887937.44406 100432310.13803  24526516.536 3  24526504.145 3
  24526516.930 6  24526515.590 6  96247706.80006

  28135826.311 6 147854796.07206
                  28135835.808 6 110411094.26706  28135832.219 6 120012037.58406
  28135833.853 6 113291371.14306  28135834.967 7 111851239.28007
  23399878.769 7 122967243.86107  95818679.79405  23399884.640 5  23399878.255 5
  23399885.378 7  23399883.658 7  91826238.67607

  22327967.585 7 117334346.37707  91429432.68305  22327971.225 5  22327967.241 5
  22327971.256 6

  26727315.324 6 140453029.00506
                  26727323.526 6 104883798.84506  26727321.563 6 114004114.92906
  26727321.750 7 107619890.14807  26727322.490 7 106251848.56807
 25  4 11  1  7  0.0000000  0 32G18R20G15E29G05G23R22R21G13G10R08R06
                                E33R23G24G26R07E13E26E15S33S31E07S35
                                G16E21E08G32E31G27G29E23
  20658989.964 8 108564042.95308  84595511.06707  20658991.836 7  20658989.732 7
  20658992.116 8  20658994.881 8  81070757.41508

  23065922.054 5 123343822.94905  95934126.41806
  23065936.445 6

  20940724.045 8 110044746.98608  85749407.79906  20940725.822 6  20940723.750 6
  20940726.190 7

  26592754.836 6 139746255.01406
                  26592765.258 7 104356229.17907  26592763.942 6 113430590.43506
  26592762.569 7 107078531.56807  26592763.447 7 105717275.44707
  25367580.569 5 133307625.82905 103876150.18404  25367587.307 4  25367580.248 4
  25367588.161 5

  20427540.774 7 107347907.13607  83647995.81406  20427542.662 6  20427540.564 6
  20427542.888 8  20427545.402 8  80162682.98308

  20642266.341 8 110189933.24308  85703361.16207
  20642271.437 7

  19709470.015 8 105469627.75308  82032097.21507
  19709476.757 7

  23871394.356 6 125445245.39806  97749665.02403  23871399.320 3  23871393.887 3


  22378154.222 7 117598303.94207  91635239.72006  22378159.283 6  22378153.892 6
  22378159.391 7  22378157.207 8  87817119.93608

  22679836.237 7 121449807.86107  94461129.61506
  22679848.845 6

  19821091.250 6 105769226.42806


  27449532.976 6 144248410.59306
                  27449540.044 6 107718074.50806  27449539.428 6 117084834.44506
  27449538.027 6 110528093.70506  27449538.998 7 109123087.18107
  24333985.379 6 130170439.95506


  24018691.598 6 126219200.92006  98352716.04804  24018701.099 4  24018691.353 4
  24018701.171 6  24018701.594 7  94254706.08707

  24979312.952 6 131267151.91806 102286125.26903  24979324.870 3  24979312.550 3
  24979325.704 6  24979323.954 6  98024197.24106

  19310807.390 8 103372748.48908  80401277.81108
  19310814.340 8

  24352131.127 7 127971394.07707
                  24352137.033 8  95563124.03608  24352134.554 7 103872929.60707
  24352135.046 8  98056059.55108  24352136.002 8  96809591.86708
  24130103.853 7 126804878.52407
                  24130106.860 8  94692162.74908  24130107.941 8 102926192.96208
  24130104.827 8  97162363.85008  24130105.807 8  95927268.87408
  28217139.284 6 148281957.24706
                  28217152.892 6 110730022.52006  28217147.784 6 120358723.80906
  28217150.413 6 113618626.82906  28217151.434 7 112174324.75007
  37105038.018 7 194988288.61607
                  37105038.239 6 145608146.87306

  36827872.024 7 193531790.95607
                  36827882.270 7 144520547.40707

  23854153.513 7 125354905.27007
                  23854159.216 8  93609492.23608  23854156.984 8 101748882.79908
  23854157.363 8  96051439.35308  23854158.167 8  94830466.86908
  36976541.660 7 194313050.23407
                  36976547.770 6 145103916.94006

  24151600.170 6 126917552.74206  98896821.69703  24151605.083 3  24151599.299 3


  27583991.911 6 144954799.25306
                  27584005.756 6 108245490.81506  27584002.546 6 117658141.75206
  27584002.713 6 111069279.36306  27584004.503 7 109657388.16307
  25303051.059 7 132968750.69807
                  25303055.375 7  99295053.86007  25303054.790 7 107929330.40707
  25303053.205 7 101885334.64507  25303054.155 8 100590191.82708
  24516215.047 6 128833871.64006 100390181.20903  24516227.524 3  24516214.833 3
  24516227.589 6  24516227.222 6  96207333.29106

  28134966.339 6 147850277.78106
                  28134976.132 6 110407720.20806  28134972.108 6 120008370.13306
  28134973.992 6 113287909.07306  28134975.226 7 111847821.21207
  23391634.678 7 122923919.13607  95784920.30405  23391640.139 5  23391634.133 5
  23391640.887 7  23391638.943 7  91793885.84307

  22337374.733 7 117383783.82707  91467955.31605  22337378.938 5  22337374.394 5
  22337379.155 6

  26731877.068 6 140477001.01206
                  26731885.379 6 104901699.98206  26731883.111 6 114023572.70506
  26731883.657 7 107638258.27907  26731884.251 7 106269983.20307
 25  4 11  1  7 15.0000000  0 32G18R20G15E29G05G23R22R21G13G10R08R06
                                E33R23G24G26R07E13E26E15S33S31E07S35
                                G16E21E08G32E31G27G29E23
  20658420.853 8 108561053.91708  84593181.95407  20658423.001 7  20658420.612 7
  20658423.441 8  20658426.008 8  81068525.35008

  23074353.318 5 123388906.91205  95969191.62806
  23074367.037 6

  20946194.058 8 110073492.29008  85771806.73206  20946195.828 6  20946193.763 6
  20946196.345 7

  26584140.126 6 139700983.34506
                  26584150.058 7 104322422.54207  26584149.257 7 113393844.03807
  26584147.410 7 107043843.01907  26584148.374 7 105683027.85407
  25376026.925 5 133352008.94305 103910734.42204  25376033.496 4  25376026.612 4
  25376033.677 5

  20427974.732 7 107350188.10207  83649773.19506  20427976.722 6  20427974.522 6
  20427976.968 8  20427979.404 8  80164386.30508

  20634554.666 8 110148769.21208  85671344.73107
  20634560.077 7

  19711285.485 8 105479342.04008  82039652.75707
  19711292.253 7

  23880209.499 6 125491566.87506  97785759.63503  23880214.230 3  23880209.008 3


  22373458.740 7 117573628.15807  91616011.88406  22373463.489 6  22373458.414 6
  22373463.610 7  22373461.515 8  87798693.27108

  22668740.439 7 121390387.17707  94414913.73006
  22668751.806 6

  19827554.717 6 105803713.22806


  27443934.238 6 144218989.56706
                  27443941.415 6 107696104.32606  27443940.620 6 117060953.78706
  27443939.236 6 110505550.37906  27443940.290 7 109100830.42607
  24323778.278 6 130115841.18906


  24011834.214 6 126183163.66306  98324635.16904  24011843.195 4  24011833.973 4
  24011843.354 6  24011843.888 7  94227795.26407

  24984943.208 6 131296741.94806 102309182.34603  24984955.327 3  24984942.779 3
  24984956.592 6  24984955.456 6  98046293.57906

  19306804.261 8 103351318.89408  80384610.37808
  19306811.190 8

  24354104.637 7 127981764.43307
                  24354110.502 8  95570868.13008  24354107.949 8 103881347.10208
  24354108.500 8  98064005.66208  24354109.436 8  96817436.97008
  24126931.966 7 126788210.60607
                  24126935.011 8  94679715.94208  24126936.143 8 102912663.81508
  24126932.945 8  97149592.34708  24126933.991 8  95914659.71808
  28222257.574 5 148308857.53905
                  28222271.846 6 110750110.39306  28222266.578 6 120380558.42706
  28222269.171 6 113639238.73106  28222270.373 7 112194674.63707
  37105043.093 7 194988307.92207
                  37105041.919 6 145608161.39606

  36827873.271 7 193531790.16107
                  36827882.011 7 144520547.08207

  23850275.093 7 125334523.64707
                  23850280.676 8  93594272.21908  23850278.445 8 101732339.29208
  23850278.817 8  96035822.29108  23850279.630 8  94815048.32908
  36976554.435 7 194313101.93307
                  36976557.621 6 145103955.39406

  24155209.129 6 126936516.53406  98911598.65203  24155213.432 3  24155208.280 3


  27591167.781 6 144992510.53306
                  27591182.203 6 108273651.73106  27591178.609 6 117688751.45806
  27591179.550 6 111098174.91006  27591180.773 7 109685916.39707
  25306946.679 7 132989222.30507
                  25306950.946 7  99310341.09107  25306950.306 7 107945946.97207
  25306948.936 7 101901020.68107  25306949.770 8 100605678.46008
  24505929.003 6 128779816.57806 100348060.65403  24505941.254 3  24505928.775 3
  24505941.238 6  24505940.780 6  96166967.80906

  28134124.191 6 147845852.94006
                  28134134.187 6 110404415.98406  28134130.244 6 120004778.56506
  28134132.027 6 113284518.63906  28134133.210 7 111844473.88407
  23383405.564 7 122880675.51607  95751224.02105  23383411.307 5  23383405.019 5
  23383411.519 7  23383409.976 7  91761593.57407

  22346795.756 7 117433291.15907  91506532.40905  22346800.043 5  22346795.417 5
  22346799.949 6

  26736450.110 6 140501033.32406
                  26736458.398 6 104919646.14706  26736456.380 6 114043079.42406
  26736456.841 7 107656672.60707  26736457.465 7 106288163.45207
 25  4 11  1  7 30.0000000  0 32G18R20G15E29G05G23R22R21G13G10R08R06
                                E33R23G24G26R07E13E26E15S33S31E07S35
                                G16E21E08G32E31G27G29E23
  20657864.917 8 108558132.18208  84590905.28507  20657867.026 7  20657864.676 7
  20657867.269 8  20657870.030 8  81066343.54208

  23082799.139 5 123434066.67605  96004315.83606
  23082812.835 6

  20951689.366 8 110102370.63908  85794309.33506  20951691.265 6  20951689.067 6
  20951691.701 7

  26575528.106 6 139655728.56506
                  26575538.302 7 104288628.57007  26575536.898 7 113357111.39307
  26575535.559 7 107009167.43107  26575536.543 7 105648793.07307
  25384467.892 5 133396369.43705 103945301.00204  25384475.204 4  25384467.566 4
  25384475.355 5

  20428420.902 7 107352534.13807  83651601.28107  20428423.146 7  20428420.688 7
  20428423.194 8  20428425.862 8  80166138.22908

  20626852.921 8 110107655.87508  85639367.71407
  20626857.776 7

  19713125.472 8 105489188.81308  82047311.35607
  19713132.141 7

  23889040.236 6 125537973.17006  97821920.33503  23889044.660 3  23889039.745 3


  22368774.043 7 117549010.67107  91596829.46506  22368778.888 6  22368773.699 6
  22368779.292 7  22368776.945 8  87780310.12308

  22657656.128 7 121331036.31007  94368752.12706
  22657668.261 6

  19834043.201 6 105838336.07306


  27438332.670 6 144189552.05606
                  27438339.464 6 107674121.83706  27438338.848 6 117037059.75706
  27438337.299 7 110482994.43107  27438338.478 7 109078561.20807
  24313565.858 6 130061205.88806


  24004984.288 6 126147169.52506  98296587.89304  24004993.192 4  24004984.052 4
  24004994.150 6  24004994.450 7  94200916.64307

  24990580.118 6 131326360.63006 102332261.75603  24990592.017 3  24990579.685 3
  24990592.666 6  24990591.326 6  98068411.34506

  19302834.244 8 103330064.88708  80368079.50608
  19302840.592 8

  24356084.053 7 127992165.79707
                  24356089.816 8  95578635.37308  24356087.396 8 103889789.76208
  24356087.733 8  98071975.53608  24356088.751 8  96825305.52708
  24123762.452 7 126771554.61407
                  24123765.470 8  94667278.04408  24123766.646 8 102899144.35208
  24123763.436 8  97136829.97608  24123764.447 8  95902059.58408
  28227380.808 5 148335780.08105
                  28227395.132 6 110770214.89306  28227390.252 6 120402411.14506
  28227392.342 6 113659867.70406  28227393.430 7 112215041.37307
  37105046.666 7 194988326.85907
                  37105045.599 6 145608175.35306

  36827872.480 7 193531789.89007
                  36827881.993 7 144520546.78407

  23846414.412 7 125314236.31107
                  23846420.110 8  93579122.62408  23846417.860 8 101715872.32808
  23846418.201 8  96020277.48408  23846419.050 8  94799701.12808
  36976562.297 7 194313154.01807
                  36976567.526 6 145103994.40506

  24158836.868 6 126955579.98906  98926453.27103  24158841.594 3  24158835.997 3


  27598341.591 6 145030205.55906
                  27598355.723 6 108301800.48906  27598351.862 6 117719348.00106
  27598352.372 6 111127058.01006  27598354.061 7 109714432.32207
  25310859.706 7 133009785.68807
                  25310864.000 7  99325696.85907  25310863.283 7 107962638.02207
  25310861.884 7 101916777.03007  25310862.865 8 100621234.51808
  24495644.120 6 128725775.04006 100305950.61903  24495657.251 3  24495643.915 3
  24495657.603 6  24495656.416 6  96126612.43606

  28133300.864 6 147841524.04106
                  28133310.616 6 110401183.36206  28133306.652 6 120001264.86706
  28133308.405 6 113281201.70806  28133309.426 7 111841199.10807
  23375192.429 7 122837515.77207  95717593.09505  23375198.193 5  23375191.884 5
  23375198.818 6  23375197.218 7  91729363.94807

  22356230.579 7 117482870.69907  91545165.76305  22356234.751 5  22356230.235 5
  22356235.232 6

  26741034.879 6 140525128.11406
                  26741043.634 6 104937638.97706  26741041.811 6 114062636.86706
  26741041.726 7 107675134.81107  26741042.568 7 106306390.96807
 25  4 11  1  7 45.0000000  0 32G18R20G15E29G05G23R22R21G13G10R08R06
                                E33R23G24G26R07E13E26E15S33S31E07S35
                                G16E21E08G32E31G27G29E23
  20657322.644 8 108555281.26008  84588683.79207  20657324.524 7  20657322.399 7
  20657324.914 8  20657327.486 8  81064214.61508

  23091258.205 5 123479305.60905  96039501.60406
  23091271.970 6

  20957210.672 8 110131385.05008  85816917.95706  20957212.569 6  20957210.373 6
  20957213.060 7

  26566920.487 6 139610494.36606
                  26566930.255 7 104254849.92407  26566929.385 7 113320395.42607
  26566927.710 7 106974507.58707  26566928.652 7 105614573.82807
  25392906.015 6 133440710.30506 103979852.31404  25392913.312 4  25392905.689 4
  25392913.490 5

  20428880.565 7 107354948.46307  83653482.58007  20428882.548 7  20428880.355 7
  20428882.580 8  20428885.258 8  80167941.13908

  20619161.474 8 110066597.03608  85607433.06807
  20619166.209 7

  19714991.043 8 105499171.64308  82055075.76807
  19714997.731 7

  23897887.527 6 125584467.25706  97858149.45603  23897892.078 3  23897887.004 3


  22364100.856 7 117524454.81807  91577695.07406  22364106.176 6  22364100.503 6
  22364106.319 7  22364104.084 8  87761973.00408

  22646587.468 7 121271759.19607  94322647.87606
  22646599.332 6

  19840556.991 6 105873097.83906


  27432728.246 6 144160101.51106
                  27432735.286 6 107652129.59806  27432734.510 6 117013155.12706
  27432732.983 7 110460428.47407  27432734.198 7 109056282.11107
  24303345.639 6 130006537.44406


  23998143.750 6 126111222.28706  98268577.13704  23998152.509 4  23998143.527 4
  23998153.519 6  23998153.728 7  94174073.03407

  24996222.722 6 131356011.00006 102355365.86603  24996234.458 3  24996222.325 3
  24996234.757 6  24996233.738 6  98090552.75206

  19298896.747 8 103308989.86508  80351687.84208
  19298903.736 8

  24358069.791 7 128002601.63107
                  24358075.694 8  95586428.36208  24358073.233 8 103898260.39708
  24358073.606 8  98079971.81508  24358074.634 8  96833200.16208
  24120595.730 7 126754913.96407
                  24120598.937 8  94654851.60608  24120599.982 8 102885637.35108
  24120596.817 8  97124079.36708  24120597.814 8  95889471.06108
  28232509.462 5 148362728.34605
                  28232523.238 6 110790338.57706  28232518.209 6 120424284.72206
  28232520.710 6 113680516.35806  28232521.585 7 112235427.54607
  37105051.352 7 194988350.13107
                  37105049.923 6 145608192.75806

  36827873.061 7 193531792.49207
                  36827882.494 7 144520548.59307

  23842572.365 7 125294046.77107
                  23842578.161 8  93564046.04408  23842575.887 8 101699484.73308
  23842576.212 8  96004807.59808  23842577.076 8  94784427.89408
  36976574.576 7 194313209.52007
                  36976578.083 6 145104035.85306

  24162484.579 6 126974746.33306  98941388.05903  24162489.061 3  24162483.721 3


  27605511.820 6 145067887.48806
                  27605525.927 6 108329939.47106  27605522.220 6 117749933.89206
  27605523.296 6 111155931.06806  27605524.849 7 109742938.34207
  25314790.819 7 133030444.02807
                  25314795.141 7  99341123.54907  25314794.574 7 107979406.15607
  25314793.098 7 101932606.15707  25314794.029 8 100636862.42708
  24485364.398 6 128671750.63206 100263853.95103  24485376.857 3  24485364.211 3
  24485377.325 6  24485376.057 6  96086269.83706

  28132496.115 6 147837294.47606
                  28132505.444 6 110398024.92406  28132501.595 6 119997831.77006
  28132503.332 6 113277960.86906  28132504.520 7 111837999.46907
  23366995.931 7 122794443.57507  95684030.38205  23367001.758 5  23366995.386 5
  23367002.739 7  23367000.598 7  91697199.68607

  22365679.723 7 117532525.40607  91583857.69005  22365683.879 5  22365679.375 5
  22365684.109 6

  26745632.768 6 140549288.56806
                  26745641.275 6 104955680.83606  26745639.308 6 114082247.59206
  26745639.476 7 107693647.33907  26745640.210 7 106324668.16007
 25  4 11  1  8  0.0000000  0 32G18R20G15E29G05G23R22R21G13G10R08R06
                                E33R23G24G26R07E13E26E15S33S31E07S35
                                G16E21E08G32E31G27G29E23
  20656792.037 7 108552493.28307  84586511.34307  20656794.002 7  20656791.792 7
  20656794.392 8  20656796.961 8  81062132.68408

  23099732.814 5 123524615.50805  96074742.57007
  23099745.593 7

  20962756.227 8 110160527.22008  85839626.13506  20962758.142 6  20962755.928 6
  20962758.451 7

  26558314.518 6 139565272.84806
                  26558324.859 7 104221080.76407  26558323.986 7 113283689.74907
  26558322.092 7 106939857.48107  26558323.188 7 105580364.19707
  25401338.817 5 133485023.34805 104014381.94704  25401345.755 4  25401338.487 4
  25401346.024 5

  20429351.522 8 107357422.88308  83655410.70407  20429353.409 7  20429351.312 7
  20429353.714 8  20429356.110 8  80169788.93008

  20611478.445 8 110025584.89108  85575534.76107
  20611483.295 7

  19716880.748 8 105509282.48408  82062939.74807
  19716887.396 7

  23906749.809 6 125631040.63906  97894440.37503  23906754.562 3  23906749.264 3


  22359438.646 7 117499952.48807  91558602.39506  22359443.553 6  22359438.293 6
  22359443.594 7  22359441.380 8  87743675.86408

  22635530.440 7 121212547.91507  94276594.87806
  22635541.190 6

  19847096.254 6 105907990.04106


  27427119.839 6 144130629.77506
                  27427127.037 6 107630121.56406  27427126.080 6 116989233.32706
  27427124.604 7 110437846.32107  27427125.875 7 109033987.01707
  24293117.199 6 129951828.06306


  23991310.275 6 126075314.29806  98240596.99204  23991319.753 4  23991310.043 4
  23991320.243 6  23991320.788 7  94147258.75407

  25001869.192 6 131385684.64106 102378488.09003  25001881.889 3  25001868.808 3
  25001881.997 6  25001880.912 6  98112711.54106

  19294991.162 8 103288085.61008  80335429.00608
  19294998.530 8

  24360060.616 7 128013063.96507
                  24360066.621 8  95594241.14108  24360064.202 8 103906752.55908
  24360064.499 8  98087988.41208  24360065.561 8  96841114.85108
  24117430.799 7 126738280.72207
                  24117433.712 8  94642430.69208  24117434.822 8 102872136.34308
  24117431.606 8  97111334.43008  24117432.593 8  95876888.13508
  28237640.495 5 148389694.25305
                  28237654.236 6 110810475.47706  28237650.152 6 120446172.66106
  28237651.454 6 113701178.54406  28237652.991 7 112255827.08407
  37105054.796 7 194988368.06907
                  37105053.389 6 145608206.14806

  36827871.939 7 193531790.89907
                  36827882.185 7 144520547.59807

  23838747.438 7 125273947.07907
                  23838753.281 8  93549036.56608  23838751.004 8 101683170.06908
  23838751.287 8  95989406.55808  23838752.203 8  94769222.63608
  36976583.841 7 194313260.29107
                  36976587.845 6 145104073.70606

  24166149.676 6 126994006.94106  98956396.30603  24166154.151 3  24166148.805 3


  27612678.641 6 145105548.00406
                  27612692.859 6 108358062.49206  27612689.972 6 117780502.42906
  27612690.178 6 111184787.72806  27612691.393 7 109771428.18207
  25318738.593 7 133051189.16007
                  25318742.858 7  99356615.04007  25318742.460 7 107996244.74007
  25318740.930 7 101948501.77607  25318741.707 8 100652555.98308
  24475085.342 6 128617735.65506 100221764.62404  24475097.563 4  24475085.155 4
  24475098.092 6  24475096.964 6  96045934.27306

  28131707.675 6 147833156.09606
                  28131718.030 6 110394934.58606  28131713.998 6 119994472.69606
  28131715.921 6 113274789.91606  28131717.009 7 111834868.82507
  23358814.738 7 122751451.21607  95650529.88605  23358820.594 5  23358814.184 5
  23358820.844 7  23358819.298 7  91665095.05207

  22375141.483 7 117582246.83807  91622601.61005  22375145.466 5  22375141.139 5
  22375146.019 6

  26750241.332 6 140573506.38306
                  26750249.775 6 104973765.51306  26750247.873 6 114101904.86106
  26750247.966 7 107712203.80207  26750248.727 7 106342988.73007
 25  4 11  1  8 15.0000000  0 32G18R20G15E29G05G23R22R21G13G10R08R06
                                E33R23G24G26R07E13E26E15S33S31E07S35
                                G16E21E08G32E31G27G29E23
  20656274.767 8 108549774.00408  84584392.43207  20656276.532 7  20656274.535 7
  20656276.708 8  20656279.459 8  81060102.05808

  23108218.149 5 123570001.69205  96110042.85107
  23108232.776 7

  20968327.031 8 110189802.56008  85862438.08506  20968329.081 6  20968326.736 6
  20968329.558 7

  26549713.215 6 139520069.84706
                  26549722.729 7 104187325.43507  26549721.670 6 113246999.11006
  26549720.151 7 106905221.55407  26549721.186 7 105546168.57107
  25409766.992 5 133529314.40705 104048894.42804  25409773.721 4  25409766.662 4
  25409774.547 5

  20429834.706 8 107359962.87808  83657389.92807  20429836.783 7  20429834.492 7
  20429836.585 8  20429839.444 8  80171685.68708

  20603804.604 8 109984625.49608  85543677.48907
  20603809.888 7

  19718795.098 8 105519527.27208  82070907.91207
  19718801.526 7

  23915629.339 6 125677698.84406  97930797.38303  23915633.460 3  23915628.794 3


  22354787.290 7 117475509.23107  91539555.74406  22354792.122 6  22354786.942 6
  22354791.981 7  22354789.960 8  87725422.82508

  22624486.098 7 121153408.69707  94230597.89007
  22624497.983 7

  19853660.212 6 105943017.80406


  27421508.749 6 144101142.57006
                  27421515.461 6 107608101.96006  27421514.926 6 116965298.95306
  27421513.297 7 110415252.28007  27421514.548 7 109011680.19507
  24282883.995 6 129897083.43006


  23984486.655 6 126039451.60106  98212652.12304  23984495.145 4  23984486.436 4
  23984495.812 6  23984496.285 7  94120478.27507

  25007520.894 5 131415386.84505 102401632.59003  25007533.779 3  25007520.497 3
  25007533.809 6  25007533.312 6  98134891.64206

  19291119.429 8 103267358.00908  80319307.57008
  19291126.460 8

  24362057.699 7 128023558.50607
                  24362063.711 8  95602077.97308  24362061.254 7 103915270.85307
  24362061.569 8  98096029.68108  24362062.606 8  96849053.90108
  24114267.824 7 126721660.55307
                  24114271.020 8  94630019.55308  24114272.139 8 102858645.96808
  24114268.874 8  97098599.51108  24114269.873 8  95864315.10608
  28242776.391 5 148416683.49505
                  28242790.312 6 110830629.77106  28242785.829 6 120468079.50806
  28242787.753 6 113721858.63506  28242788.976 7 112276244.27607
  37105056.629 7 194988387.63807
                  37105056.948 6 145608220.84006

  36827871.791 7 193531790.15407
                  36827882.047 7 144520547.02107

  23834940.843 7 125253942.97207
                  23834946.618 8  93534098.46408  23834944.381 8 101666932.99408
  23834944.623 8  95974078.76808  23834945.510 8  94754089.69108
  36976593.607 7 194313312.78507
                  36976597.638 6 145104113.16606

  24169833.210 6 127013367.17806  98971482.17903  24169838.003 3  24169832.330 3


  27619842.363 6 145143192.52506
                  27619856.397 6 108386173.54406  27619853.132 6 117811057.95806
  27619853.512 6 111213632.13006  27619855.071 7 109799905.91107
  25322703.689 7 133072026.51607
                  25322708.001 7  99372175.40007  25322707.441 7 108013158.17407
  25322706.011 7 101964468.05607  25322706.927 8 100668319.30208
  24464809.271 6 128563736.00206 100179687.22304  24464821.354 4  24464809.088 4
  24464821.745 6  24464820.656 6  96005610.16906

  28130939.546 6 147829114.57106
                  28130948.846 6 110391916.56206  28130945.012 6 119991192.23706
  28130946.957 6 113271693.16406  28130947.922 7 111831811.44007
  23350649.993 7 122708544.62507  95617096.21805  23350655.666 5  23350649.443 5
  23350655.893 7  23350654.403 7  91633054.45807

  22384616.726 7 117632040.38407  91661401.73105  22384620.892 5  22384616.364 5
  22384621.186 6

  26754861.518 6 140597786.88606
                  26754870.369 6 104991897.03806  26754868.095 6 114121613.06406
  26754868.424 7 107730808.33507  26754869.174 7 106361356.75907
 25  4 11  1  8 30.0000000  0 32G18R20G15E29G05G23R22R21G13G10R08R06
                                E33R23G24G26R07E13E26E15S33S31E07S35
                                G16E21E08G32E31G27G29E23
  20655769.681 8 108547121.07808  84582325.22407  20655771.682 7  20655769.449 7
  20655771.894 8  20655774.642 8  81058120.98608

  23116719.449 5 123615461.26505  96145400.20007
  23116734.169 7

  20973922.717 8 110219208.28108  85885351.62506  20973924.870 6  20973922.413 6
  20973925.291 7

  26541113.715 6 139474883.12506
                  26541124.082 7 104153582.23807  26541122.905 7 113210321.67607
  26541121.354 7 106870598.08507  26541122.323 7 105511985.23607
  25418190.199 6 133573580.94306 104083387.80804  25418197.373 4  25418189.895 4
  25418197.714 5

  20430330.260 8 107362565.80308  83659418.19007  20430332.100 7  20430330.046 7
  20430331.985 8  20430334.772 8  80173629.43808

  20596141.693 8 109943716.75008  85511859.61107
  20596146.238 7

  19720734.042 8 105529903.60508  82078978.38507
  19720741.060 7

  23924523.574 6 125724438.98506  97967218.22803  23924528.519 3  23924523.042 3


  22350146.295 7 117451122.53107  91520553.15906  22350151.503 6  22350145.960 6
  22350150.894 7  22350149.347 8  87707212.02408

  22613454.332 7 121094339.18607  94184655.12306
  22613466.434 6

  19860249.114 6 105978178.10606


  27415894.384 6 144071637.36006
                  27415900.797 6 107586068.91306  27415900.018 6 116941349.96606
  27415898.713 6 110392644.45106  27415899.804 7 108989359.75607
  24272643.118 6 129842301.29006


  23977670.453 6 126003632.09906  98184740.92404  23977678.774 4  23977670.225 4
  23977679.509 6  23977679.636 7  94093730.05407

  25013178.068 6 131445114.77906 102424797.12003  25013190.802 3  25013177.693 3
  25013191.650 6  25013189.624 6  98157090.98006

  19287280.039 8 103246804.70708  80303321.69208
  19287286.991 8

  24364060.498 7 128034082.88507
                  24364066.414 8  95609937.08208  24364064.036 8 103923813.36908
  24364064.336 8  98104093.81708  24364065.338 8  96857015.52408
  24111107.105 7 126705051.09707
                  24111110.336 8  94617616.40408  24111111.461 8 102845164.28308
  24111108.168 8  97085872.80708  24111109.178 8  95851750.17908
  28247916.484 5 148443693.63105
                  28247930.703 6 110850799.67506  28247925.795 6 120490003.31106
  28247927.691 6 113742554.70006  28247928.717 7 112296677.26007
  37105062.482 7 194988405.33807
                  37105060.450 6 145608234.00206

  36827873.008 7 193531788.09207
                  36827881.738 7 144520545.44907

  23831151.908 7 125234032.08607
                  23831157.723 8  93519229.97808  23831155.368 8 101650771.58508
  23831155.715 8  95958822.40408  23831156.562 8  94739027.26508
  36976602.979 7 194313363.01707
                  36976607.345 6 145104150.42906

  24173535.935 6 127032824.28606  98986643.53603  24173540.596 3  24173535.068 3


  27627002.098 6 145180818.29206
                  27627016.181 6 108414270.58306  27627013.483 6 117841598.27406
  27627013.684 6 111242462.14406  27627015.046 7 109828369.43507
  25326686.157 7 133092953.49907
                  25326690.394 7  99387802.68207  25326689.666 7 108030144.34907
  25326688.310 7 101980503.01007  25326689.207 8 100684150.42008
  24454536.119 6 128509749.46906 100137620.05903  24454547.997 3  24454535.923 3
  24454547.828 6  24454547.317 6  95965295.85906

  28130187.996 6 147825167.33706
                  28130197.709 6 110388968.97906  28130193.838 6 119987988.33606
  28130195.712 6 113268668.68406  28130196.801 7 111828825.40707
  23342500.848 7 122665721.65707  95583727.71705  23342506.957 5  23342500.298 5
  23342507.159 7  23342505.533 7  91601076.32907

  22394105.443 7 117681903.32607  91700255.91405  22394109.702 5  22394105.081 5
  22394110.048 6

  26759493.496 6 140622127.44306
                  26759502.272 6 105010073.39106  26759500.141 6 114141369.98206
  26759500.256 7 107749458.84607  26759501.064 7 106379770.19107
 25  4 11  1  8 45.0000000  0 32G18R20G15E29G05G23R22R21G13G10R08R06
                                E33R23G24G26R07E13E26E15S33S31E07S35
                                G16E21E08G32E31G27G29E23
  20655277.793 8 108544535.36708  84580310.39307  20655279.633 7  20655277.561 7
  20655279.877 8  20655282.581 8  81056190.10108

  23125235.469 5 123660995.84005  96180815.91006
  23125249.608 6

  20979543.575 8 110248744.79708  85908367.08606  20979545.507 6  20979543.262 6
  20979545.952 7

  26532518.162 6 139429713.54406
                  26532528.309 7 104119851.86707  26532527.156 6 113173658.16706
  26532525.672 7 106835987.77307  26532526.702 7 105477814.89407
  25426609.712 6 133617823.35506 104117862.41204  25426616.553 4  25426609.399 4
  25426616.951 5

  20430837.664 8 107365232.21108  83661495.91807  20430839.473 7  20430837.441 7
  20430839.553 8  20430842.180 8  80175620.59308

  20588487.652 8 109902859.68708  85480081.91807
  20588492.703 7

  19722697.627 8 105540412.31208  82087151.81908
  19722704.711 8

  23933433.543 6 125771261.29306  98003703.09503  23933438.768 3  23933433.025 3


  22345516.192 7 117426793.01307  91501595.13506  22345521.715 6  22345515.835 6
  22345521.509 7  22345519.495 8  87689043.93408

  22602437.107 7 121035340.62107  94138767.56607
  22602448.768 7

  19866862.838 6 106013471.30106


  27410276.104 6 144042114.86206
                  27410282.851 6 107564022.96106  27410282.666 6 116917386.94306
  27410280.606 6 110370023.38106  27410281.796 7 108967026.24507
  24262396.265 6 129787482.53106


  23970862.935 6 125967856.86906  98156864.20704  23970870.894 4  23970862.703 4
  23970871.469 6  23970872.113 7  94067014.90207

  25018840.464 6 131474868.75906 102447981.94503  25018853.414 3  25018840.089 3
  25018853.402 6  25018852.418 6  98179309.75406

  19283473.116 8 103226426.49308  80287471.99308
  19283480.370 8

  24366069.406 7 128044637.88807
                  24366074.953 8  95617819.06008  24366072.497 8 103932380.73408
  24366072.834 8  98112181.40608  24366073.884 8  96865000.30708
  24107948.677 7 126688453.11507
                  24107951.748 8  94605221.82508  24107952.811 8 102831691.90608
  24107949.646 8  97073154.89108  24107950.661 8  95839193.93208
  28253060.328 5 148470725.37905
                  28253074.056 6 110870985.71806  28253069.602 6 120511944.66806
  28253071.159 6 113763267.33206  28253072.796 7 112317126.59707
  37105065.380 7 194988422.38207
                  37105063.750 6 145608246.76006

  36827871.970 7 193531785.47607
                  36827881.058 7 144520543.55007

  23827380.903 7 125214215.24107
                  23827386.663 8  93504431.71808  23827384.341 8 101634686.49908
  23827384.737 8  95943638.09408  23827385.517 8  94724035.98008
  36976612.133 7 194313412.70007
                  36976616.767 6 145104187.43006

  24177257.209 6 127052378.77906  99001880.78303  24177261.706 3  24177256.346 3


  27634158.954 6 145218425.74406
                  27634172.933 6 108442353.96606  27634169.771 6 117872123.72006
  27634169.868 6 111271278.16006  27634171.650 7 109856819.13807
  25330685.686 7 133113970.60307
                  25330689.831 7  99403497.27407  25330689.246 7 108047203.69007
  25330687.576 7 101996607.02907  25330688.644 8 100700049.72608
  24444264.926 6 128455777.09106 100095563.92204  24444276.761 4  24444264.734 4
  24444277.731 6  24444276.358 6  95924992.12706

  28129455.111 6 147821315.12506
                  28129464.710 6 110386092.34506  28129460.486 6 119984861.53106
  28129462.757 6 113265716.98706  28129463.736 7 111825911.23507
  23334367.831 7 122622983.35407  95550425.18805  23334374.211 5  23334367.273 5
  23334374.319 7  23334372.965 7  91569161.40307

  22403607.584 7 117731836.14407  91739164.55405  22403611.632 5  22403607.218 5
  22403612.262 6

  26764136.831 6 140646528.50806
                  26764145.435 6 105028294.92106  26764143.369 6 114161176.00006
  26764143.617 7 107768155.72007  26764144.491 7 106398229.39407
 25  4 11  1  9  0.0000000  0 32G18R20G15E29G05G23R22R21G13G10R08R06
                                E33R23G24G26R07E13E26E15S33S31E07S35
                                G16E21E08G32E31G27G29E23
  20654799.483 8 108542021.57508  84578351.59607  20654801.232 7  20654799.260 7
  20654801.539 8  20654804.243 8  81054312.92608

  23133766.203 5 123706609.13405  96216292.83706
  23133779.613 6

  20985189.608 8 110278416.36608  85931487.77906  20985191.839 6  20985189.291 6
  20985192.241 7

  26523926.961 6 139384565.89606
                  26523936.957 7 104086137.85807  26523936.233 7 113137012.46707
  26523934.284 7 106801394.26007  26523935.293 7 105443661.13207
  25435025.067 6 133662046.31606 104152321.86304  25435031.972 4  25435024.750 4
  25435032.813 5

  20431357.852 8 107367966.49608  83663626.53107  20431359.768 7  20431357.633 7
  20431359.904 8  20431362.490 8  80177662.43608

  20580843.971 8 109862059.35708  85448348.33607
  20580849.105 7

  19724687.179 8 105551058.32208  82095432.04707
  19724693.813 7

  23942360.228 6 125818170.02606  98040255.30403  23942365.200 3  23942359.692 3


  22340898.743 7 117402525.14507  91482685.15806  22340903.607 6  22340898.395 6
  22340903.391 7  22340901.429 8  87670921.87308

  22591434.248 7 120976418.01607  94092939.02406
  22591444.923 6

  19873502.499 6 106048901.35206


  27404655.571 6 144012579.64206
                  27404662.361 6 107541967.51706  27404662.005 6 116893413.60406
  27404660.131 7 110347392.56007  27404661.365 7 108944683.11107
  24252142.318 6 129732632.29406


  23964063.223 6 125932130.91206  98129025.88904  23964072.471 4  23964062.987 4
  23964073.401 6  23964073.634 7  94040336.52207

  25024508.696 6 131504653.00106 102471190.37303  25024520.601 3  25024508.334 3
  25024521.297 6  25024519.868 6  98201551.13106

  19279700.405 8 103206228.11108  80271762.15908
  19279707.087 8

  24368084.107 7 128055228.10407
                  24368090.269 8  95625727.33808  24368087.695 8 103940976.68408
  24368088.134 8  98120295.99108  24368089.141 8  96873011.73908
  24104793.333 7 126671871.24407
                  24104796.361 8  94592839.27508  24104797.520 8 102818232.60408
  24104794.121 8  97060449.31408  24104795.225 8  95826649.86808
  28258209.744 5 148497783.33505
                  28258222.993 6 110891191.32206  28258218.757 6 120533907.27706
  28258220.090 6 113784000.04706  28258221.829 7 112337595.76207
  37105069.248 7 194988443.16607
                  37105067.676 6 145608262.29906

  36827870.669 7 193531786.46407
                  36827881.376 7 144520544.24107

  23823628.614 7 125194497.08807
                  23823634.424 8  93489707.15108  23823632.136 8 101618681.53108
  23823632.433 8  95928529.40708  23823633.240 8  94709119.35308
  36976622.923 7 194313466.60807
                  36976626.949 6 145104227.81606

  24180998.000 6 127072034.90006  99017197.21703  24181002.294 3  24180997.160 3


  27641312.914 6 145256019.21606
                  27641326.681 6 108470426.90306  27641322.982 6 117902637.82706
  27641324.226 6 111300083.45906  27641325.593 7 109885258.25807
  25334702.999 7 133135082.24107
                  25334707.193 7  99419262.45107  25334706.654 7 108064339.75607
  25334705.105 7 102012783.47107  25334706.048 8 100716020.53508
  24433997.734 6 128401823.65806 100053522.54604  24434010.367 4  24433997.574 4
  24434010.630 6  24434009.165 6  95884702.50906

  28128740.771 6 147817562.43906
                  28128750.885 6 110383290.03106  28128746.259 6 119981815.53906
  28128748.746 6 113262841.57806  28128749.578 7 111823072.37407
  23326252.689 7 122580334.53407  95517192.38405  23326258.189 5  23326252.135 5
  23326258.672 7  23326256.850 7  91537313.30507

  22413123.640 7 117781842.82407  91778130.74605  22413127.473 5  22413123.265 5
  22413127.414 6

  26768792.516 6 140670994.35206
                  26768801.245 6 105046564.83406  26768799.222 6 114181034.62506
  26768799.529 7 107786902.24907  26768800.219 7 106416737.61407
 25  4 11  1  9 15.0000000  0 32G18R20G15E29G05G23R22R21G13G10R08R06
                                E33R23G24G26R07E13E26E15S33S31E07S35
                                G16E21E08G32E31G27G29E23
  20654333.567 8 108539574.03508  84576444.42807  20654335.455 7  20654333.339 7
  20654335.708 8  20654338.522 8  81052485.22108

  23142308.816 5 123752295.50105  96251826.62306
  23142323.420 6

  20990860.625 8 110308216.82008  85954708.90606  20990862.688 6  20990860.308 6
  20990862.740 7

  26515338.772 6 139339434.56506
                  26515348.617 7 104052436.03807  26515347.395 6 113100379.99106
  26515345.875 7 106766813.24307  26515346.970 7 105409519.71607
  25443435.876 6 133706243.80306 104186761.47104  25443442.258 4  25443435.546 4
  25443441.900 5

  20431890.018 8 107370762.69908  83665805.39707  20431891.865 7  20431889.804 7
  20431891.904 8  20431894.603 8  80179750.51408

  20573211.047 8 109821310.21008  85416654.57507
  20573215.809 7

  19726701.692 8 105561835.54508  82103814.32307
  19726708.106 7

  23951301.679 6 125865159.03306  98076870.08103  23951306.384 3  23951301.156 3


  22336291.091 7 117378313.11107  91463818.67506  22336296.154 6  22336290.752 6
  22336295.918 7  22336293.892 8  87652841.50708

  22580444.045 7 120917565.46207  94047165.00406
  22580454.828 6

  19880166.242 6 106084462.07006


  27399031.834 6 143983025.86506
                  27399038.466 6 107519898.19506  27399037.870 6 116869425.19406
  27399036.387 7 110324747.51407  27399037.405 7 108922325.92707
  24241882.208 6 129677744.43906


  23957273.870 6 125896448.77206  98101221.71904  23957282.031 4  23957273.638 4
  23957282.840 6  23957283.034 7  94013690.87507

  25030181.173 5 131534461.36405 102494417.58403  25030193.127 3  25030180.798 3
  25030193.676 6  25030192.541 6  98223810.51606

  19275958.884 8 103186203.27608  80256187.31608
  19275966.056 8

  24370105.209 7 128065847.84507
                  24370111.041 8  95633657.65808  24370108.743 8 103949596.59508
  24370109.006 8  98128433.18308  24370110.011 8  96881045.49508
  24101639.768 7 126655299.74607
                  24101642.965 8  94580464.47708  24101643.900 8 102804781.72908
  24101640.709 8  97047751.69008  24101641.751 8  95814113.65708
  28263362.209 5 148524861.69605
                  28263376.057 6 110911412.18706  28263371.401 6 120555886.47306
  28263373.398 6 113804748.40406  28263374.672 7 112358080.36907
  37105073.277 7 194988462.25307
                  37105071.226 6 145608276.62106

  36827871.335 7 193531785.42407
                  36827881.161 7 144520543.35307

  23819893.979 7 125174871.94907
                  23819899.828 8  93475052.03908  23819897.516 8 101602752.05208
  23819897.843 8  95913491.98608  23819898.670 8  94694273.08608
  36976632.237 7 194313518.35107
                  36976636.804 6 145104266.44306

  24184755.951 6 127091786.55406  99032588.09803  24184760.782 3  24184755.133 3


  27648462.400 6 145293592.67806
                  27648476.799 6 108498484.89606  27648473.802 6 117933135.67606
  27648474.373 6 111328873.39206  27648475.633 7 109913682.21807
  25338737.170 7 133156282.43207
                  25338741.427 7  99435093.76307  25338740.820 7 108081547.70407
  25338739.387 7 102029027.77807  25338740.328 8 100732058.34408
  24423733.641 6 128347883.66906 100011491.64204  24423745.556 4  24423733.498 4
  24423745.237 6  24423744.090 6  95844422.96206

  28128044.055 6 147813903.45806
                  28128054.590 6 110380557.68406  28128049.846 6 119978845.58106
  28128052.471 6 113260037.95706  28128053.324 7 111820304.39107
  23318152.538 7 122537769.73407  95484025.05105  23318157.890 5  23318151.997 5
  23318158.847 6  23318156.875 7  91505527.95607

  22422652.365 7 117831917.15707  91817149.66005  22422656.295 5  22422651.990 5
  22422656.528 6

  26773459.622 6 140695518.95006
                  26773468.098 6 105064878.63906  26773466.356 6 114200940.93406
  26773466.217 7 107805693.79407  26773467.131 7 106435290.28807
 25  4 11  1  9 30.0000000  0 32G18R20G15E29G05G23R22R21G13G10R08R06
                                E33R23G24G26R07E13E26E15S33S31E07S35
                                G16E21E08G32E31G27G29E23
  20653881.407 8 108537197.72608  84574592.76407  20653883.262 7  20653881.179 7
  20653883.616 8  20653886.327 8  81050710.71308

  23150865.301 5 123798059.36405  96287420.65606
  23150881.326 6

  20996556.977 8 110338150.80608  85978034.08306  20996558.904 6  20996556.651 6
  20996559.417 7

  26506754.257 6 139294324.60206
                  26506764.237 7 104018750.18407  26506763.364 6 113063764.86406
  26506761.600 7 106732248.60807  26506762.715 7 105375394.47207
  25451841.519 6 133750420.76606 104221185.07604  25451848.627 4  25451841.202 4
  25451849.824 5

  20432434.658 8 107373625.51208  83668036.16507  20432436.651 7  20432434.444 7
  20432437.043 8  20432439.365 8  80181888.33908

  20565587.262 8 109780617.46408  85385004.69907
  20565592.299 7

  19728740.793 8 105572749.23508  82112302.74107
  19728747.493 7

  23960259.467 6 125912232.75006  98113550.87203  23960264.224 3  23960258.967 3


  22331695.405 7 117354161.63307  91444999.38606  22331700.283 6  22331695.088 6
  22331700.264 7  22331697.929 8  87634806.35908

  22569465.817 7 120858788.55807  94001449.87707
  22569478.613 7

  19886855.496 6 106120157.90906


  27393405.305 6 143953458.37306
                  27393411.873 6 107497818.64106  27393411.666 6 116845425.65706
  27393409.744 7 110302091.95707  27393410.852 7 108899958.37207
  24231614.753 6 129622824.20906


  23950492.038 6 125860815.71106  98073455.78004  23950501.401 4  23950491.779 4
  23950502.128 6  23950502.369 7  93987081.88107

  25035859.769 5 131564298.32505 102517667.07703  25035871.332 3  25035859.412 3
  25035870.937 6  25035870.113 6  98246091.24006

  19272252.006 8 103166357.26508  80240751.54608
  19272258.624 8

  24372132.715 7 128076502.02507
                  24372138.535 8  95641613.70008  24372136.210 7 103958244.47707
  24372136.417 8  98136596.78108  24372137.440 8  96889105.31508
  24098489.136 7 126638743.51507
                  24098492.352 8  94568101.07708  24098493.326 8 102791343.24208
  24098490.183 8  97035065.76108  24098491.185 8  95801588.99308
  28268519.793 5 148551965.31605
                  28268533.698 6 110931651.90606  28268529.229 6 120577886.17406
  28268530.990 6 113825516.11806  28268532.385 7 112378584.08807
  37105077.154 7 194988483.34007
                  37105075.407 6 145608292.26206

  36827870.660 7 193531787.34307
                  36827881.438 7 144520545.02807

  23816177.923 7 125155344.74307
                  23816183.946 8  93460470.06808  23816181.582 8 101586902.06908
  23816181.883 8  95898529.61208  23816182.730 8  94679500.91408
  36976643.595 7 194313572.63807
                  36976647.188 6 145104306.95806

  24188533.605 6 127111638.18506  99048056.87503  24188538.655 3  24188532.769 3


  27655609.725 6 145331150.68306
                  27655624.140 6 108526531.33906  27655620.639 6 117963620.99806
  27655621.212 6 111357651.49906  27655622.721 7 109942094.49807
  25342789.219 7 133177575.86607
                  25342793.458 7  99450994.70207  25342792.944 7 108098831.33407
  25342791.295 7 102045343.51407  25342792.334 8 100748166.68108
  24413471.974 6 128293962.29106  99969475.23104  24413483.782 4  24413471.809 4
  24413484.403 6  24413483.702 6  95804157.28606

  28127367.430 6 147810342.99106
                  28127376.898 6 110377898.89406  28127372.428 6 119975955.60506
  28127375.132 6 113257309.82106  28127375.842 7 111817610.93207
  23310070.021 7 122495294.12607  95450927.21205  23310075.155 5  23310069.480 5
  23310075.936 7  23310074.227 7  91473809.20307

  22432194.533 7 117882063.76607  91856224.89005  22432198.966 5  22432194.149 5
  22432199.147 6

  26778138.536 6 140720106.91306
                  26778147.019 6 105083239.72406  26778145.213 6 114220898.65606
  26778145.295 7 107824533.89007  26778146.111 7 106453890.88007
 25  4 11  1  9 45.0000000  0 32G18R20G15E29G05G23R22R21G13G10R08R06
                                E33R23G24G26R07E13E26E15S33S31E07S35
                                G16E21E08G32E31G27G29E23
  20653441.864 8 108534887.89308  84572792.89907  20653443.710 7  20653441.636 7
  20653444.204 8  20653446.758 8  81048985.84408

  23159438.007 5 123843896.00805  96323071.24906
  23159453.557 6

  21002277.407 8 110368213.11208  86001459.24906  21002279.603 6  21002277.068 6
  21002279.651 7

  26498173.428 6 139249231.30006
                  26498183.079 7 103985076.77007  26498182.357 6 113027163.26506
  26498180.523 7 106697696.73207  26498181.631 7 105341281.82707
  25460244.080 6 133794572.18706 104255588.79904  25460250.296 4  25460243.767 4
  25460251.268 5

  20432991.141 8 107376549.87808  83670314.89707  20432993.122 7  20432990.927 7
  20432993.305 8  20432995.870 8  80184072.12308

  20557974.016 8 109739976.53508  85353395.11107
  20557978.860 7

  19730805.210 8 105583794.56708  82120893.55107
  19730811.499 7

  23969232.810 6 125959385.80306  98150293.45903  23969237.282 3  23969232.359 3


  22327109.620 7 117330065.76607  91426223.43106  22327114.934 6  22327109.307 6
  22327114.568 7  22327112.625 8  87616812.73908

  22558504.572 7 120800082.55407  93955789.80807
  22558515.510 7

  19893569.336 6 106155983.49906


  27387775.079 6 143923872.26206
                  27387781.821 6 107475725.18706  27387781.262 6 116821411.00806
  27387779.614 7 110279422.14707  27387780.753 7 108877576.74307
  24221339.067 6 129567866.91806


  23943720.827 6 125825227.24706  98045724.60104  23943729.370 4  23943720.568 4
  23943729.868 6  23943730.118 7  93960506.17407

  25041541.068 6 131594158.57406 102540934.70303  25041553.713 3  25041540.697 3
  25041553.136 6  25041552.657 6  98268389.38906

  19268576.367 8 103146685.19208  80225451.08308
  19268583.912 8

  24374165.921 7 128087185.83507
                  24374171.570 8  95649591.86608  24374169.179 8 103966916.38908
  24374169.467 8  98144783.07208  24374170.517 8  96897187.54308
  24095340.547 7 126622197.77407
                  24095343.723 8  94555745.50808  24095344.876 8 102777913.26808
  24095341.598 8  97022387.87208  24095342.622 8  95789072.26408
  28273681.151 5 148579089.36705
                  28273694.860 6 110951906.89206  28273690.038 6 120599902.45406
  28273692.836 6 113846299.48206  28273693.853 7 112399103.26007
  37105080.753 7 194988502.46007
                  37105078.940 6 145608306.54906

  36827873.419 7 193531786.51707
                  36827881.345 7 144520544.32307

  23812479.706 7 125135910.68907
                  23812485.726 8  93445957.65908  23812483.430 8 101571127.69908
  23812483.693 8  95883638.61308  23812484.533 8  94664799.21008
  36976651.577 7 194313625.30507
                  36976657.030 6 145104346.54606

  24192329.663 6 127131584.50006  99063599.42403  24192334.303 3  24192328.854 3


  27662752.971 6 145368688.08406
                  27662767.394 6 108554562.39306  27662763.792 6 117994089.58306
  27662764.975 6 111386413.81806  27662766.076 7 109970491.18107
  25346857.848 7 133198957.44307
                  25346862.273 7  99466961.47307  25346861.401 7 108116186.51207
  25346860.075 7 102061726.81207  25346861.130 8 100764341.71608
  24403213.775 6 128240054.85406  99927469.70003  24403225.754 3  24403213.623 3
  24403226.212 6  24403224.503 6  95763902.04206

  28126707.571 6 147806876.11406
                  28126716.958 6 110375310.00406  28126712.299 6 119973141.58006
  28126715.262 6 113254653.37706  28126716.063 7 111814988.26507
  23302002.836 7 122452903.08707  95417895.28605  23302008.867 5  23302002.291 5
  23302008.761 7  23302007.525 7  91442153.61207

  22441750.286 7 117932277.39007  91895352.33705  22441754.376 5  22441749.884 5
  22441754.952 6

  26782828.302 6 140744753.08806
                  26782837.019 6 105101644.29706  26782835.061 6 114240903.63106
  26782835.401 7 107843418.57307  26782836.146 7 106472535.50907
 25  4 11  1 10  0.0000000  0 32G18R20G15E29G05G23R22R21G13G10R08R06
                                E33R23G24G26R07E13E26E15S33S31E07S35
                                G16E21E08G32E31G27G29E23
  20653015.150 8 108532645.01108  84571045.20507  20653016.934 7  20653014.927 7
  20653017.259 8  20653019.935 8  81047310.96908

  23168023.975 5 123889805.14105  96358778.30906
  23168038.231 6

  21008022.755 8 110398403.62708  86024984.31506  21008024.677 6  21008022.425 6
  21008025.149 7

  26489596.016 6 139204155.17806
                  26489605.522 7 103951416.16907  26489604.174 6 112990575.61306
  26489602.724 7 106663158.02407  26489603.821 7 105307182.17007
  25468641.344 6 133838698.23506 104289972.71904  25468647.480 4  25468641.040 4
  25468647.944 5

  20433559.464 8 107379535.95308  83672641.71507  20433561.363 7  20433559.250 7
  20433561.322 8  20433564.093 8  80186301.99308

  20550370.233 8 109699388.12908  85321826.38007
  20550375.196 7

  19732893.613 8 105594971.93908  82129587.06007
  19732900.454 7

  23978220.609 6 126006618.23706  98187097.91703  23978225.265 3  23978220.162 3


  22322535.221 7 117306025.74107  91407490.98906  22322540.196 6  22322534.900 6
  22322540.163 7  22322537.894 8  87598860.82608

  22547554.819 7 120741448.12707  93910185.43307
  22547565.862 7

  19900307.759 6 106191938.32506


  27382141.212 6 143894267.87106
                  27382148.265 6 107453618.06906  27382147.640 6 116797381.51106
  27382146.143 7 110256738.32107  27382147.116 7 108855181.27007
  24211060.332 6 129512873.03506


  23936956.513 6 125789684.04406  98018028.68704  23936965.147 4  23936956.241 4
  23936965.897 6  23936966.010 7  93933964.28207

  25047228.482 5 131624042.15805 102564220.51803  25047240.803 3  25047228.111 3
  25047240.454 6  25047239.283 6  98290704.93006

  19264934.795 8 103127187.28808  80210286.07008
  19264941.235 8

  24376204.446 7 128097899.64707
                  24376210.292 8  95657592.43608  24376207.876 8 103975612.66108
  24376208.207 8  98152992.35108  24376209.282 8  96905292.46708
  24092194.163 7 126605662.88007
                  24092197.246 8  94543398.03608  24092198.294 8 102764492.09808
  24092195.127 8  97009718.29408  24092196.115 8  95776563.73808
  28278846.785 5 148606234.18105
                  28278860.816 6 110972177.37206  28278856.628 6 120621935.57706
  28278858.373 6 113867098.76506  28278859.253 7 112419638.15107
  37105083.624 7 194988520.67207
                  37105082.137 6 145608320.40306

  36827871.644 7 193531784.31007
                  36827880.982 7 144520542.68707

  23808799.423 7 125116570.18907
                  23808805.330 8  93431515.11508  23808802.993 8 101555429.27108
  23808803.271 8  95868819.30608  23808804.119 8  94650168.28408
  36976662.188 7 194313675.77507
                  36976666.787 6 145104384.16506

  24196143.663 6 127151625.59006  99079215.84003  24196147.993 3  24196142.881 3


  27669892.073 6 145406204.97606
                  27669906.375 6 108582578.14506  27669903.743 6 118024541.51906
  27669903.602 6 111415160.41506  27669905.356 7 109998872.35307
  25350943.583 7 133220427.36307
                  25350947.881 7  99482994.19607  25350947.151 7 108133613.39207
  25350945.662 7 102078177.78507  25350946.735 8 100780583.56408
  24392958.109 6 128186161.98706  99885475.51404  24392970.070 4  24392957.957 4
  24392970.711 6  24392968.874 6  95723657.66906

  28126065.334 6 147803503.08806
                  28126074.899 6 110372791.20106  28126071.234 6 119970403.75006
  28126073.311 6 113252068.86206  28126074.157 7 111812436.60407
  23293952.043 7 122410597.26607  95384929.75105  23293957.943 5  23293951.493 5
  23293958.783 7  23293956.771 7  91410561.65507

  22451318.216 7 117982558.02907  91934532.00405  22451322.499 5  22451317.796 5
  22451322.865 6

  26787529.508 6 140769457.51906
                  26787538.160 6 105120092.38606  26787536.022 6 114260955.91006
  26787536.693 7 107862347.92807  26787537.270 7 106491224.23107
 25  4 11  1 10 15.0000000  0 32G18R20G15E29G05G23R22R21G13G10R08R06
                                E33R23G24G26R07E13E26E15S33S31E07S35
                                G16E21E08G32E31G27G29E23
  20652601.817 8 108530473.71108  84569353.28807  20652603.739 7  20652601.594 7
  20652604.013 8  20652606.713 8  81045689.55008

  23176625.340 5 123935791.32205  96394545.30306
  23176638.412 6

  21013793.002 8 110428726.52308  86048612.54106  21013794.939 6  21013792.663 6
  21013795.195 7

  26481021.870 6 139159100.96606
                  26481031.506 7 103917771.92907  26481030.886 6 112954005.73606
  26481029.109 7 106628636.09607  26481030.155 7 105273099.08807
  25477033.649 6 133882803.39106 104324340.38004  25477040.492 4  25477033.377 4
  25477041.203 5

  20434140.152 8 107382588.07208  83675019.99507  20434142.164 7  20434139.933 7
  20434142.348 8  20434144.900 8  80188581.18408

  20542777.068 8 109658857.20608  85290302.34307
  20542782.506 7

  19735007.826 8 105606286.03008  82138386.91407
  19735014.733 7

  23987224.670 6 126053934.16006  98223967.42103  23987229.155 3  23987224.264 3


  22317971.868 7 117282046.02607  91388805.53506  22317976.896 6  22317971.551 6
  22317976.765 7  22317974.656 8  87580953.93908

  22536619.216 7 120682890.29607  93864640.62706
  22536630.029 6

  19907070.664 6 106228026.79806


  27376505.269 6 143864649.65606
                  27376511.900 6 107431500.62706  27376511.674 6 116773340.80506
  27376509.922 7 110234043.89107  27376510.891 7 108832775.33607
  24200772.772 6 129457847.24906


  23930202.808 6 125754191.00706  97990371.86504  23930211.065 4  23930202.549 4
  23930211.621 6  23930212.224 7  93907459.85507

  25052920.358 5 131653953.13305 102587527.68403  25052932.857 3  25052919.992 3
  25052932.651 6  25052930.787 6  98313040.93706

  19261325.930 8 103107868.26608  80195260.18008
  19261332.342 8

  24378249.858 7 128108648.04607
                  24378255.686 8  95665618.83608  24378253.206 8 103984337.02008
  24378253.571 8  98161228.13808  24378254.629 8  96913423.56208
  24089050.701 7 126589143.40907
                  24089053.669 8  94531062.08108  24089054.777 8 102751083.44708
  24089051.502 8  96997060.52708  24089052.547 8  95764066.87808
  28284016.597 6 148633404.25506
                  28284030.832 6 110992466.70606  28284026.823 6 120643989.23306
  28284028.118 6 113887917.39006  28284029.495 7 112440192.12107
  37105086.513 7 194988539.97807
                  37105086.251 6 145608334.50406

  36827871.268 7 193531785.11207
                  36827880.964 7 144520543.44507

  23805137.760 7 125097327.87607
                  23805143.594 8  93417145.87708  23805141.274 8 101539810.52308
  23805141.515 8  95854075.21708  23805142.397 8  94635611.62108
  36976670.523 7 194313728.72007
                  36976676.754 6 145104423.54906

  24199976.455 6 127171765.68906  99094909.40103  24199980.630 3  24199975.677 3


  27677028.797 6 145443705.59406
                  27677043.193 6 108610581.73606  27677039.301 6 118054980.24106
  27677040.277 6 111443894.55706  27677041.511 7 110027241.22307
  25355046.957 7 133241989.89807
                  25355051.043 7  99499096.09007  25355050.397 7 108151115.45207
  25355049.024 7 102094699.72507  25355049.963 8 100796895.48008
  24382705.993 6 128132288.47706  99843496.39804  24382718.169 4  24382705.837 4
  24382718.457 6  24382717.209 6  95683427.73106

  28125442.679 6 147800228.35506
                  28125452.012 6 110370345.80606  28125447.970 6 119967745.70106
  28125450.149 6 113249559.68406  28125450.996 7 111809959.31807
  23285918.757 7 122368381.46907  95352034.36405  23285924.539 5  23285918.207 5
  23285925.028 7  23285923.430 7  91379036.92707

  22460900.021 7 118032909.98607  91973767.24505  22460904.265 5  22460899.583 5
  22460904.576 6

  26792242.658 6 140794224.49506
                  26792251.328 6 105138587.16106  26792249.069 6 114281058.95706
  26792249.508 7 107881325.18107  26792250.311 7 106509960.24607
 25  4 11  1 10 30.0000000  0 32G18R20G15E29G05G23R22R21G13G10R08R06
                                E33R23G24G26R07E13E26E15S33S31E07S35
                                G16E21E08G32E31G27G29E23
  20652201.895 8 108528371.34508  84567715.08507  20652203.698 7  20652201.672 7
  20652203.858 8  20652206.652 8  81044119.60608

  23185236.752 5 123981851.74705  96430369.99706
  23185251.451 6

  21019587.620 8 110459178.81308  86072341.58706  21019589.818 6  21019587.267 6
  21019589.964 7

  26472452.116 6 139114066.03806
                  26472461.695 7 103884142.09807  26472460.859 6 112917451.50906
  26472459.166 7 106594128.93707  26472460.179 7 105239030.59107
  25485421.853 5 133926884.75505 104358689.51204  25485429.050 4  25485421.581 4
  25485429.602 5

  20434732.884 8 107385703.29508  83677447.44407  20434734.954 7  20434732.661 7
  20434735.178 8  20434737.766 8  80190907.48608

  20535195.389 8 109618381.27608  85258821.08507
  20535199.709 7

  19737147.574 8 105617734.24908  82147291.06407
  19737153.899 7

  23996244.211 6 126101330.46806  98260899.56403  23996248.560 3  23996243.805 3


  22313419.593 7 117258123.70707  91370164.80806  22313424.574 6  22313419.263 6
  22313424.654 7  22313422.353 8  87563089.92008

  22525697.825 7 120624406.57607  93819153.44906
  22525707.817 6

  19913858.231 6 106264245.37006


  27370866.143 6 143835014.83506
                  27370872.607 6 107409370.80706  27370871.739 6 116749286.60806
  27370870.508 7 110211336.74807  27370871.527 7 108810356.85407
  24190480.189 6 129402786.88906


  23923457.665 6 125718745.76206  97962752.29003  23923466.275 3  23923457.393 3
  23923466.191 6  23923467.176 7  93880991.10307

  25058616.343 6 131683888.39106 102610853.76203  25058629.172 3  25058615.941 3
  25058628.496 6  25058627.888 6  98335395.07706

  19257749.270 8 103088725.40208  80180371.31407
  19257756.065 7

  24380301.119 7 128119428.31907
                  24380307.136 8  95673669.03708  24380304.620 8 103993087.23808
  24380305.014 8  98169488.34308  24380306.053 8  96921578.76408
  24085909.415 7 126572636.66407
                  24085912.573 8  94518735.63108  24085913.647 8 102737685.12708
  24085910.302 8  96984412.51608  24085911.420 8  95751579.64708
  28289191.742 5 148660596.84505
                  28289205.477 6 111012772.87306  28289201.215 6 120666061.12906
  28289202.457 6 113908753.26306  28289204.043 7 112460763.13807
  37105090.743 7 194988560.37807
                  37105089.989 6 145608349.86806

  36827872.489 7 193531785.16607
                  36827881.094 7 144520543.11407

  23801494.058 7 125078181.02507
                  23801500.085 8  93402847.93808  23801497.741 8 101524269.27708
  23801497.921 8  95839404.28208  23801498.843 8  94621127.18408
  36976681.765 7 194313782.52407
                  36976686.833 6 145104464.15806

  24203826.747 6 127192001.69106  99110677.68903  24203831.452 3  24203825.938 3


  27684161.122 6 145481186.89206
                  27684175.613 6 108638570.90006  27684171.887 6 118085403.30406
  27684172.427 6 111472613.88806  27684174.138 7 110055595.46707
  25359167.188 7 133263642.12607
                  25359171.330 7  99515264.95607  25359170.637 7 108168690.30707
  25359169.300 7 102111290.39507  25359170.251 8 100813275.24808
  24372457.673 6 128078431.82506  99801530.42604  24372469.112 4  24372457.495 4
  24372469.893 6  24372468.084 6  95643210.38806

  28124837.452 6 147797049.16506
                  28124847.075 6 110367971.73006  28124842.400 6 119965165.19606
  28124845.186 6 113247123.67906  28124846.080 7 111807554.27507
  23277901.966 7 122326253.21707  95319207.20605  23277908.122 5  23277901.421 5
  23277907.984 7  23277906.617 7  91347577.56107

  22470494.790 7 118083329.95907  92013055.48605  22470498.927 5  22470494.357 5
  22470499.045 6

  26796966.859 6 140819050.95506
                  26796975.559 6 105157126.36706  26796973.618 6 114301210.29306
  26796974.032 7 107900348.02707  26796974.652 7 106528741.27207
 25  4 11  1 10 45.0000000  0 32G18R20G15E29G05G23R22R21G13G10R08R06
                                E33R23G24G26R07E13E26E15S33S31E07S35
                                G16E21E08G32E31G27G29E23
  20651814.971 8 108526338.99008  84566131.43607  20651816.934 7  20651814.757 7
  20651817.153 8  20651819.935 8  81042601.94308

  23193863.792 5 124027987.22805  96466253.05006
  23193879.504 6

  21025407.368 8 110489761.09908  86096171.93206  21025409.433 6  21025407.020 6
  21025409.981 7

  26463885.142 6 139069051.51306
                  26463895.598 7 103850527.51907  26463894.446 6 112880913.86306
  26463892.993 7 106559637.44107  26463894.115 7 105204977.55607
  25493806.295 6 133970943.24706 104393020.79704  25493812.980 4  25493806.014 4
  25493813.977 5

  20435337.913 8 107388882.38108  83679924.65807  20435339.906 7  20435337.681 7
  20435339.959 8  20435342.654 8  80193281.48608

  20527622.981 8 109577961.66108  85227383.63207
  20527628.360 7

  19739311.889 8 105629317.49108  82156300.25707
  19739318.833 7

  24005278.583 6 126148807.69506  98297894.75903  24005283.371 3  24005278.194 3


  22308878.347 7 117234259.69207  91351569.51806  22308883.418 6  22308878.021 6
  22308883.581 7  22308881.195 8  87545269.44408

  22514789.956 7 120565997.94807  93773724.70706
  22514800.201 6

  19920669.111 6 106300594.70306


  27365223.664 6 143805364.34206
                  27365230.296 6 107387229.25306  27365229.479 6 116725219.68306
  27365227.982 7 110188617.59507  27365229.162 7 108787926.49807
  24180180.461 6 129347693.24806


  23916722.055 6 125683349.60206  97935170.94704  23916730.554 4  23916721.769 4
  23916730.716 6  23916731.414 7  93854559.01907

  25064316.911 6 131713848.49906 102634199.21303  25064330.213 3  25064316.455 3
  25064330.605 6  25064328.789 6  98357767.79206

  19254206.319 8 103069759.42108  80165620.02208
  19254213.127 8

  24382358.808 7 128130241.48707
                  24382364.796 8  95681743.80508  24382362.393 7 104001864.15707
  24382362.694 8  98177773.75308  24382363.728 8  96929758.85408
  24082770.933 7 126556143.63907
                  24082774.060 8  94506419.42708  24082775.207 8 102724297.94408
  24082771.769 8  96971775.02508  24082772.877 8  95739102.79808
  28294370.504 5 148687812.90005
                  28294384.614 6 111033096.53406  28294380.094 6 120688152.05206
  28294381.617 6 113929607.12906  28294383.179 7 112481351.90607
  37105095.845 7 194988581.48507
                  37105093.759 6 145608365.89806

  36827872.247 7 193531786.44907
                  36827881.215 7 144520544.27107

  23797868.818 7 125059130.69407
                  23797874.881 8  93388622.07608  23797872.515 8 101508806.36708
  23797872.728 8  95824807.30608  23797873.667 8  94606715.76508
  36976693.118 7 194313836.29307
                  36976697.225 6 145104504.16806

  24207696.147 6 127212334.20006  99126521.18403  24207700.564 3  24207695.347 3


  27691290.156 6 145518649.56606
                  27691304.201 6 108666546.17506  27691300.773 6 118115811.24006
  27691301.381 6 111501318.95406  27691303.108 7 110083935.63707
  25363304.534 7 133285384.79007
                  25363308.860 7  99531501.34907  25363308.073 7 108186338.56207
  25363306.820 7 102127950.34707  25363307.727 8 100829723.42208
  24362211.991 6 128024593.19006  99759578.48504  24362223.372 4  24362211.835 4
  24362224.457 6  24362223.361 6  95603006.49806

  28124250.707 6 147793966.38006
                  28124260.291 6 110365669.64406  28124256.218 6 119962662.92406
  28124258.675 6 113244761.53706  28124259.510 7 111805222.16207
  23269902.059 7 122284213.74007  95286449.21905  23269907.969 5  23269901.523 5
  23269908.060 7  23269906.542 7  91316184.50707

  22480102.491 7 118133818.62607  92052397.25405  22480106.530 5  22480102.053 5
  22480106.503 6

  26801703.268 6 140843937.60806
                  26801711.420 6 105175710.51306  26801709.392 6 114321410.44906
  26801709.545 7 107919416.97807  26801710.467 7 106547567.81707
 25  4 11  1 11  0.0000000  0 32G18R20G15E29G05G23R22R21G13G10R08R06
                                E33R23G24G26R07E13E26E15S33S31E07S35
                                G16E21E08G32E31G27G29E23
  20651440.810 8 108524372.76608  84564599.31307  20651442.736 7  20651440.596 7
  20651443.110 8  20651445.747 8  81041133.65808

  23202506.936 5 124074193.17905  96502190.93906
  23202520.252 6

  21031251.009 8 110520469.02808  86120100.17806  21031253.008 6  21031250.665 6
  21031253.114 7

  26455322.787 6 139024053.64506
                  26455332.729 7 103816925.34307  26455331.710 6 112844389.71206
  26455330.055 7 106525158.67807  26455331.181 7 105170937.08407
  25502185.125 6 134014974.95206 104427331.24704  25502191.517 4  25502184.839 4
  25502192.325 5

  20435954.422 8 107392121.17408  83682448.39907  20435956.239 7  20435954.190 7
  20435956.100 8  20435959.031 8  80195700.07408

  20520060.903 8 109537594.69008  85195987.12607
  20520065.764 7

  19741500.891 8 105641031.99308  82165411.53007
  19741507.728 7

  24014328.050 6 126196361.43406  98334949.57503  24014332.509 3  24014327.657 3


  22304347.420 7 117210449.87407  91333016.45506  22304352.595 6  22304347.090 6
  22304352.490 7  22304350.157 8  87527489.43108

  22503895.831 7 120507660.93307  93728351.68307
  22503906.997 7

  19927505.704 6 106337070.21306


  27359577.607 6 143775694.11706
                  27359584.374 6 107365073.00306  27359583.290 6 116701136.76806
  27359581.807 7 110165883.33407  27359583.054 7 108765481.24307
  24169874.777 6 129292562.01706


  23909994.430 6 125647998.95906  97907625.07504  23910003.463 4  23909994.144 4
  23910003.421 6  23910004.209 7  93828160.90707

  25070022.865 6 131743829.06906 102657560.61003  25070035.637 3  25070022.427 3
  25070035.206 6  25070034.477 6  98380155.77206

  19250695.840 8 103050966.32908  80151003.20208
  19250702.400 8

  24384422.025 7 128141083.62307
                  24384427.992 8  95689840.20308  24384425.679 8 104010664.59108
  24384425.834 8  98186081.35908  24384426.912 8  96937960.85608
  24079634.308 7 126539660.40907
                  24079637.361 8  94494110.54208  24079638.461 8 102710918.70708
  24079635.206 8  96959145.03008  24079636.208 8  95726633.36008
  28299552.865 5 148715048.42405
                  28299566.972 6 111053434.76706  28299562.482 6 120710258.84206
  28299564.417 6 113950475.91906  28299565.852 7 112501955.42007
  37105098.546 7 194988598.55007
                  37105097.153 6 145608378.34406

  36827869.904 7 193531784.48707
                  36827880.857 7 144520542.87307

  23794261.423 7 125040172.94107
                  23794267.391 8  93374465.35108  23794265.023 8 101493418.60508
  23794265.173 8  95810281.26808  23794266.101 8  94592374.38308
  36976702.245 7 194313886.78807
                  36976706.767 6 145104541.74806

  24211582.195 6 127232758.86706  99142436.48403  24211587.213 3  24211581.404 3


  27698415.108 6 145556089.37506
                  27698429.278 6 108694504.35206  27698426.239 6 118146200.61306
  27698426.284 6 111530006.50906  27698427.739 7 110112258.50907
  25367458.402 7 133307213.69907
                  25367462.746 7  99547802.16407  25367461.949 7 108204056.83807
  25367460.705 7 102144676.39707  25367461.632 8 100846236.85308
  24351969.561 6 127970768.93606  99717637.75104  24351980.607 4  24351969.418 4
  24351981.645 6  24351979.916 6  95562813.33706

  28123681.454 6 147790975.91506
                  28123691.452 6 110363436.53206  28123687.266 6 119960235.62406
  28123689.322 6 113242470.16206  28123690.470 7 111802959.91807
  23261918.041 7 122242259.35807  95253757.53605  23261924.012 5  23261917.487 5
  23261924.720 7  23261922.864 7  91284854.98207

  22489722.441 7 118184371.71707  92091789.22505  22489726.345 5  22489721.999 5
  22489726.731 6

  26806449.341 6 140868880.14606
                  26806457.860 6 105194336.41006  26806455.899 6 114341656.00506
  26806455.979 7 107938528.77307  26806456.880 7 106566436.66507
 25  4 11  1 11 15.0000000  0 32G18R20G15E29G05G23R22R21G13G10R08R06
                                E33R23G24G26R07E13E26E15S33S31E07S35
                                G16E21E08G32E31G27G29E23
  20651080.040 8 108522476.17908  84563121.45807  20651081.809 7  20651079.826 7
  20651082.275 8  20651084.840 8  81039717.37808

  23211160.673 5 124120473.16305  96538186.44206
  23211175.506 6

  21037118.945 8 110551305.55608  86144128.63606  21037120.944 6  21037118.606 6
  21037121.452 7

  26446763.776 6 138979075.96906
                  26446773.583 7 103783338.25607  26446772.694 7 112807881.95407
  26446770.923 7 106490695.37307  26446772.098 7 105136911.88807
  25510560.066 6 134058983.16106 104461623.37504  25510566.339 4  25510559.785 4
  25510567.407 5

  20436582.663 8 107395422.89208  83685021.17007  20436584.547 7  20436582.431 7
  20436584.548 8  20436587.319 8  80198165.64908

  20512509.259 8 109497284.07608  85164634.43107
  20512514.208 7

  19743715.324 8 105652881.26508  82174627.62307
  19743722.125 7

  24023391.631 6 126243994.66706  98372066.35903  24023396.774 3  24023391.225 3


  22299827.716 7 117186697.54107  91314508.18706  22299832.666 6  22299827.381 6
  22299832.429 7  22299830.120 8  87509752.35508

  22493015.885 7 120449399.27007  93683037.22707
  22493026.201 7

  19934365.281 6 106373674.70706


  27353928.464 6 143746007.59106
                  27353934.961 6 107342904.54106  27353934.068 6 116677040.60306
  27353932.649 7 110143136.57507  27353933.865 7 108743023.63207
  24159561.609 6 129237397.54706


  23903276.371 6 125612697.56206  97880117.57904  23903285.681 4  23903276.108 4
  23903286.205 6  23903286.551 7  93801799.56207

  25075732.094 5 131773833.20705 102680940.34103  25075745.604 3  25075731.656 3
  25075744.206 6  25075743.924 6  98402561.30306

  19247218.072 8 103032349.96008  80136523.81808
  19247224.632 8

  24386491.300 7 128151958.15307
                  24386497.309 8  95697960.78508  24386494.970 8 104019491.31108
  24386495.222 8  98194413.78408  24386496.258 8  96946187.35908
  24076500.209 7 126523190.41007
                  24076503.147 8  94481811.53408  24076504.263 8 102697550.21908
  24076501.079 8  96946525.17408  24076502.057 8  95714173.92808
  28304740.495 5 148742306.78905
                  28304754.315 6 111073790.04206  28304749.645 6 120732384.13606
  28304751.762 6 113971362.20906  28304753.024 7 112522576.20607
  37105100.862 7 194988616.32407
                  37105100.403 6 145608391.77406

  36827870.213 7 193531782.63307
                  36827880.513 7 144520541.47007

  23790672.015 7 125021311.24107
                  23790678.123 8  93360380.34308  23790675.788 8 101478108.80708
  23790675.886 8  95795828.82608  23790676.819 8  94578105.65808
  36976712.597 7 194313937.88007
                  36976716.368 6 145104580.07406

  24215487.795 6 127253278.74106  99158425.96103  24215492.420 3  24215486.982 3


  27705535.580 6 145593509.41006
                  27705550.162 6 108722447.76406  27705546.270 6 118176573.92806
  27705546.927 6 111558678.88506  27705548.812 7 110140566.40307
  25371629.267 7 133329132.06607
                  25371633.689 7  99564169.77207  25371632.949 7 108221847.71507
  25371631.425 7 102161470.98407  25371632.578 8 100862817.95108
  24341729.702 6 127916962.62906  99675711.00104  24341741.526 4  24341729.515 4
  24341742.259 6  24341740.678 6  95522633.59806

  28123130.526 6 147788081.14306
                  28123140.490 6 110361274.86206  28123136.091 6 119957885.97006
  28123138.459 6 113240252.09606  28123139.579 7 111800770.04807
  23253951.636 7 122200393.73207  95221135.02105  23253957.083 5  23253951.078 5
  23253958.084 7  23253956.282 7  91253591.74207

  22499355.086 7 118234992.08207  92131233.61405  22499359.173 5  22499354.644 5
  22499359.692 6

  26811206.558 6 140893881.77406
                  26811215.558 6 105213006.41006  26811213.276 6 114361949.48806
  26811213.728 7 107957685.80507  26811214.579 7 106585350.18007
 25  4 11  1 11 30.0000000  0 32G18R20G15E29G05G23R22R21G13G10R08R06
                                E33R23G24G26R07E13E26E15S33S31E07S35
                                G16E21E08G32E31G27G29E23
  20650732.685 8 108520650.76608  84561699.06207  20650734.431 7  20650732.471 7
  20650734.868 8  20650737.500 8  81038354.25108

  23219828.660 5 124166828.71005  96574240.66606
  23219843.585 6

  21043011.937 8 110582271.81308  86168258.17606  21043013.661 6  21043011.598 6
  21043014.116 7

  26438208.857 6 138934120.04706
                  26438218.516 7 103749767.41407  26438217.569 7 112771391.85407
  26438215.988 7 106456248.76607  26438217.128 7 105102903.16407
  25518930.010 6 134102968.66206 104495897.77904  25518936.809 4  25518929.724 4
  25518936.504 5

  20437223.050 8 107398788.74208  83687643.91407  20437225.053 7  20437222.818 7
  20437224.980 8  20437227.792 8  80200679.11408

  20504968.920 8 109457031.65908  85133327.02207
  20504973.595 7

  19745954.964 8 105664866.85808  82183949.75107
  19745962.109 7

  24032471.522 6 126291708.32006  98409245.79603  24032476.059 3  24032471.093 3


  22295318.947 7 117163004.04707  91296045.76706  22295323.911 6  22295318.608 6
  22295324.127 7  22295321.345 8  87492059.20608

  22482149.796 7 120391214.82807  93637782.82307
  22482161.180 7

  19941249.082 6 106410409.29906


  27348276.331 6 143716306.12206
                  27348282.801 6 107320724.92706  27348282.133 6 116652932.31006
  27348280.540 6 110120378.34806  27348281.824 7 108720554.71007
  24149245.180 6 129182200.97506


  23896568.952 6 125577447.15106  97852649.81904  23896577.653 4  23896568.689 4
  23896577.610 6  23896578.071 7  93775476.30607

  25081446.996 5 131803861.74405 102704339.12903  25081459.551 3  25081446.545 3
  25081459.068 6  25081458.522 6  98424985.13106

  19243773.333 8 103013911.28508  80122182.65507
  19243780.060 7

  24388567.275 7 128162866.53807
                  24388573.152 8  95706106.66008  24388570.759 7 104028345.52507
  24388570.992 8  98202772.15908  24388572.062 8  96954439.48408
  24073368.800 7 126506735.10307
                  24073371.790 8  94469523.49708  24073372.957 8 102684193.64708
  24073369.693 8  96933916.57708  24073370.696 8  95701725.61108
  28309931.855 5 148769589.45705
                  28309946.239 6 111094163.44106  28309941.935 6 120754529.15106
  28309943.187 6 113992267.09606  28309944.841 7 112543215.34607
  37105104.158 7 194988635.60607
                  37105104.048 6 145608406.37506

  36827869.479 7 193531781.89407
                  36827880.379 7 144520541.04807

  23787101.407 7 125002547.09107
                  23787107.400 8  93346368.18408  23787105.059 8 101462878.18808
  23787105.133 8  95781451.12608  23787106.094 8  94563910.72908
  36976722.063 7 194313990.57207
                  36976726.411 6 145104619.38706

  24219410.531 6 127273894.92406  99174490.50103  24219415.603 3  24219409.695 3


  27712653.212 6 145630910.78706
                  27712667.289 6 108750377.27106  27712663.909 6 118206932.11106
  27712665.114 6 111587337.00006  27712666.079 7 110168860.21507
  25375817.790 7 133351141.10507
                  25375821.855 7  99580605.09007  25375821.229 7 108239712.19007
  25375819.792 7 102178335.05307  25375820.762 8 100879467.64508
  24331494.910 6 127863175.99606  99633799.57504  24331506.125 4  24331494.723 4
  24331506.883 6  24331505.247 6  95482468.54006

  28122598.263 6 147785283.41206
                  28122607.996 6 110359185.64406  28122603.747 6 119955615.09806
  28122605.915 6 113238108.39906  28122607.161 7 111798653.59307
  23246001.832 7 122158618.56707  95188582.98505  23246007.540 5  23246001.278 5
  23246008.512 7  23246006.533 7  91222396.06007

  22509000.821 7 118285680.81507  92170731.27605  22509004.878 5  22509000.388 5
  22509005.322 6

  26815975.894 6 140918943.54606
                  26815984.672 6 105231721.31406  26815982.653 6 114382291.80206
  26815983.014 7 107976888.94007  26815983.734 7 106604309.20107
 25  4 11  1 11 45.0000000  0 32G18R20G15E29G05G23R22R21G13G10R08R06
                                E33R23G24G26R07E13E26E15S33S31E07S35
                                G16E21E08G32E31G27G29E23
  20650398.739 8 108518895.72008  84560331.49507  20650400.454 7  20650398.525 7
  20650400.818 8  20650403.540 8  81037043.66308

  23228509.682 5 124213258.24505  96610352.45506
  23228526.334 6

  21048928.627 8 110613366.57908  86192487.85506  21048930.785 6  21048928.283 6
  21048931.101 7

  26429657.856 6 138889185.15206
                  26429667.940 7 103716212.26907  26429666.604 6 112734918.82306
  26429664.954 7 106421818.26107  26429666.201 7 105068910.34007
  25527295.487 6 134146930.91106 104530154.07004  25527303.058 4  25527295.206 4
  25527302.461 5

  20437875.582 8 107402217.61908  83690315.77107  20437877.525 7  20437875.350 7
  20437877.763 8  20437880.309 8  80203239.64608

  20497439.500 8 109416836.82508  85102064.39707
  20497444.210 7

  19748219.981 8 105676987.92108  82193377.23707
  19748227.160 7

  24041566.745 6 126339501.17306  98446486.93403  24041570.807 3  24041566.312 3


  22290820.840 7 117139368.31007  91277628.34806  22290826.214 6  22290820.510 6
  22290826.081 7  22290823.575 8  87474409.18908

  22471299.506 7 120333106.78907  93592587.84607
  22471309.124 7

  19948157.012 6 106447272.51506


  27342621.220 6 143686588.73206
                  27342627.931 6 107298533.41906  27342627.099 6 116628811.07706
  27342625.617 7 110097607.92707  27342626.710 7 108698073.74407
  24138918.776 6 129126971.64306


  23889869.932 6 125542247.22206  97825221.37604  23889879.364 4  23889869.673 4
  23889879.454 6  23889879.657 7  93749190.73207

  25087165.516 6 131833913.50706 102727755.98003  25087178.103 3  25087165.034 3
  25087177.858 5  25087176.931 6  98447426.27606

  19240362.150 8 102995649.59808  80107979.14208
  19240368.813 8

  24390649.180 7 128173807.91907
                  24390655.241 8  95714277.16508  24390652.803 7 104037226.50707
  24390653.020 8  98211155.80908  24390654.134 8  96962716.56108
  24070240.121 7 126490293.61507
                  24070243.124 8  94457245.78008  24070244.186 7 102670848.30207
  24070240.972 8  96921318.57708  24070241.973 8  95689287.75308
  28315127.995 5 148796895.44805
                  28315142.118 6 111114554.28406  28315137.797 6 120776693.10906
  28315139.469 6 114013189.87506  28315141.010 7 112563872.15207
  37105108.862 7 194988655.11007
                  37105107.835 6 145608420.68306

  36827869.256 7 193531782.00807
                  36827880.374 7 144520541.08007

  23783549.000 7 124983879.60907
                  23783555.036 8  93332428.21208  23783552.682 7 101447726.03407
  23783552.769 8  95767147.50008  23783553.770 8  94549788.93008
  36976732.299 7 194314043.31707
                  36976736.548 6 145104658.65906

  24223352.120 6 127294606.06006  99190629.01603  24223356.426 3  24223351.293 3


  27719766.381 6 145668292.36406
                  27719781.231 6 108778291.97106  27719777.671 6 118237274.23606
  27719777.910 6 111615979.92806  27719779.437 7 110197139.02607
  25380022.793 7 133373239.67207
                  25380027.076 7  99597107.25607  25380026.467 7 108257649.34007
  25380025.122 7 102195267.71607  25380025.988 8 100896185.06008
  24321262.486 6 127809408.35806  99591902.94004  24321274.180 4  24321262.303 4
  24321274.838 6  24321273.733 6  95442317.64406

  28122084.326 6 147782581.71806
                  28122094.100 6 110357168.14906  28122089.676 6 119953422.16606
  28122091.872 6 113236038.27706  28122093.027 7 111796609.78607
  23238069.070 7 122116933.22507  95156100.95005  23238075.293 5  23238068.512 5
  23238075.522 7  23238073.921 7  91191267.44207

  22518659.648 7 118336436.67107  92210281.24705  22518663.413 5  22518659.210 5
  22518663.681 6

  26820756.274 6 140944064.29406
                  26820765.089 6 105250480.27606  26820762.658 6 114402681.99906
  26820763.433 7 107996137.27307  26820764.077 7 106623312.84607
 25  4 11  1 12  0.0000000  0 32G18R20G15E29G05G23R22R21G13G10R08R06
                                E33R23G24G26R07E13E26E15S33S31E07S35
                                G16E21E08G32E31G27G29E23
  20650077.610 8 108517208.23208  84559016.57407  20650079.324 7  20650077.396 7
  20650079.631 8  20650082.402 8  81035783.53308

  23237209.361 5 124259758.93105  96646519.54506
  23237221.290 6

  21054869.761 8 110644586.66908  86216815.19206  21054871.774 6  21054869.413 6
  21054871.925 7

  26421110.439 6 138844268.52906
                  26421120.093 7 103682670.78707  26421119.494 6 112698460.63206
  26421117.636 7 106387401.76707  26421118.712 7 105034931.35207
  25535656.451 6 134190866.61506 104564389.69604  25535663.673 4  25535656.165 4
  25535664.099 5

  20438539.553 8 107405706.42908  83693034.32807  20438541.369 7  20438539.317 7
  20438541.635 8  20438544.251 8  80205844.93008

  20489919.094 8 109376696.96508  85070844.52407
  20489924.318 7

  19750510.755 8 105689241.28008  82202907.60607
  19750516.862 7

  24050675.462 6 126387369.99506  98483787.27203  24050680.142 3  24050675.029 3


  22286333.890 7 117115787.35207  91259253.62306  22286338.883 6  22286333.560 6
  22286339.092 7  22286336.205 8  87456800.08908

  22460460.826 7 120275072.60907  93547450.33607
  22460471.503 7

  19955088.392 6 106484260.80606


  27336962.486 6 143656852.48606
                  27336969.293 6 107276327.85506  27336968.655 6 116604674.56806
  27336966.859 7 110074823.08107  27336967.975 7 108675578.54107
  24128588.709 6 129071706.69306


  23883180.833 6 125507095.20206  97797830.27004  23883189.892 4  23883180.579 4
  23883190.349 6  23883190.964 7  93722940.95007

  25092887.805 6 131863985.20606 102751188.37403  25092899.969 3  25092887.345 3
  25092900.968 6  25092899.809 6  98469882.29206

  19236983.243 8 102977561.89508  80093910.95907
  19236989.515 7

  24392737.127 7 128184779.44107
                  24392743.071 8  95722470.17908  24392740.677 7 104046131.96307
  24392740.868 8  98219562.56008  24392741.948 8  96971016.44408
  24067113.331 7 126473863.08407
                  24067116.475 8  94444976.25508  24067117.582 8 102657511.84708
  24067114.316 8  96908728.96908  24067115.334 8  95676858.18608
  28320328.247 5 148824221.83905
                  28320342.654 6 111134960.37106  28320337.923 6 120798873.62806
  28320339.496 6 114034128.29306  28320341.051 7 112584544.40707
  37105112.354 7 194988671.95807
                  37105110.992 6 145608433.23706

  36827871.054 7 193531779.17807
                  36827879.851 7 144520538.78407

  23780014.786 7 124965305.98807
                  23780020.584 8  93318558.32308  23780018.225 8 101432650.06008
  23780018.292 8  95752915.78708  23780019.310 8  94535738.12908
  36976741.828 7 194314093.88407
                  36976746.064 6 145104696.49006

  24227310.501 6 127315409.01406  99206839.09203  24227314.635 3  24227309.661 3


  27726875.547 6 145705650.93006
                  27726890.360 6 108806189.47906  27726886.950 6 118267597.66506
  27726887.097 6 111644605.20706  27726888.875 7 110225400.41907
  25384244.447 7 133395424.68207
                  25384248.727 7  99613673.98107  25384247.937 7 108275656.65207
  25384246.670 7 102212266.61707  25384247.660 8 100912967.87208
  24311034.064 6 127755657.03106  99550019.01804  24311045.688 4  24311033.850 4
  24311045.787 6  24311044.849 6  95402178.93706

  28121587.826 6 147779973.08006
                  28121597.648 6 110355220.15506  28121593.312 6 119951304.77306
  28121595.491 6 113234039.44706  28121596.610 7 111794636.37107
  23230153.633 7 122075335.04807  95123686.83305  23230159.256 5  23230153.075 5
  23230159.809 7  23230158.162 7  91160203.92207

  22528330.144 7 118387256.40507  92249880.98605  22528334.017 5  22528329.724 5
  22528334.512 6

  26825547.162 6 140969240.83406
                  26825555.833 6 105269280.89406  26825553.927 6 114423117.46206
  26825554.194 7 108015428.34407  26825555.036 7 106642358.69207
 25  4 11  1 12 15.0000000  0 32G18R20G15E29G05G23R22R21G13G10R08R06
                                E33R23G24G26R07E13E26E15S33S31E07S35
                                G16E21E08G32E31G27G29E23
  20649770.098 8 108515592.76108  84557757.76307  20649771.927 7  20649769.884 7
  20649772.143 8  20649774.977 8  81034577.17308

  23245914.903 5 124306334.66405  96682745.03806
  23245932.222 6

  21060835.536 8 110675935.90908  86241243.16106  21060837.348 6  21060835.192 6
  21060837.722 7

  26412567.391 6 138799374.73006
                  26412577.246 7 103649146.32607  26412576.304 6 112662020.94406
  26412574.240 7 106353002.72507  26412575.606 7 105000969.59907
  25544012.331 5 134234780.18005 104598608.04604  25544020.358 4  25544012.045 4
  25544019.887 5

  20439215.537 8 107409259.31908  83695802.81707  20439217.411 7  20439215.305 7
  20439217.530 8  20439220.309 8  80208498.06708

  20482410.737 8 109336616.83108  85039671.10607
  20482416.134 7

  19752825.705 8 105701631.76408  82212544.65508
  19752832.491 8

  24059799.619 6 126435318.71806  98521149.88703  24059804.394 3  24059799.181 3


  22281857.659 7 117092265.41907  91240924.88606  22281862.775 6  22281857.329 6
  22281862.612 7  22281860.132 8  87439235.06008

  22449638.042 7 120217116.80307  93502373.77107
  22449648.568 7

  19962044.199 6 106521378.05306


  27331301.142 6 143627101.73706
                  27331307.622 6 107254111.43106  27331307.266 6 116580526.27706
  27331305.377 7 110052027.08007  27331306.539 7 108653072.33107
  24118250.823 6 129016410.80006


  23876501.962 6 125471995.83806  97770480.19004  23876510.603 4  23876501.721 4
  23876511.716 6  23876511.344 7  93696730.46307

  25098615.177 5 131894080.76505 102774639.35003  25098627.044 3  25098614.695 3
  25098626.677 5  25098626.638 6  98492356.10606

  19233638.113 8 102959652.38508  80079981.35807
  19233643.901 7

  24394831.311 7 128195785.48007
                  24394837.466 8  95730688.97008  24394835.057 7 104055065.43307
  24394835.246 8  98227995.75308  24394836.322 8  96979342.43508
  24063989.626 7 126457447.90907
                  24063992.823 8  94432718.18108  24063993.880 8 102644187.84708
  24063990.601 8  96896151.12108  24063991.602 8  95664440.22508
  28325533.298 5 148851572.99605
                  28325546.941 6 111155384.95706  28325541.916 6 120821074.25106
  28325545.145 6 114055085.68706  28325545.863 7 112605235.39407
  37105114.004 7 194988690.81607
                  37105114.525 6 145608447.53706

  36827869.184 7 193531778.98007
                  36827879.739 7 144520538.96107

  23776498.748 7 124946830.59907
                  23776504.793 8  93304761.79308  23776502.415 8 101417653.82108
  23776502.510 8  95738759.34708  23776503.541 8  94521761.64408
  36976752.412 7 194314146.45407
                  36976756.040 6 145104735.85406

  24231287.106 6 127336307.85606  99223123.86903  24231291.503 3  24231286.257 3


  27733980.996 6 145742990.52506
                  27733995.772 6 108834072.81506  27733992.576 6 118297905.69406
  27733993.307 6 111673215.95806  27733994.538 7 110253647.46407
  25388483.331 7 133417700.23707
                  25388487.498 7  99630308.32207  25388486.935 7 108293737.46107
  25388485.579 7 102229334.89807  25388486.566 8 100929819.18108
  24300809.626 6 127701926.62606  99508151.40904  24300821.122 4  24300809.430 4
  24300820.788 6  24300820.246 6  95362055.86906

  28121110.068 6 147777461.75906
                  28121119.848 6 110353344.83706  28121115.836 6 119949266.37506
  28121117.511 6 113232115.21306  28121118.741 7 111792736.59607
  23222254.991 7 122033828.65407  95091344.23505  23222260.689 5  23222254.428 5
  23222261.242 7  23222259.796 7  91129208.94607

  22538014.043 7 118438144.01307  92289533.61905  22538017.664 5  22538013.628 5
  22538018.131 6

  26830349.252 6 140994477.23006
                  26830358.345 6 105288126.21006  26830356.234 6 114443601.53406
  26830356.721 7 108034765.29107  26830357.425 7 106661449.82507
 25  4 11  1 12 30.0000000  0 32G18R20G15E29G05G23R22R21G13G10R08R06
                                E33R23G24G26R07E13E26E15S33S31E07S35
                                G16E21E08G32E31G27G29E23
  20649476.004 8 108514046.54108  84556552.91807  20649477.668 7  20649475.794 7
  20649477.960 8  20649480.773 8  81033422.53308

  23254640.383 5 124352982.61105  96719026.71106
  23254656.372 6

  21066824.877 8 110707411.07608  86265769.25606  21066826.796 6  21066824.524 6
  21066827.105 7

  26404028.264 6 138754501.00106
                  26404037.799 7 103615636.85607  26404036.569 6 112625597.56106
  26404035.005 7 106318619.07907  26404036.296 7 104967023.04307
  25552364.270 6 134278668.63906 104632806.85304  25552371.931 4  25552363.984 4
  25552371.357 5

  20439903.270 8 107412873.23608  83698618.86307  20439905.106 7  20439903.034 7
  20439905.134 8  20439908.041 8  80211196.77108

  20474913.462 8 109296593.86208  85008542.15507
  20474918.897 7

  19755166.478 8 105714156.44808  82222286.06308
  19755172.938 8

  24068938.683 6 126483343.98906  98558572.11803  24068943.796 3  24068938.201 3


  22277392.272 7 117068799.51507  91222639.80906  22277397.270 6  22277391.946 6
  22277396.918 7  22277394.661 8  87421711.86708

  22438829.937 7 120159237.10407  93457356.37306
  22438839.552 6

  19969023.851 6 106558620.69906


  27325636.222 6 143597333.54506
                  27325642.910 6 107231881.97906  27325642.342 6 116556363.80806
  27325640.616 7 110029217.73507  27325641.802 7 108630552.93307
  24107907.433 6 128961081.02606


  23869832.302 6 125436946.53606  97743169.12104  23869841.263 4  23869832.070 4
  23869841.066 6  23869841.764 7  93670557.38807

  25104346.067 6 131924196.85606 102798106.34903  25104357.947 3  25104345.598 3
  25104358.917 6  25104357.668 6  98514845.31406

  19230324.894 8 102941918.54808  80066188.39507
  19230331.157 7

  24396931.859 7 128206823.20707
                  24396937.880 8  95738931.42508  24396935.416 7 104064024.62807
  24396935.660 8  98236453.22708  24396936.737 8  96987692.40008
  24060868.384 7 126441045.24707
                  24060871.455 8  94420469.45908  24060872.543 8 102630874.01108
  24060869.206 8  96883582.86008  24060870.253 8  95652031.73308
  28330741.976 5 148878946.04905
                  28330756.244 6 111175825.85306  28330750.962 6 120843292.62106
  28330753.019 6 114076059.82306  28330754.588 7 112625942.90507
  37105117.935 7 194988708.69307
                  37105117.995 6 145608460.71806

  36827869.685 7 193531777.73307
                  36827879.520 7 144520538.04707

  23773001.361 7 124928450.64407
                  23773007.207 8  93291036.53808  23773004.921 8 101402735.05508
  23773004.929 8  95724676.03008  23773005.941 8  94507857.35808
  36976761.767 7 194314197.57407
                  36976765.923 6 145104773.88006

  24235282.049 6 127357299.04906  99239480.61903  24235286.500 3  24235281.209 3


  27741082.194 6 145780307.98506
                  27741096.802 6 108861939.65906  27741093.441 6 118328195.75406
  27741094.619 6 111701809.75006  27741095.747 7 110281877.78307
  25392738.765 7 133440063.28907
                  25392743.206 7  99647007.99607  25392742.295 7 108311889.27707
  25392741.167 7 102246470.21507  25392742.102 8 100946736.67708
  24290588.037 6 127648214.53906  99466298.05504  24290599.842 4  24290587.881 4
  24290600.387 6  24290598.327 6  95321946.45006

  28120650.182 6 147775044.82906
                  28120659.785 6 110351539.99806  28120655.328 6 119947304.58806
  28120657.764 6 113230263.27806  28120658.826 7 111790908.21007
  23214373.947 7 121992411.47807  95059071.16205  23214379.164 5  23214373.371 5
  23214379.961 7  23214378.319 7  91098280.59407

  22547709.588 7 118489096.25207  92329236.61205  22547713.698 5  22547709.164 5
  22547713.696 6

  26835163.170 6 141019770.30906
                  26835171.218 6 105307013.86106  26835169.603 6 114464131.58506
  26835169.796 7 108054145.66507  26835170.581 7 106680583.83907
 25  4 11  1 12 45.0000000  0 32G18R20G15E29G05G23R22R21G13G10R08R06
                                E33R23G24G26R07E13E26E15S33S31E07S35
                                G16E21E08G32E31G27G29E23
  20649194.924 8 108512569.65908  84555402.10407  20649196.582 7  20649194.710 7
  20649196.936 8  20649199.721 8  81032319.66908

  23263377.810 5 124399702.54305  96755364.35306
  23263392.516 6

  21072838.600 8 110739011.92808  86290393.28906  21072840.207 6  21072838.252 6
  21072840.422 7

  26395492.262 6 138709647.50506
                  26395502.241 7 103582142.50307  26395501.187 6 112589190.60106
  26395499.717 7 106284250.94807  26395500.854 7 104933091.80107
  25560711.126 5 134322532.09205 104666986.18104  25560718.519 4  25560710.845 4
  25560719.390 5

  20440602.655 8 107416547.96008  83701482.29007  20440604.370 7  20440602.423 7
  20440604.387 8  20440607.301 8  80213940.89308

  20467426.360 8 109256628.38108  84977457.92607
  20467431.203 7

  19757531.569 8 105726815.38108  82232131.89208
  19757538.599 8

  24078092.523 6 126531445.35506  98596053.66403  24078097.444 3  24078092.041 3


  22272937.604 7 117045389.49507  91204398.27306  22272942.470 6  22272937.278 6
  22272942.372 7  22272939.822 8  87404230.40108

  22428035.952 7 120101433.66207  93412398.31607
  22428045.814 7

  19976025.925 6 106595988.44806


  27319968.119 6 143567547.82006
                  27319974.790 6 107209639.45306  27319974.570 6 116532187.13506
  27319972.572 6 110006394.96506  27319973.699 7 108608020.28107
  24097558.467 6 128905717.60106


  23863172.078 6 125401947.74406  97715897.42904  23863180.933 4  23863171.837 4
  23863181.372 6  23863181.488 7  93644422.02807

  25110081.549 6 131954333.15306 102821589.07903  25110093.152 3  25110081.080 3
  25110092.890 5  25110092.627 6  98537349.58106

  19227044.533 8 102924360.21508  80052531.94908
  19227051.314 8

  24399038.403 7 128217892.64507
                  24399044.284 8  95747197.56108  24399041.873 7 104073009.55307
  24399042.070 8  98244935.00508  24399043.180 8  96996066.35708
  24057749.369 7 126424655.12707
                  24057752.484 8  94408230.10508  24057753.604 8 102617570.35808
  24057750.391 8  96871024.21508  24057751.305 8  95639632.73408
  28335954.978 5 148906340.91305
                  28335969.360 6 111196283.07106  28335964.414 6 120865528.72006
  28335966.110 6 114097050.69906  28335967.749 7 112646666.95507
  37105122.147 7 194988725.08007
                  37105121.152 6 145608472.78606

  36827869.506 7 193531774.38207
                  36827878.943 7 144520535.21907

  23769521.817 7 124910166.16607
                  23769527.710 8  93277382.56908  23769525.382 8 101387893.76908
  23769525.449 8  95710665.87408  23769526.496 8  94494025.29508
  36976772.758 7 194314247.74507
                  36976775.407 6 145104811.29906

  24239294.153 6 127378382.27306  99255909.07603  24239298.632 3  24239293.317 3


  27748179.386 6 145817603.07206
                  27748194.545 6 108889789.76406  27748190.687 6 118358467.65506
  27748191.110 6 111730386.40006  27748192.878 7 110310091.15907
  25397011.030 7 133462513.57307
                  25397015.399 7  99663772.81507  25397014.723 7 108330111.91307
  25397013.093 7 102263672.37907  25397014.250 8 100963720.17008
  24280370.469 6 127594520.99806  99424459.16704  24280382.122 4  24280370.309 4
  24280382.247 6  24280381.172 6  95281850.88306

  28120208.234 6 147772722.18806
                  28120217.858 6 110349805.58006  28120213.465 6 119945419.32406
  28120215.681 6 113228483.61906  28120216.869 7 111789151.17107
  23206509.179 7 121951083.76407  95026867.79805  23206514.800 5  23206508.580 5
  23206515.283 7  23206513.702 7  91067419.04807

  22557418.036 7 118540112.59707  92368989.55405  22557421.873 5  22557417.616 5
  22557421.510 6

  26839986.896 6 141045119.79106
                  26839995.364 6 105325943.63606  26839993.177 6 114484707.44306
  26839993.768 7 108073569.25807  26839994.474 7 106699760.51907
 25  4 11  1 13  0.0000000  0 32G18R20G15E29G05G23R22R21G13G10R08R06
                                E33R23G24G26R07E13E26E15S33S31E07S35
                                G16E21E08G32E31G27G29E23
  20648927.798 8 108511166.04908  84554308.38507  20648929.456 7  20648927.579 7
  20648929.784 8  20648932.680 8  81031271.51808

  23272128.752 5 124446498.18605  96791760.91706
  23272143.779 6

  21078876.251 8 110770741.93408  86315117.96206  21078878.270 6  21078875.907 6
  21078878.284 7

  26386961.360 6 138664818.24806
                  26386971.459 7 103548666.24607  26386970.716 7 112552803.32107
  26386968.863 7 106249901.38907  26386970.040 7 104899178.89307
  25569054.184 5 134366374.16805 104701148.83903  25569061.297 3  25569053.898 3
  25569061.193 5

  20441314.050 8 107420287.12908  83704395.93407  20441315.877 7  20441313.818 7
  20441316.256 8  20441318.829 8  80216733.14108

  20459950.910 8 109216724.54508  84946421.61107
  20459956.352 7

  19759923.311 8 105739612.63708  82242085.31207
  19759930.152 7

  24087260.773 6 126579626.19406  98633597.14203  24087265.831 3  24087260.295 3


  22268493.832 7 117022039.13107  91186203.22606  22268499.032 6  22268493.497 6
  22268499.162 7  22268496.319 8  87386793.49208

  22417255.219 7 120043710.49107  93367502.68107
  22417265.808 7

  19983053.260 6 106633484.60006


  27314297.479 6 143537748.40606
                  27314304.228 6 107187386.69406  27314303.529 6 116507999.32606
  27314301.879 7 109983561.68807  27314303.037 7 108585477.26207
  24087202.390 7 128850324.67807


  23856521.807 6 125367003.60706  97688668.31404  23856531.121 4  23856521.566 4
  23856531.317 6  23856531.660 7  93618327.47707

  25115820.747 6 131984493.05706 102845090.18703  25115832.618 3  25115820.251 3
  25115832.528 6  25115832.358 6  98559871.46406

  19223797.480 8 102906981.22608  80039014.97408
  19223804.554 8

  24401151.548 7 128228997.70007
                  24401157.539 8  95755490.28908  24401155.155 7 104082023.39107
  24401155.358 8  98253444.06008  24401156.410 8  97004467.24908
  24054633.566 7 126408281.43407
                  24054636.660 8  94396003.00508  24054637.828 8 102604280.02708
  24054634.534 8  96858478.15108  24054635.483 8  95627246.15108
  28341172.712 5 148933761.42305
                  28341187.040 6 111216759.43706  28341182.548 6 120887785.64606
  28341184.186 6 114118061.23106  28341185.506 7 112667410.40707
  37105125.085 7 194988744.94907
                  37105124.921 6 145608487.98106

  36827869.131 7 193531774.70307
                  36827878.876 7 144520535.70407

  23766061.263 7 124891981.04207
                  23766067.178 8  93263802.80208  23766064.853 8 101373133.14208
  23766064.934 8  95696731.84908  23766065.965 8  94480268.39908
  36976782.448 7 194314301.06607
                  36976785.589 6 145104851.29106

  24243324.443 6 127399561.07406  99272412.01903  24243328.754 3  24243323.612 3


  27755273.285 6 145854879.31506
                  27755287.701 6 108917625.78606  27755284.350 6 118388724.25306
  27755285.200 6 111758948.61306  27755286.593 7 110338290.27607
  25401300.700 7 133485054.72907
                  25401304.882 7  99680605.49707  25401304.108 7 108348408.30707
  25401302.756 7 102280944.17007  25401303.712 8 100980772.40708
  24270157.125 6 127540850.06806  99382637.87404  24270167.979 4  24270156.969 4
  24270168.982 6  24270167.289 6  95241772.19106

  28119785.274 6 147770497.56406
                  28119794.508 6 110348144.34206  28119790.315 6 119943613.65006
  28119792.374 6 113226779.03606  28119793.500 7 111787468.26407
  23198662.692 7 121909849.61307  94994737.33805  23198668.096 5  23198662.084 5
  23198668.775 7  23198667.204 7  91036627.36207

  22567139.110 7 118591196.61207  92408795.22905  22567142.854 5  22567138.677 5
  22567143.498 6

  26844821.853 6 141070529.21206
                  26844830.697 6 105344918.15506  26844828.321 6 114505331.94706
  26844828.858 7 108093038.78007  26844829.773 7 106718982.54207
 25  4 11  1 13 15.0000000  0 32G18R20G15E29G05G23R22R21G13G10R08R06
                                E33R23G24G26R07E13E26E15S33S31E07S35
                                G16E21E08G32E31G27G29E23
  20648674.206 8 108509834.92908  84553271.14507  20648676.143 7  20648673.987 7
  20648676.735 8  20648679.353 8  81030277.50008

  23280893.037 5 124493368.71105  96828215.71706
  23280908.496 6

  21084938.790 8 110802599.86008  86339942.31106  21084940.556 6  21084938.442 6
  21084940.693 7

  26378435.641 6 138620012.49106
                  26378445.230 7 103515207.53207  26378444.048 6 112516435.09706
  26378442.451 7 106215569.82507  26378443.666 7 104865283.75307
  25577392.681 5 134410193.62805 104735293.85504  25577400.014 4  25577392.395 4
  25577399.696 5

  20442037.729 8 107424089.66408  83707358.95007  20442039.492 7  20442037.497 7
  20442039.744 8  20442042.451 8  80219572.69708

  20452487.021 8 109176881.85008  84915432.86507
  20452492.557 7

  19762340.188 8 105752547.24808  82252145.56407
  19762347.238 7

  24096444.610 6 126627885.28606  98671201.58303  24096449.457 3  24096444.128 3


  22264061.706 7 116998747.40607  91168053.86206  22264066.791 6  22264061.362 6
  22264066.721 7  22264064.034 7  87369400.36507

  22406490.586 7 119986067.07907  93322669.08807
  22406501.324 7

  19990103.939 6 106671107.65606


  27308623.508 6 143507934.36006
                  27308630.717 6 107165123.00106  27308630.312 6 116483799.64706
  27308628.429 7 109960717.19507  27308629.563 7 108562923.17007
  24076841.545 6 128794901.34806


  23849883.080 6 125332113.57506  97661481.37004  23849891.736 4  23849882.866 4
  23849892.475 6  23849892.071 7  93592273.34807

  25121564.162 6 132014675.32906 102868608.73703  25121576.180 3  25121563.693 3
  25121576.131 5  25121575.545 6  98582410.02406

  19220584.858 8 102889780.52908  80025636.68508
  19220591.364 8

  24403271.237 7 128240137.47607
                  24403277.329 8  95763808.95108  24403274.983 7 104091065.42407
  24403275.170 8  98261979.73208  24403276.228 8  97012894.41508
  24051520.644 7 126391923.29307
                  24051523.778 8  94383787.53508  24051524.964 8 102591002.33108
  24051521.634 8  96845944.00808  24051522.630 8  95614871.34608
  28346395.181 5 148961206.67205
                  28346409.884 6 111237254.27206  28346405.065 6 120910062.63206
  28346406.789 6 114139090.71306  28346408.334 7 112688172.56807
  37105131.274 7 194988765.79707
                  37105128.852 6 145608503.42006

  36827870.280 7 193531776.32207
                  36827879.109 7 144520536.88607

  23762619.716 7 124873894.45707
                  23762625.373 8  93250296.60608  23762623.089 8 101358452.48808
  23762623.134 8  95682873.31708  23762624.193 8  94466586.03508
  36976792.232 7 194314356.07907
                  36976795.967 6 145104892.37306

  24247372.040 6 127420834.15206  99288988.41103  24247376.650 3  24247371.173 3


  27762362.632 6 145892135.47606
                  27762377.293 6 108945446.84306  27762373.967 6 118418964.58406
  27762374.494 6 111787495.44506  27762376.078 7 110366474.21907
  25405606.962 7 133507685.65407
                  25405611.265 7  99697505.19807  25405610.538 7 108366777.54607
  25405609.478 7 102298284.73207  25405610.233 8 100997892.53908
  24259948.449 6 127487201.10406  99340833.70704  24259958.496 4  24259948.329 4
  24259959.879 6  24259958.273 6  95201709.91906

  28119380.045 6 147768370.05306
                  28119389.648 6 110346555.62206  28119385.936 6 119941886.77006
  28119387.811 6 113225148.86506  28119388.621 7 111785858.81707
  23190833.461 7 121868708.38507  94962679.28405  23190839.165 5  23190832.849 5
  23190839.489 7  23190838.127 7  91005905.07607

  22576872.505 7 118642347.11707  92448652.71005  22576876.485 5  22576872.067 5
  22576876.864 6

  26849668.368 6 141095997.37006
                  26849677.084 6 105363936.54406  26849674.973 6 114526004.12506
  26849675.504 7 108112553.31307  26849676.234 7 106738249.00007
 25  4 11  1 13 30.0000000  0 32G18R20G15E29G05G23R22R21G13G10R08R06
                                E33R23G24G26R07E13E26E15S33S31E07S35
                                G16E21E08G32E31G27G29E23
  20648433.774 8 108508569.56608  84552285.15307  20648435.355 7  20648433.560 7
  20648435.759 8  20648438.531 8  81029332.59208

  23289671.455 5 124540306.59805  96864722.87706
  23289686.694 6

  21091024.173 8 110834578.42708  86364860.66706  21091025.885 6  21091023.825 6
  21091026.472 7

  26369912.635 6 138575223.58006
                  26369922.061 7 103481761.39207  26369921.137 6 112480080.55306
  26369919.281 7 106181251.16007  26369920.508 7 104831401.35007
  25585725.512 5 134453983.82305 104769416.09603  25585732.802 3  25585725.213 3
  25585732.884 5

  20442771.796 8 107427948.53108  83710365.86207  20442773.782 7  20442771.560 7
  20442773.838 8  20442776.729 8  80222454.32208

  20445033.266 8 109137093.70708  84884486.56507
  20445038.657 7

  19764782.024 8 105765612.31008  82262307.26507
  19764788.433 7

  24105641.095 6 126676215.45206  98708861.40703  24105646.708 3  24105640.590 3


  22259639.492 7 116975507.34307  91149944.76106  22259644.419 6  22259639.162 6
  22259643.954 7  22259641.448 7  87352045.81407

  22395740.247 7 119928496.92507  93277892.47507
  22395750.461 7

  19997176.238 6 106708850.24206


  27302946.644 6 143478098.79806
                  27302953.368 7 107142843.26507  27302952.800 6 116459582.50806
  27302950.986 7 109937856.23207  27302952.016 7 108540352.81807
  24066473.680 6 128739440.99306


  23843252.697 6 125297271.17006  97634331.52704  23843261.531 4  23843252.483 4
  23843261.701 6  23843261.733 7  93566254.77507

  25127310.058 5 132044872.64505 102892139.03503  25127323.110 3  25127309.589 3
  25127323.089 5  25127322.289 6  98604959.86306

  19217403.606 8 102872751.33408  80012391.77408
  19217410.038 8

  24405396.585 7 128251305.20107
                  24405402.489 8  95772148.47308  24405399.944 7 104100130.12007
  24405400.268 8  98270536.80608  24405401.375 8  97021342.71408
  24048409.573 7 126375573.93707
                  24048412.582 8  94371578.61208  24048413.740 8 102577731.76208
  24048410.379 8  96833416.60008  24048411.422 8  95602503.18008
  28351620.999 5 148988669.82405
                  28351635.644 6 111257762.45906  28351632.093 6 120932354.16906
  28351633.133 6 114160133.91006  28351634.476 7 112708948.25907
  37105134.422 7 194988781.51207
                  37105131.821 6 145608515.05106

  36827869.775 7 193531772.80907
                  36827878.630 7 144520534.25507

  23759195.300 7 124855899.59707
                  23759201.120 8  93236858.92408  23759198.838 8 101343846.29708
  23759198.853 8  95669085.07908  23759199.865 8  94452973.07608
  36976801.247 7 194314405.30907
                  36976805.456 6 145104929.02806

  24251437.333 6 127442194.47706  99305632.79203  24251441.212 3  24251436.457 3


  27769447.337 6 145929364.53506
                  27769462.240 6 108973247.65606  27769458.866 6 118449182.89806
  27769459.103 6 111816021.49006  27769460.608 7 110394637.65207
  25409929.333 7 133530399.27807
                  25409933.602 7  99714466.67007  25409932.783 7 108385213.93907
  25409931.567 7 102315688.68307  25409932.477 8 101015075.25008
  24249740.986 6 127433567.54006  99299041.53604  24249752.187 4  24249740.861 4
  24249753.113 6  24249751.768 6  95161659.15406

  28118992.410 6 147766332.66606
                  28119001.843 6 110345034.20706  28118998.423 6 119940233.05406
  28118999.954 6 113223587.77006  28119000.909 7 111784317.56507
  23183021.766 7 121827653.52707  94930688.53905  23183026.785 5  23183021.158 5
  23183026.943 7  23183025.610 7  90975247.28907

  22586617.837 7 118693556.89607  92488556.38805  22586621.465 5  22586617.417 5
  22586621.842 6

  26854524.776 6 141121517.17606
                  26854533.263 6 105382993.50506  26854531.433 6 114546718.22806
  26854531.810 7 108132107.40907  26854532.559 7 106757554.52707
 25  4 11  1 13 45.0000000  0 32G18R20G15E29G05G23R22R21G13G10R08R06
                                E33R23G24G26R07E13E26E15S33S31E07S35
                                G16E21E08G32E31G27G29E23
  20648207.230 8 108507380.33308  84551358.47607  20648209.060 7  20648207.016 7
  20648209.301 8  20648212.252 8  81028444.53108

  23298465.019 5 124587321.51305  96901289.94107
  23298479.211 7

  21097134.437 8 110866687.60808  86389880.80106  21097136.021 6  21097134.098 6
  21097136.367 7

  26361394.560 6 138530461.91806
                  26361404.002 7 103448335.62007  26361402.786 6 112443748.13806
  26361401.379 7 106146953.39207  26361402.550 7 104797539.58207
  25594054.673 5 134497754.65305 104803523.26704  25594061.937 4  25594054.378 4
  25594062.236 5

  20443519.082 8 107431873.78108  83713424.50806  20443520.726 6  20443518.846 6
  20443520.816 8  20443523.677 8  80225385.52508

  20437591.878 8 109097370.82108  84853590.99407
  20437597.253 7

  19767249.949 8 105778818.47808  82272578.72507
  19767256.557 7

  24114853.465 6 126724626.49306  98746584.28603  24114858.676 3  24114852.947 3


  22255228.395 7 116952329.12507  91131883.84906  22255233.744 6  22255228.056 6
  22255233.411 7  22255230.830 8  87334737.45508

  22385004.141 7 119871010.70207  93233181.11106
  22385014.100 6

  20004273.681 6 106746722.11506


  27297266.862 6 143448251.96206
                  27297273.614 7 107120555.08207  27297272.834 6 116435356.22106
  27297271.120 7 109914986.61507  27297272.313 7 108517773.91907
  24056102.961 6 128683954.36406


  23836633.456 6 125262487.01306  97607227.07504  23836642.345 4  23836633.228 4
  23836642.201 6  23836642.537 7  93540279.69507

  25133061.992 6 132075094.94806 102915688.76803  25133074.126 3  25133061.523 3
  25133073.979 5  25133073.520 6  98627528.34006

  19214256.124 8 102855903.92908  79999288.25207
  19214262.868 7

  24407528.882 7 128262511.16407
                  24407534.948 8  95780516.56408  24407532.373 7 104109225.87407
  24407532.702 8  98279123.19708  24407533.807 8  97029819.95508
  24045301.986 7 126359243.64507
                  24045305.022 8  94359383.93308  24045306.194 8 102564476.67008
  24045302.865 8  96820903.79008  24045303.855 8  95590149.43408
  28356853.066 5 149016161.12805
                  28356867.067 6 111278291.69006  28356862.681 6 120954668.49706
  28356864.345 6 114181198.66806  28356865.774 7 112729745.25407
  37105137.552 7 194988802.73007
                  37105135.810 6 145608531.11206

  36827868.652 7 193531773.72507
                  36827878.827 7 144520534.87307

  23755790.339 7 124838006.80407
                  23755796.226 8  93223497.44708  23755793.945 8 101329322.94108
  23755793.887 8  95655375.03908  23755794.961 8  94439437.31708
  36976812.113 7 194314460.04107
                  36976815.643 6 145104969.99306

  24255520.248 6 127463651.73906  99322352.70803  24255524.984 3  24255519.363 3


  27776528.492 6 145966576.42006
                  27776543.615 6 109001035.61606  27776540.055 6 118479387.23706
  27776540.366 6 111844534.39506  27776542.053 7 110422788.08107
  25414269.184 7 133553205.68107
                  25414273.484 7  99731497.42007  25414272.683 7 108403725.62407
  25414271.425 7 102333163.71807  25414272.406 8 101032328.14308
  24239540.201 6 127379959.90406  99257269.55604  24239550.860 4  24239540.081 4
  24239551.619 6  24239550.404 6  95121627.71206

  28118623.811 6 147764395.61706
                  28118633.112 6 110343587.71306  28118629.366 6 119938660.78006
  28118631.399 6 113222103.54706  28118632.296 7 111782852.20507
  23175227.443 7 121786695.56907  94898773.29905  23175232.809 5  23175226.853 5
  23175233.431 7  23175231.583 7  90944661.85807

  22596375.702 7 118744835.74507  92528513.87605  22596379.373 5  22596375.269 5
  22596379.745 6

  26859392.655 6 141147098.57006
                  26859401.455 6 105402096.46806  26859398.993 6 114567482.31806
  26859400.036 7 108151708.71307  26859400.609 7 106776906.66207
 25  4 11  1 14  0.0000000  0 32G18R20G15E29G05G23R22R21G13G10R08R06
                                E33R23G24G26R07E13E26E15S33S31E07S35
                                G16E21E08G32E31G27G29E23
  20647994.350 8 108506261.11808  84550486.36207  20647996.076 7  20647994.140 7
  20647996.501 8  20647999.276 8  81027608.75308

  23307269.644 5 124634407.86405  96937912.58806
  23307284.136 6

  21103267.943 8 110898920.80208  86414997.56706  21103269.746 6  21103267.617 6
  21103270.258 7

  26352880.652 6 138485721.45706
                  26352890.058 7 103414925.67107  26352889.016 6 112407432.92806
  26352887.306 7 106112671.86607  26352888.576 7 104763693.84407
  25602379.140 6 134541499.92706 104837610.50904  25602386.775 4  25602378.836 4
  25602386.203 5

  20444277.113 8 107435859.03908  83716529.90806  20444279.047 6  20444276.877 6
  20444278.994 8  20444282.029 8  80228361.53108

  20430161.832 8 109057707.21008  84822741.55007
  20430166.866 7

  19769742.370 8 105792159.46108  82282955.04307
  19769749.669 7

  24124079.869 6 126773111.78106  98784364.97703  24124085.068 3  24124079.351 3


  22250828.217 7 116929206.42307  91113866.19906  22250833.534 6  22250827.882 6
  22250833.032 7  22250830.715 8  87317470.54608

  22374283.269 7 119813602.29207  93188530.29507
  22374293.844 7

  20011394.345 6 106784716.56206


  27291583.853 6 143418387.60406
                  27291590.511 6 107098253.80706  27291590.270 6 116411115.69206
  27291588.231 7 109892103.57207  27291589.260 7 108495181.76307
  24045722.719 6 128628435.20506


  23830024.019 6 125227755.23606  97580163.45204  23830033.139 4  23830023.774 4
  23830032.820 6  23830033.219 7  93514343.73807

  25138816.246 6 132105335.58206 102939252.80503  25138828.612 3  25138815.768 3
  25138828.689 5  25138828.388 6  98650110.50306

  19211141.900 8 102839232.04108  79986321.24908
  19211148.482 8

  24409667.380 7 128273749.23107
                  24409673.465 8  95788908.60908  24409671.054 7 104118347.66607
  24409671.329 8  98287734.16508  24409672.329 8  97038321.46108
  24042196.949 7 126342926.28207
                  24042199.905 8  94347198.90208  24042201.022 8 102551232.06808
  24042197.781 8  96808400.89108  24042198.751 8  95577805.47008
  28362089.047 5 149043674.29805
                  28362102.616 6 111298837.26206  28362098.013 6 120977000.65106
  28362099.774 6 114202280.20506  28362101.234 7 112750558.80507
  37105140.602 7 194988822.25507
                  37105139.575 6 145608545.71006

  36827869.596 7 193531774.68607
                  36827878.823 7 144520535.84907

  23752403.800 7 124820209.89307
                  23752409.557 8  93210207.57708  23752407.277 8 101314877.42408
  23752407.305 8  95641738.47308  23752408.315 8  94425974.09908
  36976823.055 7 194314513.62307
                  36976826.044 6 145105010.06106

  24259620.867 6 127485199.53206  99339143.16703  24259625.725 3  24259619.933 3


  27783605.670 6 146003764.64406
                  27783620.028 6 109028805.93406  27783616.636 6 118509572.42306
  27783617.266 6 111873029.14706  27783618.776 7 110450920.61307
  25418625.469 7 133576098.41607
                  25418629.791 7  99748592.63807  25418629.062 7 108422307.38007
  25418627.917 7 102350704.88707  25418628.750 8 101049646.33708
  24229342.651 6 127326372.18506  99215513.11504  24229353.750 4  24229342.517 4
  24229353.617 6  24229352.695 6  95081611.14806

  28118272.862 6 147762552.59906
                  28118282.573 6 110342211.43906  28118278.312 6 119937164.82606
  28118280.623 6 113220691.35906  28118281.591 7 111781457.97007
  23167450.274 7 121745828.57207  94866928.93405  23167455.687 5  23167449.689 5
  23167456.557 7  23167454.890 7  90914144.35707

  22606145.378 7 118796177.15907  92568520.11605  22606149.238 5  22606144.936 5
  22606149.665 6

  26864271.200 6 141172735.11106
                  26864280.125 6 105421240.57406  26864277.868 6 114588291.15206
  26864278.611 7 108171352.23207  26864279.136 7 106796300.47407
 25  4 11  1 14 15.0000000  0 32G18R20G15E29G05G23R22R21G13G10R08R06
                                E33R23G24G26R07E13E26E15S33S31E07S35
                                G16E21E08G32E31G27G29E23
  20647794.697 8 108505211.81508  84549668.72807  20647796.374 7  20647794.487 7
  20647796.632 8  20647799.577 8  81026825.18808

  23316087.199 5 124681565.03305  96974590.31306
  23316102.655 6

  21109425.487 8 110931277.42108  86440210.50906  21109426.996 6  21109425.161 6
  21109427.450 7

  26344371.050 6 138441002.20706
                  26344380.094 7 103381531.54207  26344379.212 6 112371134.91306
  26344377.517 7 106078406.57807  26344378.671 7 104729864.13307
  25610698.540 5 134585219.37705 104871677.64004  25610706.264 4  25610698.236 4
  25610706.051 5

  20445046.882 8 107439903.88908  83719681.74506  20445048.711 6  20445046.650 6
  20445048.852 8  20445051.726 8  80231382.04308

  20422742.579 8 109018103.09408  84791938.36607
  20422747.395 7

  19772260.667 8 105805635.14908  82293436.12207
  19772267.901 7

  24133320.332 6 126821670.41406  98822202.84903  24133325.430 3  24133319.791 3


  22246439.075 7 116906138.89307  91095891.54206  22246443.858 6  22246438.754 6
  22246443.708 7  22246441.112 8  87300244.84408

  22363577.549 7 119756271.98007  93143940.20306
  22363587.293 6

  20018536.961 6 106822832.92806


  27285897.144 6 143388505.47106
                  27285904.137 6 107075939.27106  27285903.563 6 116386860.74306
  27285901.842 7 109869206.90707  27285902.828 7 108472576.16207
  24035336.969 6 128572883.24906


  23823424.446 6 125193076.02906  97553140.77504  23823433.575 4  23823424.192 4
  23823433.428 6  23823433.916 7  93488447.02307

  25144574.988 6 132135593.98506 102962830.65503  25144586.806 3  25144574.479 3
  25144586.966 6  25144586.239 6  98672705.95306

  19208060.001 8 102822735.41108  79973490.55908
  19208066.711 8

  24411812.121 7 128285019.20207
                  24411818.071 8  95797324.49108  24411815.636 7 104127495.36907
  24411815.861 8  98296369.59608  24411816.942 8  97046847.11808
  24039094.152 7 126326621.67907
                  24039097.227 8  94335023.40508  24039098.369 8 102537997.82308
  24039095.082 8  96795907.76608  24039096.071 8  95565471.15908
  28367328.679 5 149071209.19005
                  28367342.520 6 111319399.03106  28367337.714 6 120999350.39206
  28367339.249 6 114223378.37606  28367341.082 7 112771388.77807
  37105143.902 7 194988840.18207
                  37105143.018 6 145608558.95206

  36827869.180 7 193531773.35807
                  36827878.599 7 144520534.78507

  23749035.382 8 124802508.73308
                  23749041.083 8  93196989.20308  23749038.761 8 101300509.61508
  23749038.896 8  95628175.27608  23749039.878 8  94412583.31308
  36976832.199 7 194314566.01107
                  36976835.903 6 145105049.21806

  24263738.496 6 127506837.23806  99356003.69403  24263743.254 3  24263737.575 3


  27790677.826 6 146040928.73806
                  27790692.521 6 109056558.21006  27790688.949 6 118539737.98006
  27790689.282 6 111901505.40306  27790690.871 7 110479034.88307
  25422998.302 7 133599077.05407
                  25423002.424 7  99765752.00607  25423001.832 7 108440958.88407
  25423000.616 7 102368311.89807  25423001.451 8 101067029.52708
  24219149.064 6 127272804.44006  99173772.22704  24219160.051 4  24219148.939 4
  24219160.662 6  24219158.679 6  95041609.50806

  28117940.198 6 147760803.32106
                  28117949.883 6 110340905.17506  28117945.540 6 119935744.98106
  28117947.620 6 113219351.03006  28117948.737 7 111780134.67407
  23159690.827 7 121705052.59907  94835155.48905  23159696.054 5  23159690.242 5
  23159697.143 7  23159695.456 7  90883694.81807

  22615926.962 7 118847580.43007  92608574.56405  22615931.104 5  22615926.538 5
  22615931.630 6

  26869160.481 6 141198426.25006
                  26869168.874 6 105440425.46906  26869166.595 6 114609144.30706
  26869167.333 7 108191037.61207  26869168.077 7 106815735.61107
 25  4 11  1 14 30.0000000  0 32G18R20G15E29G05G23R22R21G13G10R08R06
                                E33R23G24G26R07E13E26E15S33S31E07S35
                                G16E21E08G32E31G27G29E23
  20647608.731 8 108504234.57208  84548907.24207  20647610.403 7  20647608.517 7
  20647610.757 8  20647613.576 8  81026095.43108

  23324921.852 5 124728794.46005  97011324.24006
  23324934.925 6

  21115606.366 8 110963759.16508  86465520.95006  21115608.062 6  21115606.045 6
  21115608.394 7

  26335865.497 6 138396306.29206
                  26335874.798 7 103348154.86107  26335873.840 7 112334855.85607
  26335871.984 7 106044159.17007  26335873.220 7 104696052.09207
  25619014.000 5 134628915.17905 104905726.33504  25619021.524 4  25619013.701 4
  25619021.027 5

  20445828.555 8 107444010.18508  83722881.45906  20445830.091 6  20445828.319 6
  20445830.294 8  20445833.144 8  80234448.43708

  20415334.892 8 108978560.81108  84761183.28107
  20415340.060 7

  19774804.846 8 105819247.61908  82304023.58807
  19774811.644 7

  24142573.970 6 126870304.47006  98860099.47703  24142580.187 3  24142573.434 3


  22242060.149 7 116883128.49407  91077961.39706  22242065.080 6  22242059.845 6
  22242065.412 7  22242062.329 7  87283061.79707

  22352886.315 7 119699021.83607  93099412.45606
  22352895.798 6

  20025704.230 6 106861072.60206


  27280207.678 6 143358607.58906
                  27280214.664 6 107053612.97606  27280214.201 6 116362593.01706
  27280212.308 7 109846298.18607  27280213.421 7 108449958.65207
  24024948.156 6 128517300.75806


  23816835.689 6 125158451.73906  97526160.89604  23816844.487 4  23816835.457 4
  23816844.468 6  23816845.126 7  93462591.31707

  25150336.207 6 132165871.79306 102986423.65603  25150348.943 3  25150335.671 3
  25150349.444 6  25150348.143 6  98695315.87606

  19205011.123 8 102806416.08508  79960797.78008
  19205017.962 8

  24413963.169 7 128296323.17907
                  24413969.105 8  95805765.76508  24413966.713 7 104136670.67007
  24413966.988 8  98305031.07108  24413968.025 8  97055398.49208
  24035994.393 7 126310331.89507
                  24035997.400 8  94322858.97308  24035998.409 8 102524775.61008
  24035995.173 8  96783425.99708  24035996.226 8  95553148.06008
  28372572.488 5 149098767.76805
                  28372586.715 6 111339978.51006  28372581.666 6 121021719.38206
  28372583.423 6 114244494.70306  28372585.267 7 112792236.68507
  37105147.063 7 194988858.74307
                  37105146.403 6 145608572.91606

  36827868.299 7 193531772.46607
                  36827878.518 7 144520533.97007

  23745685.524 8 124784905.40408
                  23745691.308 8  93183843.88508  23745688.988 8 101286221.21908
  23745688.988 8  95614687.03208  23745690.060 8  94399266.53208
  36976841.429 7 194314618.14107
                  36976845.848 6 145105088.01906

  24267872.597 6 127528566.48306  99372935.52903  24267877.787 3  24267871.676 3


  27797745.659 6 146078070.42806
                  27797760.556 6 109084293.76706  27797756.596 6 118569885.37406
  27797757.559 6 111929964.52606  27797758.999 7 110507132.22807
  25427387.508 7 133622143.43807
                  25427391.892 7  99782976.89807  25427391.275 7 108459681.58507
  25427389.909 7 102385986.13207  25427390.827 8 101084479.08908
  24208960.076 6 127219258.95606  99132048.69604  24208970.797 4  24208959.951 4
  24208970.192 6  24208969.473 6  95001624.50806

  28117625.450 6 147759149.78106
                  28117635.273 6 110339670.39006  28117630.783 6 119934402.80806
  28117632.976 6 113218084.02306  28117634.113 7 111778883.77707
  23151949.136 7 121664369.94407  94803454.77205  23151954.432 5  23151948.542 5
  23151954.784 7  23151953.609 7  90853314.98307

  22625721.312 7 118899047.26907  92648678.54005  22625724.977 5  22625720.888 5
  22625725.416 6

  26874059.921 6 141224173.76306
                  26874068.555 6 105459652.46606  26874066.348 6 114630043.23306
  26874066.749 7 108210766.18507  26874067.710 7 106835213.39407
 25  4 11  1 14 45.0000000  0 32G18R20G15E29G05G23R22R21G13G10R08R06
                                E33R23G24G26R07E13E26E15S33S31E07S35
                                G16E21E08G32E31G27G29E23
  20647436.244 8 108503328.55508  84548201.25507  20647438.018 7  20647436.025 7
  20647438.406 8  20647441.183 8  81025418.86508

  23333765.786 5 124776095.55105  97048113.90606
  23333780.502 6

  21121811.113 8 110996364.80708  86490927.93406  21121812.671 6  21121810.800 6
  21121813.355 7

  26327364.575 6 138351633.00106
                  26327373.610 7 103314795.06607  26327372.799 7 112298595.15807
  26327370.944 7 106009929.11607  26327372.044 7 104662257.16407
  25627323.991 5 134672586.08105 104939755.61703  25627331.520 3  25627323.705 3
  25627331.524 5

  20446621.340 8 107448176.77708  83726128.16106  20446622.968 6  20446621.099 6
  20446623.125 8  20446625.994 8  80237559.86208

  20407938.702 8 108939079.78208  84730475.84507
  20407943.926 7

  19777373.995 8 105832995.88008  82314716.68108
  19777380.980 8

  24151844.528 6 126919012.48106  98898053.73802  24151848.894 2  24151843.987 2


  22237691.736 7 116860174.15307  91060074.93406  22237696.949 6  22237691.432 6
  22237696.916 7  22237694.138 8  87265920.61908

  22342209.629 7 119641851.49207  93054946.82706
  22342220.321 6

  20032892.177 6 106899434.04906


  27274515.100 6 143328692.94006
                  27274521.956 6 107031274.16706  27274521.634 6 116338311.68506
  27274519.772 7 109823376.60707  27274520.782 7 108427328.45607
  24014550.404 6 128461687.13006


  23810257.512 6 125123881.83306  97499223.38204  23810265.630 4  23810257.289 4
  23810266.434 6  23810266.357 7  93436776.22607

  25156101.147 6 132196167.68806 103010030.72103  25156113.853 3  25156100.633 3
  25156113.283 5  25156113.537 6  98717939.30806

  19201995.979 8 102790273.13208  79948242.16208
  19202002.547 8

  24416120.512 7 128307660.25907
                  24416126.455 8  95814231.75908  24416123.994 7 104145872.83707
  24416124.321 8  98313717.91808  24416125.395 8  97063974.91208
  24032897.235 7 126294056.07207
                  24032900.196 8  94310704.96708  24032901.289 8 102511564.72908
  24032898.043 8  96770954.93308  24032899.011 8  95540835.52308
  28377821.136 5 149126349.12005
                  28377835.354 6 111360574.96606  28377829.960 6 121044106.84706
  28377832.533 6 114265628.47406  28377833.847 7 112813101.79607
  37105150.792 7 194988876.94407
                  37105149.998 6 145608586.60606

  36827868.411 7 193531771.56507
                  36827878.286 7 144520533.55407

  23742353.945 7 124767399.03107
                  23742359.904 8  93170770.97308  23742357.629 8 101272011.52108
  23742357.665 8  95601273.08608  23742358.697 8  94386023.10408
  36976851.767 7 194314670.51407
                  36976855.766 6 145105127.22906

  24272025.127 6 127550385.98806  99389937.71103  24272030.069 3  24272024.229 3


  27804808.929 6 146115188.51906
                  27804823.917 6 109112011.68706  27804820.597 6 118600013.61506
  27804821.164 6 111958405.54406  27804822.477 7 110535211.69407
  25431793.547 7 133645296.40607
                  25431797.621 7  99800266.45207  25431797.054 7 108478474.57507
  25431795.797 7 102403726.72007  25431796.699 8 101101994.16108
  24198773.827 6 127165735.07806  99090341.96404  24198784.620 4  24198773.702 4
  24198785.481 6  24198784.010 6  94961655.61106

  28117328.907 6 147757590.90806
                  28117338.721 6 110338506.30206  28117334.440 6 119933137.49706
  28117336.361 6 113216889.56506  28117337.488 7 111777704.50507
  23144225.501 7 121623779.95807  94771826.25605  23144230.563 5  23144224.920 5
  23144231.231 7  23144229.355 7  90823004.33307

  22635526.886 7 118950576.38107  92688831.04305  22635530.843 5  22635526.471 5
  22635531.485 6

  26878969.782 6 141249976.40706
                  26878978.712 6 105478920.61906  26878976.847 6 114650986.90706
  26878976.954 7 108230537.00707  26878977.838 7 106854732.88207
 25  4 11  1 15  0.0000000  0 32G18R20G15E29G05G23R22R21G13G10R08R06
                                E33R23G24G26R07E13E26E15S33S31E07S35
                                G16E21E08G32E31G27G29E23
  20647277.386 8 108502492.68908  84547549.93107  20647278.949 7  20647277.167 7
  20647279.320 8  20647282.093 8  81024794.67908

  23342623.002 5 124823466.82305  97084958.18607
  23342639.912 7

  21128039.181 8 111029092.78208  86516430.24506  21128040.639 6  21128038.864 6
  21128041.127 7

  26318867.129 6 138306981.30006
                  26318876.547 7 103281451.38207  26318875.389 7 112262351.98807
  26318873.777 7 105975715.58307  26318875.018 7 104628478.55707
  25635629.326 5 134716231.04205 104973764.69603  25635636.575 3  25635629.045 3
  25635637.095 5

  20447425.387 8 107452402.30208  83729420.78306  20447427.011 6  20447425.142 6
  20447427.154 8  20447430.073 8  80240715.29408

  20400554.387 8 108899659.21108  84699815.40507
  20400558.788 7

  19779968.726 8 105846879.10808  82325514.72807
  19779975.576 7

  24161127.059 6 126967792.81506  98936064.37003  24161131.603 3  24161126.523 3


  22233334.099 7 116837274.61007  91042231.17306  22233339.236 6  22233333.786 6
  22233339.325 7  22233336.547 8  87248820.35408

  22331548.426 7 119584759.88807  93010542.37607
  22331558.419 7

  20040102.917 6 106937915.73006


  27268819.297 6 143298760.36206
                  27268825.916 6 107008921.95306  27268825.627 6 116314015.78106
  27268823.627 7 109800441.30107  27268824.735 7 108404684.69707
  24004147.479 6 128406041.48106


  23803689.483 6 125089365.44906  97472327.57604  23803697.433 4  23803689.251 4
  23803698.099 6  23803698.228 7  93411001.09807

  25161869.775 6 132226480.05506 103033650.64803  25161881.562 3  25161869.275 3
  25161882.138 5  25161881.603 6  98740575.04306

  19199013.234 8 102774305.08008  79935822.58508
  19199019.479 8

  24418283.964 7 128319029.31207
                  24418289.936 8  95822721.63108  24418287.513 7 104155100.96007
  24418287.745 8  98322429.26808  24418288.855 8  97072575.52308
  24029802.412 7 126277793.04107
                  24029805.465 8  94298560.50908  24029806.554 8 102498364.22108
  24029803.283 8  96758493.66108  24029804.245 8  95528532.65908
  28383073.988 5 149153952.02005
                  28383087.665 6 111381187.54806  28383083.304 6 121066511.82306
  28383084.655 6 114286778.75906  28383086.403 6 112833983.22606
  37105154.361 7 194988893.32307
                  37105153.084 6 145608598.71206

  36827868.040 7 193531768.84107
                  36827877.727 7 144520531.52907

  23739040.768 7 124749988.47507
                  23739046.758 8  93157769.61308  23739044.403 8 101257879.59308
  23739044.495 8  95587932.55808  23739045.556 8  94372852.15808
  36976861.712 7 194314721.24607
                  36976865.412 6 145105165.13406

  24276194.585 6 127572294.26906  99407009.06203  24276199.222 3  24276193.682 3


  27811867.355 6 146152281.55806
                  27811882.443 6 109139710.93006  27811878.550 6 118630121.49906
  27811879.422 6 111986827.37306  27811880.857 7 110563272.22707
  25436215.383 7 133668534.57707
                  25436219.768 7  99817619.62007  25436218.959 7 108497336.71807
  25436217.837 7 102421532.57607  25436218.790 8 101119573.67108
  24188591.852 6 127112231.83606  99048651.34104  24188602.928 4  24188591.732 4
  24188603.904 6  24188602.159 6  94921702.13406

  28117049.843 6 147756125.45306
                  28117059.704 6 110337411.97306  28117055.147 6 119931948.00206
  28117057.537 6 113215766.68406  28117058.513 7 111776595.90107
  23136518.851 7 121583281.72907  94740269.25705  23136524.146 5  23136518.293 5
  23136524.349 7  23136523.032 7  90792762.20507

  22645344.089 7 119002166.28007  92729030.90405  22645348.228 5  22645343.678 5
  22645348.586 6

  26883889.714 6 141275832.72006
                  26883899.184 6 105498228.86606  26883897.049 6 114671974.14906
  26883897.396 7 108250348.94807  26883898.170 7 106874292.97707
 25  4 11  1 15 15.0000000  0 32G18R20G15E29G05G23R22R21G13G10R08R06
                                E33R23G24G26R07E13E26E15S33S31E07S35
                                G16E21E08G32E31G27G29E23
  20647132.342 8 108501731.60508  84546956.88207  20647134.113 7  20647132.123 7
  20647134.390 8  20647137.254 8  81024226.34008

  23351496.680 5 124870912.24605  97121860.10506
  23351512.222 6

  21134290.901 8 111061947.17408  86542031.06306  21134292.616 6  21134290.584 6
  21134293.263 7

  26310375.413 6 138262355.85906
                  26310384.400 7 103248127.33007  26310383.062 7 112226130.13507
  26310381.697 7 105941522.19207  26310382.937 7 104594719.83607
  25643930.033 5 134759853.99705 105007756.62804  25643937.503 4  25643929.765 4
  25643937.440 5

  20448241.715 8 107456691.08608  83732762.70207  20448243.100 7  20448241.479 7
  20448243.395 8  20448246.185 8  80243917.96508

  20393181.050 8 108860303.90608  84669205.76107
  20393186.533 7

  19782588.768 8 105860901.62108  82336421.12108
  19782596.123 8

  24170423.634 6 127016649.49006  98974134.44903  24170429.416 3  24170423.102 3


  22228988.001 7 116814434.25607  91024433.52706  22228992.859 6  22228987.684 6
  22228992.807 7  22228990.087 8  87231764.28308

  22320903.295 7 119527751.93807  92966203.01207
  22320912.442 7

  20047338.969 6 106976521.50006


  27263121.009 6 143268814.32306
                  27263127.474 6 106986559.68706  27263127.210 6 116289708.94206
  27263125.061 7 109777495.64807  27263126.180 7 108382030.73907
  23993740.912 6 128350368.20706


  23797132.231 6 125054907.51906  97445477.31604  23797140.143 4  23797131.995 4
  23797140.878 6  23797141.049 7  93385269.60907

  25167642.103 6 132256813.05106 103057286.62603  25167653.952 3  25167641.612 3
  25167654.728 6  25167653.904 6  98763226.18106

  19196063.170 8 102758516.84808  79923542.88008
  19196070.250 8

  24420454.436 7 128330434.90007
                  24420460.357 8  95831238.78508  24420457.987 7 104164358.73207
  24420458.241 8  98331168.60908  24420459.283 8  97081203.77108
  24026711.044 7 126261547.40107
                  24026713.935 8  94286429.03908  24026715.095 8 102485177.83208
  24026711.903 8  96746045.71608  24026712.794 8  95516242.95108
  28388331.546 5 149181580.99705
                  28388345.506 6 111401819.57906  28388341.255 6 121088937.94606
  28388342.002 6 114307949.01306  28388344.020 6 112854884.36606
  37105156.503 7 194988912.22507
                  37105156.795 6 145608612.82106

  36827867.928 7 193531768.58107
                  36827877.749 7 144520531.08407

  23735746.947 7 124732678.28507
                  23735752.697 8  93144843.20708  23735750.409 8 101243829.14308
  23735750.463 8  95574668.93808  23735751.512 8  94359757.14608
  36976871.456 7 194314774.10207
                  36976875.544 6 145105204.62306

  24280381.302 6 127594295.43506  99424152.79203  24280386.110 3  24280380.404 3


  27818922.022 6 146189353.77306
                  27818937.542 6 109167394.59406  27818933.924 6 118660212.50706
  27818933.517 6 112015233.23606  27818935.705 7 110591316.99207
  25440654.659 7 133691862.21207
                  25440658.899 7  99835039.59907  25440658.112 7 108516271.48707
  25440656.862 7 102439406.99407  25440657.881 8 101137220.87008
  24178415.160 6 127058754.00406  99006980.49304  24178426.579 4  24178415.022 4
  24178427.183 6  24178425.946 6  94881767.63806

  28116789.539 6 147754757.81806
                  28116799.168 6 110336390.70006  28116795.488 6 119930837.92906
  28116797.261 6 113214718.78506  28116798.170 7 111775561.31507
  23128830.359 7 121542880.03107  94708787.45905  23128835.817 5  23128829.787 5
  23128836.094 7  23128835.054 7  90762592.16507

  22655173.828 7 119053820.93107  92769281.22605  22655177.923 5  22655173.426 5
  22655177.862 6

  26888821.620 6 141301746.94806
                  26888830.528 6 105517580.34906  26888828.198 6 114693008.40006
  26888828.724 7 108270205.26607  26888829.533 7 106893896.87907
 25  4 11  1 15 30.0000000  0 32G18R20G15E29G05G23R22R21G13G10R08R06
                                E33R23G24G26R07E13E26E15S33S31E07S35
                                G16E21E08G32E31G27G29E23
  20647001.172 8 108501042.40308  84546419.84007  20647002.947 7  20647000.953 7
  20647003.236 8  20647006.106 8  81023711.68008

  23360384.845 5 124918428.98905  97158817.47506
  23360397.878 6

  21140566.570 8 111094924.74108  86567727.86106  21140568.100 6  21140566.262 6
  21140568.799 7

  26301887.809 6 138217753.85606
                  26301896.954 7 103214820.76807  26301895.765 6 112189927.32206
  26301894.184 7 105907346.75007  26301895.310 7 104560978.83507
  25652227.105 5 134803452.13405 105041729.21103  25652234.858 3  25652226.824 3
  25652234.841 5

  20449068.939 8 107461039.95708  83736151.44007  20449070.659 7  20449068.703 7
  20449070.858 8  20449073.727 8  80247165.50208

  20385820.818 8 108821011.26808  84638644.82907
  20385825.598 7

  19785234.999 8 105875060.59908  82347433.64107
  19785241.889 7

  24179734.413 6 127065579.34806  99012261.58803  24179740.014 3  24179733.899 3


  22224652.244 7 116791649.96307  91006679.57606  22224657.129 6  22224651.931 6
  22224656.662 7  22224654.442 8  87214750.08608

  22310271.633 7 119470824.84307  92921926.53806
  22310281.819 6

  20054595.467 6 107015248.00306


  27257419.068 6 143238851.79906
                  27257425.755 6 106964185.11106  27257425.637 6 116265388.75506
  27257423.337 7 109754537.38507  27257424.477 7 108359364.32107
  23983326.468 6 128294664.54906


  23790585.346 6 125020505.33806  97418670.50404  23790593.903 4  23790585.096 4
  23790594.195 6  23790594.347 7  93359579.77307

  25173417.296 6 132287163.31606 103080936.07803  25173429.590 3  25173416.831 3
  25173429.051 5  25173429.609 6  98785890.19806

  19193147.053 8 102742904.82208  79911400.20708
  19193153.575 8

  24422631.247 7 128341874.06007
                  24422637.169 8  95839781.00408  24422634.891 7 104173643.76507
  24422635.019 8  98339933.66908  24422636.086 8  97089857.41008
  24023622.171 7 126245316.19907
                  24023625.271 8  94274308.34808  24023626.495 8 102472003.17108
  24023623.161 8  96733608.83308  24023624.074 8  95503964.16408
  28393593.415 5 149209233.02305
                  28393607.635 6 111422468.84106  28393602.904 6 121111382.77906
  28393604.529 6 114329136.94106  28393606.047 6 112875802.96406
  37105159.745 7 194988931.50807
                  37105160.305 6 145608627.49406

  36827868.044 7 193531768.82407
                  36827877.664 7 144520531.22207

  23732471.652 7 124715465.55207
                  23732477.152 8  93131989.57108  23732474.922 8 101229857.78808
  23732474.985 8  95561479.98308  23732476.022 8  94346735.85008
  36976881.964 7 194314827.40307
                  36976885.610 6 145105244.53106

  24284585.084 6 127616386.05106  99441366.23103  24284589.717 3  24284584.181 3


  27825972.490 6 146226401.91306
                  27825987.264 6 109195060.29106  27825983.686 6 118690283.97406
  27825984.240 6 112043620.68706  27825985.915 7 110619343.56707
  25445109.949 7 133715276.13107
                  25445114.428 7  99852524.01207  25445113.650 7 108535276.29007
  25445112.501 7 102457347.52207  25445113.392 8 101154933.34208
  24168244.066 6 127005298.87506  98965327.37104  24168254.460 4  24168243.928 4
  24168254.309 6  24168253.348 6  94841850.08206

  28116547.670 6 147753484.97806
                  28116557.004 6 110335440.21206  28116553.061 6 119929804.78706
  28116554.935 6 113213743.49906  28116556.001 7 111774598.42707
  23121159.721 7 121502572.14007  94677378.76205  23121165.258 5  23121159.131 5
  23121165.900 6  23121164.340 7  90732492.17307

  22665015.051 7 119105537.13707  92809579.51805  22665019.200 5  22665014.631 5
  22665019.630 6

  26893763.197 6 141327715.81706
                  26893772.076 6 105536972.64706  26893769.689 6 114714086.98206
  26893770.482 7 108290103.43807  26893771.311 7 106913542.11307
 25  4 11  1 15 45.0000000  0 31G18R20G15E29G23R22R21G13G10R08R06E33
                                R23G24G26R07E13E26E15S33S31E07S35G16
                                E21E08G32E31G27G29E23
  20646883.923 8 108500425.62108  84545939.23407  20646885.580 7  20646883.704 7
  20646885.986 8  20646888.766 8  81023251.09908

  23369281.326 5 124966017.18105  97195830.47906
  23369296.619 6

  21146865.390 8 111128025.44408  86593520.60806  21146866.980 6  21146865.086 6
  21146867.608 7

  26293404.509 6 138173175.91206
                  26293413.985 7 103181532.17207  26293413.203 7 112153743.98207
  26293411.087 7 105873189.73407  26293412.329 7 104527256.02807
  20449907.971 8 107465449.12008  83739587.15606  20449909.723 6  20449907.739 6
  20449910.061 8  20449912.789 8  80250458.06708

  20378471.203 8 108781782.04608  84608133.23807
  20378476.513 7

  19787906.082 8 105889356.65408  82358552.79908
  19787913.547 8

  24189059.955 6 127114582.25606  99050445.65903  24189064.810 3  24189059.441 3


  22220327.472 7 116768922.05907  90988969.55506  22220332.082 6  22220327.164 6
  22220331.745 7  22220329.347 8  87197778.00308

  22299655.593 7 119413979.47207  92877713.60306
  22299665.972 6

  20061875.205 6 107054095.13406


  27251714.325 6 143208873.16606
                  27251720.890 6 106941798.51306  27251720.375 6 116241055.47206
  27251718.462 7 109731566.79107  27251719.701 7 108336685.72407
  23972909.977 6 128238931.24706


  23784048.976 6 124986159.74406  97391907.77604  23784058.353 4  23784048.722 4
  23784058.300 6  23784058.511 7  93333932.17507

  25179196.554 5 132317530.82705 103104598.97902  25179208.098 2  25179196.063 2
  25179208.514 5  25179208.560 6  98808567.10706

  19190263.705 8 102727469.96708  79899395.34108
  19190270.039 8

  24424814.560 7 128353347.27107
                  24424820.473 8  95848348.65808  24424817.954 7 104182956.43607
  24424818.425 8  98348724.82908  24424819.370 8  97098536.81708
  24020536.340 8 126229099.89608
                  24020539.381 8  94262198.78508  24020540.579 8 102458840.59608
  24020537.178 8  96721183.36408  24020538.212 8  95491696.64808
  28398860.425 5 149236908.51805
                  28398874.130 6 111443135.61206  28398868.825 6 121133846.64206
  28398870.818 6 114350342.85606  28398872.514 6 112896739.30706
  37105165.137 7 194988950.34807
                  37105163.968 6 145608641.35506

  36827868.236 7 193531768.93507
                  36827877.758 7 144520531.42907

  23729214.660 7 124698350.75107
                  23729220.248 8  93119209.06008  23729218.114 8 101215965.92108
  23729218.126 8  95548366.07008  23729219.165 8  94333788.63908
  36976891.873 7 194314880.46007
                  36976895.640 6 145105284.06106

  24288805.825 6 127638566.31506  99458649.50803  24288810.173 3  24288804.971 3


  27833017.428 6 146263426.11106
                  27833033.330 6 109222708.11106  27833029.260 6 118720335.97206
  27833029.952 6 112071989.73606  27833031.484 7 110647352.00107
  25449581.905 7 133738776.55207
                  25449586.380 7  99870073.01707  25449585.589 7 108554351.29307
  25449584.474 7 102475354.33007  25449585.386 8 101172711.24808
  24158074.991 6 126951867.09206  98923692.40804  24158086.295 4  24158074.844 4
  24158087.021 6  24158085.259 6  94801949.96006

  28116323.445 6 147752307.25206
                  28116332.983 6 110334560.74206  28116328.956 6 119928848.84106
  28116331.028 6 113212841.09606  28116331.968 7 111773707.49307
  23113507.017 7 121462358.77807  94646043.71405  23113512.841 5  23113506.418 5
  23113513.619 7  23113511.961 7  90702462.75507

  22674868.280 7 119157314.94607  92849925.80505  22674872.156 5  22674867.860 5
  22674872.262 6

  26898715.009 6 141353739.43606
                  26898724.122 6 105556405.81406  26898721.750 6 114735210.02106
  26898722.728 7 108310043.57907  26898723.481 7 106933228.76807
 25  4 11  1 16  0.0000000  0 31G18R20G15E29G23R22R21G13G10R08R06E33
                                R23G24G26R07E13E26E15S33S31E07S35G16
                                E21E08G32E31G27G29E23
  20646779.905 8 108499879.28708  84545513.52207  20646781.602 7  20646779.677 7
  20646781.916 8  20646784.780 8  81022843.12608

  23378193.503 5 125013674.83305  97232897.46506
  23378209.084 6

  21153187.010 8 111161246.75108  86619407.33006  21153188.830 6  21153186.697 6
  21153189.140 7

  26284925.427 6 138128620.07106
                  26284935.010 7 103148260.08007  26284934.037 6 112117578.62606
  26284932.489 7 105839049.66407  26284933.529 7 104493549.94807
  20450757.970 8 107469916.33608  83743068.11006  20450759.787 6  20450757.734 6
  20450759.821 8  20450762.848 8  80253793.98208

  20371134.204 8 108742614.46508  84577669.58107
  20371139.150 7

  19790603.190 8 105903787.48408  82369776.75308
  19790609.993 8

  24198398.141 6 127163655.65606  99088684.63603  24198403.096 3  24198397.668 3


  22216012.613 7 116746248.38807  90971301.79706  22216017.360 6  22216012.318 6
  22216017.347 7  22216014.624 8  87180846.40308

  22289055.297 7 119357213.85407  92833562.71007
  22289065.109 7

  20069177.960 6 107093060.21106


  27246006.092 6 143178876.36606
                  27246012.685 6 106919398.33506  27246012.192 6 116216707.44006
  27246010.356 7 109708582.26007  27246011.452 7 108313993.37007
  23962483.363 6 128183166.49206


  23777524.381 6 124951869.01506  97365187.80304  23777533.009 4  23777524.127 4
  23777532.745 6  23777533.351 7  93308325.55907

  25184977.946 6 132347913.12906 103128273.37102  25184990.196 2  25184977.428 2
  25184990.970 6  25184990.135 6  98831255.07606

  19187412.850 8 102712209.92008  79887526.43908
  19187419.605 8

  24427003.710 7 128364852.51107
                  24427009.880 8  95856940.22308  24427007.239 7 104192295.09207
  24427007.745 8  98357540.52208  24427008.752 8  97107240.44608
  24017452.966 8 126212896.48208
                  24017455.942 8  94250098.85408  24017457.077 8 102445688.48708
  24017453.735 8  96708767.77908  24017454.782 8  95479438.89008
  28404130.282 5 149264605.34905
                  28404144.775 6 111463818.32406  28404139.595 6 121156327.85006
  28404141.435 6 114371565.12206  28404143.054 7 112917691.79907
  37105168.093 7 194988967.03507
                  37105167.044 6 145608653.74306

  36827867.320 7 193531766.67707
                  36827877.338 7 144520529.59207

  23725975.917 8 124681331.82308
                  23725981.631 8  93106500.15208  23725979.367 8 101202151.87908
  23725979.531 8  95535325.62008  23725980.548 8  94320913.95908
  36976900.074 7 194314931.87607
                  36976905.384 6 145105322.53106

  24293043.227 6 127660833.77906  99476000.74303  24293047.786 3  24293042.338 3


  27840057.902 6 146300423.99606
                  27840073.574 6 109250336.28106  27840069.788 6 118750366.65106
  27840070.188 6 112100338.66506  27840072.018 7 110675340.54707
  25454070.051 7 133762361.16007
                  25454074.430 7  99887684.90007  25454073.904 7 108573494.64407
  25454072.513 7 102493425.65307  25454073.388 8 101190552.85208
  24147911.417 6 126898456.81806  98882074.22004  24147922.324 4  24147911.279 4
  24147922.998 6  24147921.278 6  94762065.90906

  28116116.850 6 147751222.47706
                  28116126.599 6 110333750.68606  28116122.497 6 119927968.34706
  28116124.535 6 113212009.90006  28116125.589 7 111772886.86907
  23105872.938 7 121422238.05907  94614780.86405  23105878.216 5  23105872.330 5
  23105878.465 7  23105877.248 7  90672502.54407

  22684732.685 7 119209151.81507  92890318.11405  22684736.600 5  22684732.256 5
  22684736.962 6

  26903677.399 6 141379815.45406
                  26903686.252 6 105575878.11506  26903684.215 6 114756375.57806
  26903684.694 7 108330023.85107  26903685.659 7 106952955.05507
 25  4 11  1 16 15.0000000  0 31G18R20G15E29G23R22R21G13G10R08R06E33
                                R23G24G26R07E13E26E15S33S31E07S35G16
                                E21E08G32E31G27G29E23
  20646689.671 8 108499405.88508  84545144.64007  20646691.521 7  20646689.448 7
  20646691.928 8  20646694.676 8  81022489.61408

  23387122.565 5 125061403.58705  97270019.76706
  23387134.905 6

  21159532.486 8 111194590.82508  86645389.71206  21159534.072 6  21159532.187 6
  21159534.659 7

  26276451.373 6 138084088.87106
                  26276461.035 7 103115006.40607  26276459.834 7 112081433.27407
  26276458.213 7 105804928.48607  26276459.411 7 104459862.52207
  20451619.727 8 107474443.77108  83746595.99106  20451621.286 6  20451619.504 6
  20451621.505 8  20451624.392 8  80257174.86408

  20363808.867 8 108703511.30808  84547256.03707
  20363813.408 7

  19793325.908 8 105918355.80308  82381107.65708
  19793332.888 8

  24207750.500 6 127212801.36906  99126979.94502  24207755.289 2  24207750.031 2


  22211708.650 7 116723631.17607  90953678.03706  22211713.378 6  22211708.364 6
  22211713.244 7  22211710.656 8  87163956.97808

  22278469.570 7 119300530.96607  92789476.17706
  22278478.692 6

  20076502.530 6 107132145.02606


  27240295.161 6 143148863.67706
                  27240301.480 6 106896986.31906  27240301.492 6 116192346.53206
  27240299.036 7 109685585.57307  27240300.179 7 108291289.01807
  23952053.762 6 128127372.68306


  23771009.901 6 124917635.83606  97338512.68504  23771018.413 4  23771009.660 4
  23771018.287 6  23771018.751 7  93282761.91107

  25190762.552 6 132378312.23706 103151960.87302  25190775.662 2  25190761.976 2
  25190774.872 5  25190774.994 6  98853955.55806

  19184595.024 8 102697127.00308  79875795.29208
  19184601.753 8

  24429199.880 7 128376392.16407
                  24429205.705 8  95865557.49308  24429203.243 7 104201661.69507
  24429203.623 8  98366382.59208  24429204.672 8  97115970.11608
  24014372.348 8 126196708.35808
                  24014375.457 8  94238010.33408  24014376.573 8 102432548.78708
  24014373.188 8  96696363.90808  24014374.277 8  95467192.69508
  28409405.581 5 149292325.92405
                  28409419.597 6 111484518.74706  28409414.510 6 121178828.33006
  28409416.469 6 114392805.55506  28409417.932 7 112938662.22807
  37105170.499 7 194988984.14007
                  37105170.335 6 145608666.65006

  36827865.996 7 193531764.79607
                  36827876.931 7 144520528.25307

  23722756.267 8 124664411.19008
                  23722761.741 8  93093864.64408  23722759.507 8 101188417.62608
  23722759.598 8  95522360.48608  23722760.631 8  94308113.64008
  36976910.806 7 194314983.51207
                  36976915.239 6 145105361.19106

  24297297.975 6 127683190.47806  99493421.51303  24297302.227 3  24297297.112 3


  27847094.107 6 146337397.69006
                  27847109.522 6 109277946.38906  27847106.254 6 118780377.67806
  27847105.965 6 112128669.05106  27847107.986 7 110703310.79207
  25458574.391 7 133786032.12807
                  25458578.879 7  99905361.26507  25458578.085 7 108592708.08507
  25458576.838 7 102511563.14007  25458577.824 8 101208459.77708
  24137751.913 6 126845070.68706  98840474.83004  24137762.958 4  24137751.766 4
  24137764.095 6  24137762.534 6  94722199.87306

  28115927.849 6 147750232.95006
                  28115938.136 6 110333011.75106  28115934.077 6 119927165.15906
  28115936.077 6 113211251.68506  28115937.271 7 111772138.29707
  23098255.783 7 121382212.71207  94583592.32505  23098261.424 5  23098255.184 5
  23098261.499 7  23098260.702 7  90642613.53707

  22694608.172 7 119261049.79907  92930758.04305  22694612.487 5  22694607.752 5
  22694613.117 6

  26908650.573 6 141405945.93906
                  26908658.837 6 105595391.09106  26908656.400 6 114777585.36306
  26908657.200 7 108350045.87407  26908658.152 7 106972722.55507
 25  4 11  1 16 30.0000000  0 31G18R20G15E29G23R22R21G13G10R08R06E33
                                R23G24G26R07E13E26E15S33S31E07S35G16
                                E21E08G32E31G27G29E23
  20646613.549 8 108499005.33208  84544832.52207  20646615.275 7  20646613.326 7
  20646615.751 8  20646618.451 8  81022190.50308

  23396054.503 5 125109203.41805  97307197.33406
  23396074.600 6

  21165900.684 8 111228057.15108  86671467.36306  21165902.588 6  21165900.385 6
  21165902.694 7

  26267982.648 6 138039582.32806
                  26267991.437 7 103081771.12907  26267990.364 6 112045307.92106
  26267988.821 7 105770826.18807  26267989.997 7 104426193.73307
  20452492.508 8 107479031.05108  83750170.50106  20452494.222 6  20452492.285 6
  20452494.518 8  20452497.320 8  80260600.44108

  20356495.958 8 108664472.69208  84516892.69807
  20356500.519 7

  19796073.763 8 105933061.31908  82392545.26208
  19796080.659 8

  24217116.089 6 127262019.10806  99165331.39202  24217120.937 2  24217115.642 2


  22207415.413 7 116701070.11907  90936098.03306  22207420.160 6  22207415.118 6
  22207419.939 7  22207417.461 8  87147109.48008

  22267900.248 7 119243930.59607  92745453.81507
  22267910.388 7

  20083849.077 6 107171348.98806


  27234580.527 6 143118834.94006
                  27234586.989 6 106874562.29806  27234586.624 6 116167972.58106
  27234584.691 7 109662576.56807  27234585.879 7 108268572.50507
  23941619.764 6 128071549.70306


  23764506.576 6 124883460.42206  97311882.56804  23764514.693 4  23764506.348 4
  23764515.251 6  23764515.346 7  93257241.40307

  25196550.522 6 132408727.54406 103175661.00003  25196563.283 3  25196549.955 3
  25196563.564 5  25196562.682 6  98876668.15806

  19181811.143 8 102682220.78108  79864201.58408
  19181817.120 8

  24431402.421 7 128387966.10807
                  24431408.181 8  95874200.36708  24431405.675 7 104211056.12607
  24431406.101 8  98375250.93708  24431407.129 8  97124725.72508
  24011294.803 7 126180535.39807
                  24011297.840 8  94225933.14208  24011298.854 8 102419421.39208
  24011295.608 8  96683971.65408  24011296.638 8  95454957.97208
  28414684.435 5 149320070.01105
                  28414699.295 6 111505236.73806  28414694.238 6 121201347.88906
  28414695.995 6 114414064.00606  28414697.416 7 112959650.44907
  37105174.541 7 194989001.37507
                  37105173.640 6 145608679.46406

  36827866.255 7 193531762.80607
                  36827876.631 7 144520527.13007

  23719554.790 7 124647588.73907
                  23719560.497 8  93081302.45208  23719558.286 8 101174763.05208
  23719558.318 8  95509470.58108  23719559.410 8  94295387.59008
  36976921.243 7 194315034.42807
                  36976925.072 6 145105398.93206

  24301568.802 6 127705635.69006  99510911.23703  24301572.881 3  24301567.948 3


  27854125.229 6 146374346.73006
                  27854140.746 6 109305538.09406  27854137.473 6 118810368.70106
  27854137.693 6 112156980.55106  27854139.376 7 110731262.39507
  25463095.277 7 133809789.03707
                  25463099.595 7  99923101.80807  25463098.859 7 108611991.28107
  25463097.775 7 102529766.47207  25463098.612 8 101226431.71308
  24127597.538 6 126791708.78006  98798894.33504  24127608.793 4  24127597.395 4
  24127608.898 6  24127607.556 6  94682351.92506

  28115758.290 6 147749338.34706
                  28115767.815 6 110332343.73606  28115764.077 6 119926439.03406
  28115765.984 6 113210566.24906  28115766.979 7 111771461.57207
  23090657.722 7 121342282.77607  94552478.13005  23090662.738 5  23090657.114 5
  23090663.793 7  23090662.224 7  90612795.77507

  22704495.708 7 119313008.25407  92971245.09005  22704499.710 5  22704495.297 5
  22704499.963 6

  26913632.947 6 141432130.45506
                  26913641.709 6 105614944.41306  26913639.770 6 114798839.00106
  26913640.054 7 108370109.28707  26913640.962 7 106992530.92007
 25  4 11  1 16 45.0000000  0 31G18R20G15E29G23R22R21G13G10R08R06E33
                                R23G24G26R07E13E26E15S33S31E07S35G16
                                E21E08G32E31G27G29E23
  20646550.877 8 108498675.82608  84544575.76707  20646552.605 7  20646550.645 7
  20646552.758 8  20646555.683 8  81021944.44608

  23405010.309 4 125157072.14204  97344428.49206
  23405025.853 6

  21172291.920 8 111261643.45408  86697638.49806  21172293.891 6  21172291.625 6
  21172294.464 7

  26259517.435 6 137995098.68406
                  26259526.539 7 103048552.94107  26259525.063 7 112009201.15407
  26259523.827 7 105736741.42407  26259524.916 7 104392542.25807
  20453376.307 8 107483676.08708  83753790.01506  20453378.119 6  20453376.084 6
  20453378.322 8  20453381.229 8  80264069.14508

  20349193.650 8 108625497.06708  84486578.34607
  20349199.222 7

  19798847.577 8 105947902.23508  82404088.18508
  19798854.210 8

  24226494.817 6 127311306.49306  99203737.13402  24226499.771 2  24226494.375 2


  22203132.151 7 116678563.22307  90918560.23006  22203137.209 6  22203131.847 6
  22203136.911 7  22203134.445 8  87130302.43008

  22257345.829 7 119187411.36307  92701494.55206
  22257355.260 6

  20091217.765 6 107210669.50206


  27228862.474 6 143088788.18106
                  27228869.377 6 106852124.82006  27228868.791 6 116143584.00306
  27228866.922 7 109639553.75407  27228868.132 7 108245842.36107
  23931177.181 7 128015696.03907


  23758013.621 6 124849341.22506  97285296.25604  23758021.732 4  23758013.389 4
  23758022.737 6  23758022.693 7  93231762.87607

  25202340.835 6 132439156.77506 103199371.97503  25202353.784 3  25202340.285 3
  25202354.038 5  25202353.351 6  98899391.15406

  19179058.719 8 102667489.50108  79852743.94708
  19179065.219 8

  24433610.857 7 128399572.50607
                  24433616.871 8  95882867.47608  24433614.434 7 104220476.89907
  24433614.724 8  98384144.14408  24433615.762 8  97133505.88408
  24008219.895 7 126164375.74707
                  24008222.702 8  94213865.88808  24008223.689 8 102406304.80708
  24008220.586 8  96671589.60208  24008221.548 8  95442733.32008
  28419968.420 5 149347835.68905
                  28419982.609 6 111525970.88306  28419978.172 6 121223884.98406
  28419979.028 6 114435339.02706  28419980.996 7 112980655.02507
  37105177.264 7 194989016.89307
                  37105176.533 6 145608691.04106

  36827866.215 7 193531758.93007
                  36827875.862 7 144520524.02407

  23716372.105 7 124630862.58607
                  23716377.553 8  93068812.17408  23716375.348 8 101161186.65108
  23716375.439 8  95496654.46708  23716376.504 8  94282734.39408
  36976929.877 7 194315084.92807
                  36976934.476 6 145105436.96206

  24305856.939 6 127728167.19306  99528468.21403  24305860.523 3  24305856.108 3


  27861151.543 6 146411268.94106
                  27861166.994 6 109333109.74306  27861163.867 6 118840337.94706
  27861163.858 6 112185271.48606  27861165.422 7 110759193.69107
  25467632.005 7 133833629.76407
                  25467636.368 7  99940904.94107  25467635.460 7 108631342.52007
  25467634.506 7 102548034.04507  25467635.355 8 101244467.06608
  24117447.353 6 126738369.45406  98757331.42904  24117458.246 4  24117447.255 4
  24117458.616 6  24117457.518 6  94642520.83806

  28115605.411 6 147748536.70906
                  28115615.213 6 110331745.11406  28115611.540 6 119925788.36406
  28115613.262 6 113209952.01106  28115614.465 7 111770855.13507
  23083077.001 7 121302446.61207  94521437.00605  23083082.323 5  23083076.380 5
  23083082.511 7  23083081.548 7  90583048.03707

  22714394.054 7 119365025.01807  93011777.57605  22714398.281 5  22714393.643 5
  22714398.519 6

  26918625.713 6 141458366.78606
                  26918634.553 6 105634536.43006  26918631.980 6 114820134.66606
  26918632.620 7 108390212.40807  26918633.640 7 107012378.49207
 25  4 11  1 17  0.0000000  0 31G18R20G15E29G23R22R21G13G10R08R06E33
                                R23G24G26R07E13E26E15S33S31E07S35G16
                                E21E08G32E31G27G29E23
  20646502.490 8 108498421.51408  84544377.60507  20646504.222 7  20646502.262 7
  20646504.633 8  20646507.307 8  81021754.54408

  23413977.090 5 125205013.61805  97381716.23506
  23413990.906 6

  21178706.730 8 111295353.20908  86723905.83006  21178708.595 6  21178706.435 6
  21178708.987 7

  26251057.161 6 137950642.12006
                  26251066.675 7 103015354.99807  26251065.286 7 111973116.39307
  26251063.682 7 105702677.43307  26251065.017 7 104358911.29007
  20454272.055 8 107488382.72208  83757457.53406  20454273.749 6  20454271.827 6
  20454273.936 8  20454276.861 8  80267583.84908

  20341905.394 8 108586588.89108  84456316.46207
  20341910.266 7

  19801646.604 8 105962882.75708  82415739.70707
  19801653.715 7

  24235887.698 6 127360667.11806  99242199.91402  24235892.571 2  24235887.238 2


  22198860.179 7 116656114.40707  90901067.68606  22198865.244 6  22198859.866 6
  22198865.053 7  22198862.562 8  87113538.74808

  22246807.814 7 119130977.38707  92657601.59706
  22246817.535 6

  20098608.975 6 107250110.17606


  27223142.549 6 143058727.40406
                  27223148.992 6 106829676.90306  27223148.437 6 116119184.06306
  27223146.599 7 109616520.23407  27223147.741 7 108223101.63807
  23920730.574 6 127959815.94606


  23751532.571 6 124815282.63706  97258757.17604  23751540.781 4  23751532.330 4
  23751541.220 6  23751541.312 7  93206329.60807

  25208134.495 6 132469603.58306 103223096.65302  25208147.835 2  25208133.910 2
  25208148.055 5  25208147.660 6  98922127.27906

  19176340.662 8 102652937.36308  79841425.63308
  19176346.534 8

  24435826.515 7 128411215.40507
                  24435832.447 8  95891561.84408  24435829.864 7 104229927.30007
  24435830.301 8  98393065.32208  24435831.344 8  97142313.65608
  24005147.755 7 126148233.49407
                  24005150.891 8  94201811.62108  24005151.967 8 102393202.33908
  24005148.762 8  96659220.87608  24005149.775 8  95430521.82308
  28425257.347 5 149375627.01705
                  28425271.146 6 111546724.15006  28425266.580 6 121246442.87706
  28425267.603 6 114456633.69506  28425269.602 6 113001678.99806
  37105181.664 7 194989034.05107
                  37105179.855 6 145608703.89206

  36827865.759 7 193531757.40207
                  36827875.509 7 144520522.95607

  23713208.111 7 124614236.83307
                  23713213.755 8  93056396.86808  23713211.510 8 101147691.74508
  23713211.646 8  95483915.27908  23713212.702 8  94270157.14708
  36976939.496 7 194315136.73607
                  36976944.412 6 145105475.62906

  24310160.493 6 127750788.68406  99546095.31603  24310165.180 3  24310159.680 3


  27868173.156 6 146448168.07606
                  27868188.892 6 109360664.18106  27868185.015 6 118870288.45506
  27868185.148 6 112213544.73106  27868187.112 7 110787107.53207
  25472185.330 7 133857558.13607
                  25472189.874 7  99958773.52707  25472189.116 7 108650764.90307
  25472187.951 7 102566368.76607  25472188.768 8 101262568.72008
  24107302.397 6 126685056.95306  98715789.40404  24107312.662 4  24107302.304 4
  24107313.432 6  24107312.055 6  94602709.79906

  28115471.424 6 147747832.02706
                  28115481.574 6 110331218.88706  28115476.725 6 119925216.36706
  28115478.973 6 113209412.04606  28115480.415 7 111770322.03807
  23075515.326 7 121262708.54007  94490472.31405  23075520.389 5  23075514.727 5
  23075520.826 7  23075519.597 7  90553373.55607

  22724304.644 7 119417103.75507  93052358.34805  22724308.721 5  22724304.233 5
  22724309.238 6

  26923628.727 6 141484658.68306
                  26923637.602 6 105654169.95806  26923634.740 6 114841475.47906
  26923636.026 7 108410358.11007  26923636.867 7 107032268.10607
 25  4 11  1 17 15.0000000  0 31G18R20G15E29G23R22R21G13G10R08R06E33
                                R23G24G26R07E13E26E15S33S31E07S35G16
                                E21E08G32E31G27G29E23
  20646467.780 8 108498239.52908  84544235.80107  20646469.599 7  20646467.548 7
  20646469.679 8  20646472.612 8  81021618.65008

  23422952.437 5 125253024.24205  97419057.79006
  23422969.430 6

  21185144.402 8 111329183.33808  86750266.95906  21185146.238 6  21185144.121 6
  21185146.773 7

  26242602.145 6 137906209.89206
                  26242611.024 7 102982175.20907  26242610.064 6 111937051.35006
  26242608.802 7 105668632.07107  26242609.689 7 104325298.71607
  20455178.802 8 107493147.80908  83761170.59706  20455180.523 6  20455178.570 6
  20455180.627 8  20455183.602 8  80271142.20008

  20334628.692 8 108547745.47808  84426104.94207
  20334633.514 7

  19804471.929 8 105977999.82308  82427497.41907
  19804478.956 7

  24245294.162 6 127410097.66606  99280717.18502  24245299.135 2  24245293.711 2


  22194598.888 7 116633720.61207  90883618.01106  22194603.779 6  22194598.575 6
  22194603.859 7  22194601.231 8  87096816.15308

  22236283.674 7 119074626.23107  92613773.06806
  22236293.403 6

  20106021.533 6 107289667.58006


  27217418.403 6 143028649.66306
                  27217425.267 6 106807216.27306  27217424.715 6 116094770.33306
  27217423.003 7 109593473.68307  27217424.082 7 108200348.04907
  23910279.687 7 127903906.53307


  23745062.679 6 124781282.05806  97232263.30004  23745070.809 4  23745062.429 4
  23745071.106 6  23745071.166 7  93180939.66507

  25213931.603 6 132500064.57706 103246832.37202  25213944.261 2  25213931.045 2
  25213943.743 5  25213944.311 6  98944873.98706

  19173654.906 8 102638561.12808  79830244.15008
  19173661.627 8

  24438048.683 7 128422891.89607
                  24438054.331 8  95900281.30208  24438051.806 7 104239404.97207
  24438052.211 8  98402012.24008  24438053.316 8  97151146.84408
  24002078.985 7 126132105.73107
                  24002081.897 8  94189768.18008  24002082.975 8 102380111.63108
  24002079.757 8  96646863.25108  24002080.744 8  95418321.29008
  28430549.792 5 149403440.97705
                  28430563.754 6 111567494.30206  28430558.810 6 121269019.12806
  28430560.655 6 114477945.69306  28430562.563 6 113022720.07106
  37105185.403 7 194989050.74207
                  37105183.012 6 145608716.42606

  36827865.146 7 193531754.84707
                  36827875.062 7 144520521.10907

  23710062.879 7 124597708.55707
                  23710068.501 8  93044054.35008  23710066.383 8 101134275.95608
  23710066.437 8  95471250.78108  23710067.452 8  94257653.63908
  36976949.839 7 194315187.61607
                  36976953.995 6 145105513.62106

  24314482.624 6 127773496.85906  99563789.95703  24314486.726 3  24314481.811 3


  27875190.111 6 146485040.88806
                  27875205.637 6 109388198.95206  27875202.237 6 118900217.60506
  27875202.410 6 112241797.83206  27875204.099 7 110815001.46707
  25476754.714 7 133881570.99507
                  25476759.444 7  99976705.19107  25476758.640 7 108670255.84207
  25476757.392 7 102584768.21707  25476758.256 8 101280734.27808
  24097161.897 6 126631768.57706  98674266.19304  24097172.091 4  24097161.813 4
  24097173.104 6  24097171.407 6  94562916.77106

  28115355.158 6 147747221.18206
                  28115365.378 6 110330762.74606  28115361.230 6 119924720.54806
  28115362.793 6 113208943.99906  28115364.202 7 111769859.94307
  23067971.664 7 121223065.83407  94459581.93205  23067976.529 5  23067971.074 5
  23067977.134 6  23067975.826 7  90523770.29207

  22734226.228 7 119469241.12907  93092984.81205  22734230.115 5  22734225.835 5
  22734230.633 6

  26928641.956 6 141511002.88606
                  26928650.900 6 105673842.54006  26928648.640 6 114862858.73106
  26928649.237 7 108430543.89407  26928650.048 7 107052197.28707
 25  4 11  1 17 30.0000000  0 31G18R20G15E29G23R22R21G13G10R08R06E33
                                R23G24G26R07E13E26E15S33S31E07S35G16
                                E21E08G32E31G27G29E23
  20646447.156 8 108498130.65408  84544150.96707  20646448.868 7  20646446.933 7
  20646449.043 8  20646451.904 8  81021537.35008

  23431946.164 5 125301105.21205  97456454.01806
  23431960.800 6

  21191605.177 8 111363134.04808  86776722.04506  21191606.870 6  21191604.891 6
  21191607.546 7

  26234151.870 6 137861802.78706
                  26234160.694 7 102949014.17807  26234159.887 7 111901006.71407
  26234158.259 7 105634605.96507  26234159.198 7 104291705.14707
  20456096.907 8 107497971.79608  83764929.55907  20456098.507 7  20456096.675 7
  20456098.726 8  20456101.554 8  80274744.54108

  20327364.386 8 108508967.86408  84395944.60707
  20327369.169 7

  19807322.335 8 105993254.27108  82439361.97807
  19807329.348 7

  24254714.843 6 127459598.38006  99319289.12302  24254719.005 2  24254714.401 2


  22190348.144 7 116611382.34907  90866211.60706  22190352.871 6  22190347.836 6
  22190352.706 7  22190350.337 8  87080135.02108

  22225776.046 7 119018358.57607  92570009.48606
  22225786.465 6

  20113456.318 6 107329341.79706


  27211691.681 6 142998555.55706
                  27211698.521 6 106784743.45506  27211698.304 6 116070343.33106
  27211696.181 7 109570414.60207  27211697.351 7 108177582.10007
  23899822.483 6 127847968.73406


  23738603.578 6 124747340.50406  97205815.41604  23738611.769 4  23738603.328 4
  23738612.239 6  23738612.123 7  93155593.79807

  25219731.026 6 132530540.09406 103270579.42502  25219743.642 2  25219730.445 2
  25219743.331 5  25219743.612 6  98967631.54606

  19171002.004 8 102624361.33608  79819199.88307
  19171008.369 7

  24440277.108 7 128434602.70107
                  24440282.836 8  95909026.36808  24440280.467 7 104248910.48107
  24440280.708 8  98410985.43808  24440281.811 8  97160005.97608
  23999012.987 7 126115993.19307
                  23999015.776 8  94177736.09808  23999016.914 8 102367033.28008
  23999013.639 8  96634517.29208  23999014.607 8  95406132.26908
  28435847.132 5 149431278.16805
                  28435861.181 6 111588281.87906  28435856.386 6 121291614.31906
  28435858.276 6 114499275.52006  28435859.710 7 113043778.77007
  37105187.321 7 194989066.77707
                  37105185.963 6 145608728.31906

  36827864.489 7 193531752.65007
                  36827874.659 7 144520519.31807

  23706936.243 7 124581278.46307
                  23706941.955 8  93031785.15008  23706939.822 8 101120939.85708
  23706939.840 8  95458661.50908  23706940.875 8  94245224.40308
  36976959.734 7 194315238.42507
                  36976963.787 6 145105551.64506

  24318820.518 6 127796291.99206  99581552.35303  24318824.772 3  24318819.718 3


  27882202.198 6 146521887.79406
                  27882217.109 6 109415714.37806  27882213.725 6 118930125.73406
  27882213.796 6 112270031.05706  27882215.862 7 110842875.78807
  25481340.475 7 133905668.74607
                  25481344.999 7  99994700.26407  25481344.260 7 108689815.70607
  25481343.030 7 102603232.72807  25481343.901 8 101298964.07008
  24087026.296 6 126578505.28806  98632762.54004  24087036.223 4  24087026.238 4
  24087037.233 6  24087035.342 6  94523142.46106

  28115256.828 6 147746704.76006
                  28115267.042 6 110330377.11706  28115262.893 6 119924301.40406
  28115264.614 6 113208548.31706  28115265.898 7 111769469.28907
  23060446.091 7 121183519.47507  94428766.62605  23060451.115 5  23060445.497 5
  23060452.166 7  23060450.316 7  90494238.96207

  22744158.468 7 119521437.32607  93133657.11205  22744162.555 5  22744158.066 5
  22744162.861 6

  26933665.050 6 141537399.76806
                  26933674.154 6 105693554.45006  26933671.964 6 114884284.75606
  26933672.325 7 108450770.04807  26933673.245 7 107072166.32207
 25  4 11  1 17 45.0000000  0 31G18R20G15E29G23R22R21G13G10R08R06E33
                                R23G24G26R07E13E26E15S33S31E07S35G16
                                E21E08G32E31G27G29E23
  20646440.775 8 108498098.15208  84544125.64407  20646442.666 7  20646440.552 7
  20646442.800 8  20646445.661 8  81021513.08208

  23440950.319 5 125349259.12205  97493906.98106
  23440965.745 6

  21198089.018 8 111397208.06208  86803273.21706  21198090.959 6  21198088.728 6
  21198091.409 7

  26225706.753 6 137817424.14306
                  26225715.530 7 102915874.41707  26225714.795 6 111864985.16806
  26225713.009 7 105600601.66507  26225714.123 7 104258133.11707
  20457026.739 8 107502857.67808  83768736.74707  20457028.238 7  20457026.516 7
  20457028.513 8  20457031.319 8  80278393.09508

  20320112.846 8 108470259.62008  84365838.22807
  20320118.215 7

  19810199.456 8 106008649.26208  82451335.84007
  19810206.121 7

  24264148.096 6 127509171.89906  99357917.78602  24264152.484 2  24264147.654 2


  22186108.336 7 116589102.65807  90848850.84906  22186113.170 6  22186108.028 6
  22186113.328 7  22186110.597 8  87063497.64208

  22215284.628 7 118962178.13807  92526313.71106
  22215294.165 6

  20120914.871 6 107369135.62306


  27205962.930 6 142968448.24506
                  27205969.257 6 106762260.75406  27205968.839 6 116045905.60506
  27205966.923 7 109547345.39907  27205968.098 7 108154806.14707
  23889360.422 6 127792005.87506


  23732156.618 6 124713461.49806  97179416.27404  23732164.557 4  23732156.368 4
  23732164.938 6  23732165.080 7  93130294.63307

  25225533.280 6 132561032.84606 103294339.89203  25225546.440 3  25225532.766 3
  25225546.738 5  25225546.194 6  98990401.99206

  19168382.471 8 102610341.19508  79808295.35207
  19168389.396 7

  24442512.821 7 128446351.00107
                  24442518.507 8  95917799.44808  24442516.032 7 104258446.43307
  24442516.368 8  98419987.38108  24442517.457 8  97168893.48908
  23995950.130 8 126099899.04108
                  23995953.152 8  94165717.75508  23995954.274 8 102353969.85608
  23995951.050 8  96622185.42508  23995951.988 8  95393957.16408
  28441149.379 5 149459141.85005
                  28441163.652 6 111609089.17206  28441159.221 6 121314230.93206
  28441160.183 6 114520625.61506  28441161.936 7 113064857.46807
  37105190.626 7 194989085.70407
                  37105189.742 6 145608742.50106

  36827864.359 7 193531752.43407
                  36827874.521 7 144520519.05807

  23703828.941 7 124564949.76007
                  23703834.615 8  93019591.66808  23703832.546 8 101107686.06308
  23703832.583 8  95446149.93308  23703833.608 8  94232871.87408
  36976970.010 7 194315292.25707
                  36976973.831 6 145105591.85006

  24323174.445 6 127819176.72206  99599384.57003  24323180.428 3  24323173.636 3


  27889209.204 6 146558711.64306
                  27889224.710 6 109443212.58806  27889221.208 6 118960015.13006
  27889221.497 6 112298246.61706  27889223.159 7 110870732.68107
  25485942.876 7 133929854.34207
                  25485947.323 7 100012760.93507  25485946.522 7 108709446.87207
  25485945.355 7 102621764.54407  25485946.287 8 101317260.31308
  24076896.062 6 126525270.44006  98591281.01304  24076906.147 4  24076896.054 4
  24076906.617 6  24076905.234 6  94483389.38806

  28115177.546 6 147746285.86806
                  28115187.338 6 110330064.30706  28115183.285 6 119923961.37806
  28115184.743 6 113208227.34306  28115186.079 7 111769152.39707
  23052939.371 7 121144072.84007  94398029.02205  23052944.687 5  23052938.786 5
  23052944.893 7  23052944.006 7  90464782.10707

  22754103.116 7 119573695.19207  93174377.46705  22754106.978 5  22754102.710 5
  22754107.660 6

  26938698.623 6 141563852.23906
                  26938707.731 6 105713307.85506  26938705.544 6 114905755.87206
  26938706.300 7 108471038.75607  26938707.027 7 107092177.37707
 25  4 11  1 18  0.0000000  0 31G18R20G15E29G23R22R21G13G10R08R06E33
                                R23G24G26R07E13E26E15S33S31E07S35G16
                                E21E08G32E31G27G29E23
  20646448.860 8 108498139.71808  84544158.03407  20646450.594 7  20646448.641 7
  20646451.109 8  20646453.590 8  81021544.12508

  23449970.046 5 125397483.37705  97531414.67206
  23449984.180 6

  21204596.307 8 111431402.66608  86829918.35206  21204598.069 6  21204596.017 6
  21204598.731 7

  26217266.649 6 137773071.74906
                  26217275.447 7 102882754.23307  26217274.329 7 111828984.92507
  26217273.142 7 105566617.46307  26217274.056 7 104224580.92307
  20457967.692 8 107507802.85908  83772590.14007  20457969.295 7  20457967.473 7
  20457969.497 8  20457972.349 8  80282085.93508

  20312873.716 8 108431618.66308  84335784.16507
  20312878.730 7

  19813102.035 8 106024182.33408  82463417.11108
  19813108.898 8

  24273594.897 6 127558815.49206  99396601.09502  24273599.345 2  24273594.446 2


  22181879.087 7 116566879.11207  90831533.83606  22181884.092 6  22181878.766 6
  22181883.991 7  22181881.525 8  87046902.16808

  22204808.508 7 118906082.69207  92482684.08307
  22204818.445 7

  20128393.517 6 107409045.87706


  27200230.692 6 142938325.27606
                  27200237.047 6 106739766.37506  27200236.498 6 116021455.17806
  27200234.604 7 109524264.20907  27200235.791 7 108132018.36407
  23878893.924 6 127736015.76006


  23725721.299 6 124679642.99006  97153064.26404  23725728.899 4  23725721.049 4
  23725729.189 6  23725729.753 7  93105040.65807

  25231338.884 6 132591540.05806 103318111.65503  25231351.729 3  25231338.393 3
  25231352.882 6  25231351.622 6  99013183.22206

  19165796.868 8 102596498.23608  79797528.62408
  19165803.179 8

  24444755.097 7 128458134.47007
                  24444760.847 8  95926598.78408  24444758.341 7 104268010.93607
  24444758.737 8  98429016.27108  24444759.779 8  97177807.60008
  23992890.660 8 126083820.96308
                  23992893.603 8  94153711.42108  23992894.641 8 102340919.48708
  23992891.502 8  96609865.87608  23992892.419 8  95381794.22308
  28446456.522 5 149487029.57605
                  28446470.642 6 111629914.41206  28446465.644 6 121336867.03906
  28446466.922 6 114541994.13706  28446468.835 7 113085954.34807
  37105194.932 7 194989105.07307
                  37105193.351 6 145608757.02306

  36827865.138 7 193531753.04507
                  36827874.731 7 144520519.58407

  23700740.617 7 124548720.09607
                  23700746.187 8  93007472.14208  23700744.007 8 101094512.65008
  23700744.199 8  95433714.24108  23700745.174 8  94220594.26508
  36976979.879 7 194315346.16607
                  36976984.138 6 145105632.03906

  24327546.451 6 127842148.48406  99617284.59703  24327551.864 3  24327545.673 3


  27896212.102 6 146595509.81706
                  27896227.535 6 109470691.62006  27896223.427 6 118989883.66806
  27896224.092 6 112326442.51506  27896225.858 7 110898570.14407
  25490561.570 7 133954125.18107
                  25490565.911 7 100030885.26007  25490565.135 7 108729147.22407
  25490564.002 7 102640361.67107  25490564.878 8 101335621.03908
  24066770.240 6 126472061.92006  98549820.03004  24066780.998 4  24066770.191 4
  24066780.965 6  24066779.994 6  94443655.97506

  28115116.241 6 147745961.95206
                  28115125.402 6 110329822.45006  28115121.130 6 119923698.48706
  28115123.063 6 113207979.17806  28115124.380 7 111768907.38407
  23045451.531 7 121104723.83007  94367367.49505  23045456.803 5  23045450.946 5
  23045457.225 7  23045455.851 7  90435398.13707

  22764058.626 7 119626011.88407  93215143.66705  22764062.550 5  22764058.220 5
  22764063.437 6

  26943742.018 6 141590357.55906
                  26943751.793 6 105733100.75406  26943749.288 6 114927269.89306
  26943749.907 7 108491347.99607  26943750.874 7 107112228.44507
 25  4 11  1 18 15.0000000  0 31G18R20G15E29G23R22R21G13G10R08R06E33
                                R23G24G26R07E13E26E15S33S31E07S35G16
                                E21E08G32E31G27G29E23
  20646470.672 8 108498255.19708  84544248.02307  20646472.564 7  20646470.453 7
  20646473.033 8  20646475.559 8  81021630.36508

  23459002.701 5 125445777.10705  97568976.37706
  23459016.112 6

  21211125.891 8 111465717.16708  86856656.91106  21211127.917 6  21211125.596 6
  21211128.355 7

  26208831.641 6 137728745.46806
                  26208840.289 7 102849653.55907  26208839.525 7 111793005.88107
  26208838.041 7 105532653.28307  26208838.926 7 104191048.49507
  20458919.860 8 107512806.87908  83776489.38307  20458921.540 7  20458919.646 7
  20458921.751 8  20458924.605 8  80285822.70608

  20305647.528 8 108393045.04408  84305782.49807
  20305652.605 7

  19816031.026 8 106039853.38808  82475605.68807
  19816037.424 7

  24283054.485 6 127608528.45506  99435338.45802  24283060.002 2  24283054.047 2


  22177660.911 7 116544711.21907  90814260.19106  22177665.653 6  22177660.594 6
  22177665.634 7  22177663.081 8  87030348.27108

  22194349.187 7 118850072.34507  92439120.60507
  22194359.574 7

  20135894.537 6 107449071.89206


  27194495.228 6 142908186.36106
                  27194501.676 6 106717260.07906  27194501.460 6 115996991.80006
  27194499.363 7 109501170.79307  27194500.466 7 108109218.50607
  23868419.937 6 127679998.27606


  23719297.269 6 124645885.07906  97126759.48104  23719305.418 4  23719297.010 4
  23719305.575 6  23719305.811 7  93079831.90807

  25237146.930 6 132622061.10206 103341894.14703  25237160.098 3  25237146.434 3
  25237160.273 5  25237160.176 6  99035974.78006

  19163243.986 8 102582831.97108  79786899.32708
  19163250.413 8

  24447003.921 7 128469952.86907
                  24447009.774 8  95935424.21108  24447007.237 7 104277603.78707
  24447007.706 8  98438071.92108  24447008.755 8  97186748.13908
  23989834.115 7 126067758.75707
                  23989837.020 8  94141716.92708  23989838.161 8 102327881.98708
  23989834.975 8  96597558.48108  23989835.868 8  95369643.27808
  28451768.245 5 149514940.97105
                  28451781.644 6 111650757.36706  28451776.826 6 121359522.45106
  28451778.426 6 114563380.82506  28451780.148 7 113107069.16907
  37105197.360 7 194989124.51507
                  37105197.049 6 145608771.49206

  36827865.710 7 193531753.80407
                  36827874.789 7 144520520.11807

  23697671.021 7 124532589.22507
                  23697676.618 8  92995426.39108  23697674.501 8 101081419.42908
  23697674.612 8  95421354.25308  23697675.544 8  94208391.39608
  36976990.584 7 194315400.34107
                  36976994.490 6 145105672.51506

  24331934.801 6 127865206.59206  99635251.91303  24331939.272 3  24331934.023 3


  27903209.306 6 146632281.70806
                  27903224.822 6 109498151.04506  27903221.470 6 119019730.91606
  27903221.493 6 112354618.29006  27903223.357 7 110926387.74007
  25495196.338 7 133978480.76007
                  25495200.727 7 100049072.85407  25495200.042 7 108748916.35007
  25495198.662 7 102659023.73007  25495199.590 8 101354045.86608
  24056649.344 6 126418879.67806  98508379.51504  24056660.380 4  24056649.260 4
  24056660.971 6  24056659.265 6  94403942.20106

  28115072.371 6 147745732.71206
                  28115081.664 6 110329651.25306  28115077.373 6 119923512.40906
  28115079.868 6 113207803.51606  28115080.791 7 111768733.95707
  23037981.863 7 121065472.40907  94336782.01305  23037987.414 5  23037981.287 5
  23037987.693 7  23037986.567 7  90406087.05707

  22774025.119 7 119678386.96207  93255955.35005  22774029.309 5  22774024.722 5
  22774030.156 6

  26948795.948 6 141616915.20106
                  26948805.691 6 105752932.70406  26948803.495 6 114948826.37706
  26948803.739 7 108511697.30907  26948804.657 7 107132319.08007
