     2.11           OBSERVATION DATA    M                   RINEX VERSION / TYPE
ssrcrin-13.7.0x                         11-APR-25 00:00     PGM / RUN BY / DATE 
(000000000000583293750002) Septentrio proprietary           COMMENT             
SEPT                                                        MARKER NAME         
Unknown                                                     MARKER NUMBER       
Unknown             Unknown                                 OBSERVER / AGENCY   
3083514             SEPT POLARX5E       5.4.0               REC # / TYPE / VERS 
Unknown             Unknown                                 ANT # / TYPE        
 -1908063.4162 -5042727.2115  3400842.0891                  APPROX POSITION XYZ 
        0.0000        0.0000        0.0000                  ANTENNA: DELTA H/E/N
     1     1                                                WAVELENGTH FACT L1/2
    14    C1    L1    L2    P2    P1    C2    C5    L5    C6# / TYPES OF OBSERV 
          L6    C7    L7    C8    L8                        # / TYPES OF OBSERV 
For GPS, L2 corresponds to the L2P carrier phase.           COMMENT             
For GLONASS, L2 corresponds to the L2CA carrier phase.      COMMENT             
  2025     4    11     0     0    0.0000000     GPS         TIME OF FIRST OBS   
                                                            END OF HEADER       
 25  4 11  0  0  0.0000000  0 30G18R20G15G05G23R22R21G13G10G25R06E03
                                G26R07E13E27E26E15S33S31E07S35G16E21
                                E08R12R05G29E23R11
  21181584.617 8 111310285.84908  86735438.03306  21181586.993 6  21181584.372 6
  21181587.178 7  21181590.192 8  83121520.20708

  21351825.392 6 114177829.44006  88805033.22707
  21351836.342 7

  20506393.657 8 107762314.08508  83970885.96907  20506396.179 7  20506393.353 7
  20506396.266 7

  23010038.234 7 120918711.58807  94222464.78505  23010041.742 5  23010038.020 5
  23010042.537 6

  20838286.061 7 109506368.92107  85329909.07306  20838288.910 6  20838285.865 6
  20838288.973 7  20838292.484 8  81774515.45908

  22857187.009 7 122013286.75007  94899292.08706
  22857194.329 6

  19979325.097 8 106913672.43408  83155241.73108
  19979332.523 8

  22284053.423 7 117103728.56107  91249786.02805  22284057.147 5  22284052.967 5


  24048229.643 6 126374511.05906  98473817.74404  24048241.320 4  24048229.380 4
  24048240.689 6  24048239.636 7  94370751.85607

  24943674.703 6 131079685.70606 102139988.75203  24943692.040 3  24943673.988 3
  24943692.652 6  24943694.498 6  97884146.91706

  19231932.939 6 102625354.02806


  27577347.962 6 144920081.19506
                  27577358.293 6 108219660.26506  27577355.067 6 117629842.33606
  27577355.815 7 111042764.29907  27577356.981 7 109631215.35707
  23872381.216 6 125450242.97006  97753482.74804  23872390.309 4  23872380.729 4
  23872390.743 6  23872388.735 7  93680417.74507

  21433469.643 7 114735449.92107  89238916.06107
  21433480.302 7

  23982548.455 8 126029222.29108
                  23982554.458 8  94112800.53008  23982551.901 7 102296491.17907
  23982552.339 8  96567901.56508  23982553.368 8  95340351.12108
  28042608.582 6 147364686.04206
                  28042629.701 6 110045011.21706  28042624.167 6 119614327.67306
  28042625.831 6 112915750.41806  28042627.646 6 111480383.39406
  25024631.322 7 131505632.00607
                  25024636.019 7  98202459.70507  25024636.334 7 106741735.38107
  25024633.805 7 100764234.47307  25024634.774 8  99483352.66308
  26965280.711 6 141703432.85906
                  26965292.710 7 105817497.83207  26965288.534 6 115019019.35806
  26965289.790 7 108577948.18007  26965291.161 7 107197723.07807
  37103727.627 7 194981377.57007
                  37103726.739 6 145602996.05306

  36827715.079 7 193530949.50307
                  36827725.947 7 144519914.84907

  25436519.098 7 133670234.11107
                  25436528.769 7  99818974.39007  25436524.820 7 108498326.22207
  25436526.224 7 102422909.95307  25436527.476 8 101120943.24508
  36973921.830 7 194299260.37907
                  36973927.752 6 145093640.81106

  24001691.188 6 126129778.19106  98282972.10204  24001696.514 4  24001690.241 4


  25703287.261 7 135071700.20707
                  25703296.542 7 100865274.84207  25703295.295 7 109636160.19007
  25703294.156 7 103496533.62107  25703295.139 8 102180907.30608
  24950421.061 7 131115655.67907
                  24950426.335 7  97911245.29007  24950425.532 7 106425192.09707
  24950424.345 8 100465427.17408  24950425.326 8  99188333.80508
  23485643.130 7 125456104.55107  97577012.52106
  23485653.016 6

  21920738.382 8 117179220.98908  91139575.79707
  21920746.164 7

  20474156.719 8 107592537.19308  83838420.16607  20474158.855 7  20474156.317 7
  20474159.046 7

  26053715.669 7 136913255.49707
                  26053723.254 7 102240465.95107  26053721.383 7 111130925.30207
  26053721.327 7 104907600.23807  26053722.196 7 103574037.16607
  23749724.672 6 126911203.77706  98708694.98106
  23749741.256 6

 25  4 11  0  0 15.0000000  0 30G18R20G15G05G23R22R21G13G10G25R06E03
                                G26R07E13E27E26E15S33S31E07S35G16E21
                                E08R12R05G29E23R11
  21178557.847 8 111294379.71108  86723043.66406  21178560.102 6  21178557.606 6
  21178560.328 7  21178563.326 8  83109642.27608

  21356212.042 6 114201292.28106  88823282.09307
  21356224.163 7

  20503997.355 8 107749721.86408  83961073.87807  20503999.939 7  20503997.056 7
  20504000.277 7

  23018851.901 7 120965027.97107  94258555.44505  23018855.565 5  23018851.682 5
  23018856.396 6

  20834554.882 7 109486761.47207  85314630.58606  20834557.708 6  20834554.695 6
  20834558.195 7  20834561.209 8  81759873.58808

  22848943.995 7 121969286.59707  94865069.79406
  22848952.040 6

  19976108.371 8 106896459.87308  83141854.20207
  19976115.618 7

  22286534.801 7 117116767.12207  91259945.96405  22286538.093 5  22286534.345 5


  24040509.405 6 126333941.76106  98442205.49104  24040520.988 4  24040509.146 4
  24040520.771 6  24040519.455 7  94340456.81907

  24952410.264 5 131125594.04405 102175761.30503  24952428.168 3  24952409.558 3
  24952428.435 6  24952430.761 6  97918428.90106

  19229354.899 6 102611599.44406


  27582478.486 6 144947040.24206
                  27582488.430 6 108239791.99706  27582485.223 6 117651724.66206
  27582486.034 7 111063421.20607  27582487.198 7 109651609.67607
  23874325.919 6 125460459.80706  97761443.90804  23874334.436 4  23874325.423 4
  23874334.779 6  23874332.879 7  93688047.16007

  21422394.728 7 114676169.45507  89192809.18307
  21422406.578 7

  23983504.685 8 126034246.88608
                  23983510.576 8  94116552.66708  23983508.061 7 102300569.58507
  23983508.460 8  96571751.58608  23983509.508 8  95344152.20008
  28050630.877 6 147406840.18106
                  28050651.659 6 110076489.77306  28050646.305 6 119648543.56506
  28050647.879 6 112948050.16306  28050649.455 7 111512272.54507
  25021203.696 7 131487619.67107
                  25021208.349 7  98189008.96807  25021208.897 7 106727114.99807
  25021206.072 7 100750432.83907  25021207.110 8  99469726.47808
  26969644.615 6 141726360.63406
                  26969655.501 7 105834619.18207  26969651.713 6 115037629.53006
  26969652.871 7 108595516.19207  26969654.213 7 107215067.76007
  37103732.617 7 194981410.13707
                  37103732.802 6 145603020.49206

  36827715.714 7 193530957.72907
                  36827727.485 7 144519920.99107

  25429064.414 7 133631061.42707
                  25429074.283 7  99789722.17307  25429070.697 7 108466530.28807
  25429071.792 7 102392894.61507  25429073.053 8 101091309.46808
  36973929.960 7 194299311.27307
                  36973937.487 6 145093678.60806

  23998929.169 6 126115261.39606  98271660.33604  23998934.071 4  23998928.239 4


  25709563.088 7 135104680.12307
                  25709572.360 7 100889902.64507  25709571.214 7 109662929.57107
  25709570.103 7 103521803.90807  25709571.056 8 102205856.35108
  24949070.564 7 131108557.90007
                  24949075.663 7  97905945.03707  24949074.825 7 106419430.94007
  24949073.631 8 100459988.65008  24949074.642 8  99182964.41608
  23488410.056 7 125470883.30007  97588507.06906
  23488420.488 6

  21930740.366 8 117232693.12008  91181165.21307
  21930748.910 7

  20478170.376 8 107613628.05508  83854854.59107  20478172.368 7  20478169.983 7
  20478172.737 7

  26053876.627 7 136914103.76407
                  26053884.798 7 102241099.41007  26053882.785 7 111131613.83907
  26053882.895 7 104908250.21607  26053883.613 7 103574678.88507
  23758547.136 6 126958353.67006  98745366.91506
  23758564.217 6

 25  4 11  0  0 30.0000000  0 30G18R20G15G05G23R22R21G13G10G25R06E03
                                G26R07E13E27E26E15S33S31E07S35G16E21
                                E08R12R05G29E23R11
  21175537.239 8 111278507.10308  86710675.42006  21175539.651 6  21175536.989 6
  21175539.635 7  21175542.891 8  83097789.37908

  21360615.246 6 114224830.89206  88841589.88007
  21360626.043 7

  20501630.595 8 107737285.55308  83951383.27807  20501633.333 7  20501630.291 7
  20501633.532 7

  23027668.715 7 121011361.13807  94294659.18105  23027672.523 5  23027668.487 5
  23027673.023 6

  20830841.402 7 109467247.73707  85299425.11506  20830844.343 6  20830841.219 6
  20830844.915 7  20830847.851 8  81745301.69108

  22840697.522 7 121925269.18207  94830834.08906
  22840705.603 6

  19972903.918 8 106879311.26008  83128516.40207
  19972910.776 7

  22289044.366 7 117129956.80907  91270223.65605  22289047.849 5  22289043.910 5


  24032799.957 6 126293426.78806  98410635.57804  24032811.289 4  24032799.716 4
  24032810.562 6  24032809.392 7  94310202.36207

  24961138.104 6 131171457.74006 102211499.04203  24961156.038 3  24961137.376 3
  24961156.890 6  24961158.318 6  97952677.54906

  19226814.803 6 102598044.05606


  27587623.450 6 144974079.01206
                  27587633.598 6 108259983.24606  27587630.573 6 117673671.68506
  27587631.600 7 111084139.19207  27587632.528 7 109672064.29307
  23876291.365 6 125470786.61306  97769490.75504  23876299.504 4  23876290.883 4
  23876299.901 6  23876298.202 7  93695758.73907

  21411337.102 7 114616978.96307  89146772.26507
  21411349.658 7

  23984463.105 8 126039283.52908
                  23984468.938 8  94120313.81008  23984466.405 7 102304657.78007
  23984466.948 8  96575610.84708  23984467.943 8  95347962.40308
  28058646.702 6 147448964.15106
                  28058667.947 6 110107945.79106  28058661.917 6 119682734.94206
  28058663.736 6 112980326.79206  28058665.581 7 111544138.86707
  25017776.601 7 131469610.68407
                  25017781.338 7  98175560.74407  25017781.771 7 106712497.34107
  25017779.094 7 100736633.79307  25017780.090 8  99456102.84308
  26974008.901 6 141749295.39106
                  26974020.117 7 105851745.74607  26974015.916 6 115056245.37206
  26974017.323 7 108613089.52807  26974018.593 7 107232417.71407
  37103738.390 7 194981442.65307
                  37103739.219 6 145603044.59206

  36827720.959 7 193530965.57307
                  36827728.974 7 144519926.68807

  25421618.142 7 133591929.88407
                  25421627.732 7  99760500.67207  25421623.768 7 108434767.74707
  25421625.285 7 102362910.80707  25421626.464 8 101061706.81408
  36973941.157 7 194299362.62507
                  36973947.302 6 145093717.15906

  23996192.784 6 126100878.86306  98260453.19104  23996196.691 4  23996191.859 4


  25715849.175 7 135137712.56707
                  25715858.223 7 100914569.68307  25715857.184 7 109689741.57707
  25715855.938 7 103547114.43807  25715856.955 8 102230845.13408
  24947739.858 7 131101564.53307
                  24947744.837 7  97900722.75607  24947744.027 7 106413754.52807
  24947742.880 7 100454630.13007  24947743.793 8  99177674.01608
  23491204.355 7 125485811.76307  97600118.06106
  23491215.090 6

  21940763.680 8 117286266.99308  91222833.75107
  21940771.067 7

  20482208.170 8 107634848.06908  83871389.65707  20482210.423 7  20482207.768 7
  20482210.568 7

  26054057.721 7 136915054.71407
                  26054065.622 7 102241809.54707  26054063.647 7 111132385.71707
  26054063.742 7 104908978.87707  26054064.566 7 103575398.28307
  23767375.030 6 127005524.38006  98782055.04106
  23767392.521 6

 25  4 11  0  0 45.0000000  0 30G18R20G15G05G23R22R21G13G10G25R06E03
                                G26R07E13E27E26E15S33S31E07S35G16E21
                                E08R12R05G29E23R11
  21172522.781 8 111262665.14108  86698331.05706  21172525.057 6  21172522.545 6
  21172525.118 7  21172528.155 8  83085959.37008

  21365030.597 6 114248441.72106  88859953.84607
  21365041.456 7

  20499293.191 8 107725002.30908  83941811.94707  20499295.882 7  20499292.887 7
  20499296.165 7

  23036488.334 7 121057707.76907  94330773.40405  23036491.985 5  23036488.106 5
  23036492.641 6

  20827145.277 7 109447824.76207  85284290.36606  20827148.234 6  20827145.085 6
  20827148.533 7  20827151.759 8  81730797.56108

  22832448.466 7 121881231.62807  94796582.71206
  22832456.568 6

  19969710.610 8 106862223.79908  83115226.15907
  19969717.796 7

  22291582.638 7 117143294.42007  91280616.62405  22291585.911 5  22291582.178 5


  24025098.979 6 126252963.27706  98379105.74704  24025111.146 4  24025098.743 4
  24025110.696 6  24025109.307 7  94279986.31807

  24969856.230 6 131217273.54306 102247199.47803  24969874.749 3  24969855.533 3
  24969875.851 6  24969876.917 6  97986890.42406

  19224311.524 6 102584684.79306


  27592783.623 6 145001194.36506
                  27592793.657 6 108280231.69406  27592790.507 6 117695680.87506
  27592791.457 7 111104915.85507  27592792.338 7 109692576.85107
  23878276.717 6 125481220.34206  97777620.91604  23878285.039 4  23878276.248 4
  23878285.950 6  23878283.618 7  93703550.13107

  21400296.860 7 114557876.17107  89100803.57307
  21400308.038 7

  23985423.171 8 126044329.31008
                  23985429.163 8  94124081.77708  23985426.613 7 102308753.38507
  23985427.129 8  96579477.10408  23985428.116 8  95351779.51408
  28066656.192 5 147491054.79605
                  28066677.534 6 110139376.92006  28066672.065 6 119716899.30406
  28066673.571 6 113012577.87606  28066675.419 7 111575979.96807
  25014349.729 7 131451602.10307
                  25014354.367 7  98162112.82107  25014354.843 7 106697880.02307
  25014352.088 7 100722835.04607  25014353.137 8  99442479.50908
  26978373.845 6 141772234.18706
                  26978385.335 7 105868875.34907  26978381.060 6 115074864.51706
  26978382.472 7 108630666.00007  26978383.732 7 107249770.75007
  37103745.093 7 194981473.36507
                  37103744.773 6 145603067.62806

  36827719.787 7 193530971.23007
                  36827730.043 7 144519931.12507

  25414178.865 7 133552836.78107
                  25414188.421 7  99731307.87007  25414184.520 7 108403036.39807
  25414185.982 7 102332956.43107  25414187.205 8 101032133.22508
  36973951.379 7 194299412.32907
                  36973956.675 6 145093754.34206

  23993480.283 6 126086627.70106  98249348.42404  23993484.791 4  23993479.371 4


  25722144.280 7 135170794.34107
                  25722153.558 7 100939273.56407  25722152.340 7 109716593.64107
  25722151.313 7 103572462.76807  25722152.271 8 102255871.24008
  24946428.019 7 131094672.67507
                  24946433.436 7  97895576.28007  24946432.521 7 106408160.52807
  24946431.356 8 100449349.39808  24946432.293 8  99172460.41308
  23494026.579 7 125500886.65007  97611842.92106
  23494036.810 6

  21950803.457 8 117339939.31108  91264578.86007
  21950812.296 7

  20486270.262 8 107656194.25608  83888023.03707  20486272.489 7  20486269.865 7
  20486272.777 7

  26054257.821 7 136916105.37207
                  26054265.595 7 102242594.13307  26054263.557 7 111133238.54207
  26054263.687 7 104909783.93207  26054264.488 7 103576193.10607
  23776205.704 6 127052712.48506  98818756.68206
  23776223.562 6

 25  4 11  0  1  0.0000000  0 30G18R20G15G05G23R22R21G13G10G25R06E03
                                G26R07E13E27E26E15S33S31E07S35G16E21
                                E08R12R05G29E23R11
  21169514.195 8 111246856.14408  86686012.38206  21169516.711 6  21169513.950 6
  21169516.863 7  21169519.835 8  83074153.97808

  21369459.342 6 114272127.27206  88878375.94207
  21369471.109 7

  20496985.357 8 107712874.68308  83932361.87907  20496988.037 7  20496985.053 7
  20496988.517 7

  23045310.979 7 121104069.95407  94366899.75205  23045314.402 5  23045310.747 5
  23045314.918 6

  20823467.064 7 109428494.71407  85269228.02906  20823469.783 6  20823466.872 6
  20823469.849 7  20823473.378 8  81716362.82508

  22824194.871 7 121837176.33907  94762317.54306
  22824202.833 6

  19966529.325 8 106845200.16908  83101985.58707
  19966536.625 7

  22294149.219 7 117156782.31207  91291126.68305  22294152.613 5  22294148.759 5


  24017409.022 6 126212553.53106  98347617.83504  24017421.015 4  24017408.786 4
  24017420.704 6  24017419.441 7  94249810.42607

  24978566.313 5 131263043.44005 102282864.15203  24978585.099 3  24978565.629 3
  24978585.659 6  24978586.929 6  98021068.98906

  19221845.094 6 102571524.22006


  27597958.396 6 145028388.38506
                  27597968.550 6 108300538.88806  27597965.191 6 117717753.91906
  27597966.283 7 111125752.81207  27597967.213 7 109713148.92507
  23880282.340 7 125491762.93507  97785835.91504  23880291.161 4  23880281.871 4
  23880291.906 6  23880289.946 7  93711422.84007

  21389273.106 7 114498863.77607  89054905.16007
  21389283.853 7

  23986385.524 8 126049386.51108
                  23986391.473 8  94127858.26108  23986389.046 8 102312858.26108
  23986389.521 8  96583352.10708  23986390.463 8  95355605.25808
  28074660.411 6 147533114.09906
                  28074681.156 6 110170784.65806  28074676.319 6 119751038.21306
  28074677.131 6 113044804.97006  28074679.181 7 111607797.38507
  25010923.316 7 131433596.17007
                  25010927.935 7  98148666.86307  25010928.356 7 106683264.84107
  25010925.743 7 100709038.32107  25010926.680 8  99428858.16608
  26982739.578 6 141795179.38306
                  26982751.571 7 105886009.70407  26982747.524 6 115093488.83406
  26982748.757 7 108648247.34507  26982750.071 7 107267128.59607
  37103752.266 7 194981503.63907
                  37103750.711 6 145603090.43506

  36827722.077 7 193530976.98007
                  36827731.049 7 144519935.42807

  25406747.156 7 133513784.56807
                  25406757.061 7  99702145.60907  25406753.279 7 108371338.25007
  25406754.490 7 102303033.41007  25406755.717 8 101002590.58408
  36973958.672 7 194299461.21107
                  36973965.945 6 145093790.73806

  23990793.575 6 126072510.37806  98238347.92604  23990798.320 4  23990792.672 4


  25728449.615 7 135203927.42807
                  25728458.546 7 100964015.76107  25728457.485 7 109743487.34507
  25728456.336 7 103597850.42507  25728457.339 8 102280936.16708
  24945136.398 7 131087884.64807
                  24945141.599 7  97890507.33907  24945140.574 7 106402650.78207
  24945139.588 8 100444148.21008  24945140.526 8  99167325.34708
  23496876.459 7 125516109.90907  97623683.20906
  23496886.413 6

  21960862.801 8 117393711.69808  91306401.80807
  21960871.113 7

  20490357.019 8 107677668.81408  83904756.44607  20490358.966 7  20490356.635 7
  20490359.459 7

  26054477.108 7 136917257.91207
                  26054484.898 7 102243454.79407  26054482.963 7 111134174.03607
  26054483.073 7 104910667.04607  26054483.794 7 103577064.99407
  23785040.593 6 127099919.50006  98855473.04606
  23785057.563 6

 25  4 11  0  1 15.0000000  0 30G18R20G15G05G23R22R21G13G10G25R06E03
                                G26R07E13E27E26E15S33S31E07S35G16E21
                                E08R12R05G29E23R11
  21166512.444 8 111231081.97008  86673720.83806  21166514.973 6  21166512.203 6
  21166515.026 7  21166518.046 8  83062374.58408

  21373903.207 6 114295889.94606  88896858.00607
  21373914.658 7

  20494707.637 8 107700904.37808  83923034.40107  20494710.117 7  20494707.333 7
  20494710.416 7

  23054136.829 7 121150449.29207  94403039.46405  23054140.200 5  23054136.606 5
  23054141.085 6

  20819806.488 7 109409259.34007  85254239.46106  20819809.362 6  20819806.292 6
  20819809.682 7  20819812.936 8  81701998.79108

  22815938.556 7 121793105.17507  94728040.02806
  22815946.355 6

  19963360.654 8 106828242.46608  83088796.27307
  19963367.604 7

  22296745.149 7 117170421.99107  91301755.02505  22296748.296 5  22296744.711 5


  24009729.979 6 126172199.42106  98316173.26204  24009741.410 4  24009729.738 4
  24009741.489 6  24009740.024 7  94219676.10007

  24987268.070 5 131308768.90605 102318494.19603  24987285.875 3  24987267.386 3
  24987286.745 6  24987287.856 6  98055214.43706

  19219416.180 6 102558564.07606


  27603148.608 6 145055662.69706
                  27603158.635 6 108320906.03906  27603155.293 6 117739892.14506
  27603156.415 7 111146651.27307  27603157.394 7 109733781.72907
  23882309.534 6 125502415.99606  97794136.98504  23882318.371 4  23882309.078 4
  23882318.637 6  23882317.145 7  93719378.03707

  21378265.555 7 114439943.88507  89009078.71407
  21378276.515 7

  23987350.589 8 126054456.92208
                  23987356.413 8  94131644.61908  23987353.923 8 102316973.86408
  23987354.381 8  96587237.23908  23987355.323 8  95359441.00208
  28082658.503 6 147575143.67406
                  28082679.421 6 110202170.17606  28082673.995 6 119785152.99106
  28082675.262 6 113077009.26706  28082677.214 7 111639592.29407
  25007497.672 7 131415594.60907
                  25007502.205 7  98135224.18007  25007502.838 7 106668653.21207
  25007500.128 7 100695244.95407  25007501.068 8  99415240.14108
  26987108.033 6 141818132.80706
                  26987119.419 7 105903150.20007  26987115.589 7 115112119.83307
  26987116.722 7 108665834.99407  26987117.996 7 107284492.66707
  37103757.779 7 194981535.14007
                  37103756.735 6 145603113.75806

  36827723.329 7 193530984.08107
                  36827732.346 7 144519940.79907

  25399323.908 7 133474775.29907
                  25399333.795 7  99673015.42607  25399329.759 7 108339674.96807
  25399331.077 7 102273143.29807  25399332.403 8 100973080.43608
  36973968.501 7 194299511.63307
                  36973975.644 6 145093828.53806

  23988132.614 6 126058528.58806  98227453.05804  23988137.830 4  23988131.743 4


  25734764.479 7 135237113.36907
                  25734773.625 7 100988797.42307  25734772.567 7 109770423.96107
  25734771.461 7 103623278.57207  25734772.428 8 102306041.07108
  24943864.900 7 131081202.30907
                  24943869.891 7  97885517.31507  24943868.787 7 106397226.83907
  24943867.911 8 100439028.01408  24943868.877 8  99162270.23808
  23499755.013 7 125531482.95107  97635640.00306
  23499764.526 6

  21970941.236 8 117447585.57708  91348303.69007
  21970949.443 7

  20494467.955 8 107699273.35708  83921591.14207  20494470.203 7  20494467.571 7
  20494470.343 7

  26054716.053 7 136918514.05907
                  26054723.887 7 102244392.83207  26054721.882 7 111135193.63807
  26054722.026 7 104911629.55007  26054722.829 7 103578015.26507
  23793879.290 6 127147146.95206  98892205.32306
  23793895.935 6

 25  4 11  0  1 30.0000000  0 30G18R20G15G05G23R22R21G13G10G25R06E03
                                G26R07E13E27E26E15S33S31E07S35G16E21
                                E08R12R05G29E23R11
  21163517.081 8 111215341.07008  86661455.22306  21163519.491 6  21163516.840 6
  21163519.771 7  21163522.644 8  83050620.04008

  21378361.305 6 114319727.91806  88915398.62607
  21378372.398 7

  20492459.265 8 107689089.94908  83913828.38107  20492461.874 7  20492458.961 7
  20492462.102 7

  23062965.104 7 121196843.79307  94439190.99605  23062968.985 5  23062964.876 5
  23062969.501 6

  20816163.708 7 109390116.98707  85239323.37706  20816166.703 6  20816163.507 6
  20816166.933 7  20816170.250 8  81687704.22108

  22807679.487 7 121749016.66507  94693749.02906
  22807687.744 6

  19960203.406 8 106811349.38608  83075657.23107
  19960210.776 7

  22299369.055 7 117184211.87207  91312500.39605  22299372.414 5  22299368.608 5


  24002061.238 6 126131899.42606  98284770.85604  24002072.452 4  24002060.979 4
  24002072.096 6  24002071.155 7  94189582.16507

  24995960.406 5 131354448.06305 102354088.15503  24995978.414 3  24995959.754 3
  24995980.194 6  24995981.260 6  98089325.24006

  19217025.189 6 102545802.90006


  27608353.294 6 145083015.47706
                  27608363.747 6 108341331.77906  27608360.647 6 117762094.05006
  27608361.467 7 111167609.87007  27608362.483 7 109754473.89707
  23884357.680 6 125513177.69206  97802522.71704  23884366.244 4  23884357.220 4
  23884366.886 6  23884365.104 7  93727414.34707

  21367276.399 7 114381115.57307  88963323.50107
  21367286.373 7

  23988317.480 8 126059538.98608
                  23988323.452 8  94135439.67508  23988321.029 8 102321098.91708
  23988321.344 8  96591131.29208  23988322.401 8  95363285.55608
  28090650.747 6 147617141.66306
                  28090671.668 6 110233532.13806  28090666.735 6 119819242.13606
  28090667.261 6 113109189.38606  28090669.395 7 111671363.33007
  25004072.565 7 131397595.77007
                  25004077.155 7  98121783.52007  25004077.702 7 106654043.79507
  25004074.977 7 100681453.67207  25004075.957 8  99401624.16908
  26991477.037 6 141841092.85406
                  26991488.627 7 105920295.66307  26991484.679 7 115130756.20807
  26991485.895 7 108683427.72807  26991487.169 7 107301861.77007
  37103763.990 7 194981566.95007
                  37103762.646 6 145603137.48006

  36827723.530 7 193530990.79507
                  36827733.723 7 144519945.75807

  25391908.513 7 133435807.62007
                  25391918.554 7  99643916.29207  25391914.493 7 108308045.43207
  25391915.622 7 102243285.03107  25391917.022 8 100943601.73608
  36973976.165 7 194299562.10507
                  36973985.119 6 145093866.03706

  23985498.174 6 126044680.88106  98216662.66904  23985502.274 4  23985497.316 4


  25741089.357 7 135270350.27907
                  25741098.506 7 101013617.14107  25741097.643 7 109797401.92907
  25741096.264 7 103648745.76107  25741097.252 8 102331184.52608
  24942613.013 7 131074624.08407
                  24942618.078 7  97880605.05207  24942617.393 7 106391887.40207
  24942616.074 8 100433987.59608  24942617.060 8  99157293.89808
  23502659.288 7 125547004.05807  97647711.94506
  23502670.664 6

  21981037.002 8 117501558.60008  91390282.68407
  21981046.226 7

  20498603.346 8 107721006.26508  83938525.85707  20498605.882 7  20498602.957 7
  20498605.911 7

  26054974.616 7 136919872.14307
                  26054982.414 7 102245406.98407  26054980.213 7 111136295.98307
  26054980.471 7 104912670.17507  26054981.258 7 103579042.65407
  23802719.632 6 127194392.62706  98928951.77106
  23802736.963 6

 25  4 11  0  1 45.0000000  0 30G18R20G15G05G23R22R21G13G10G25R06E03
                                G26R07E13E27E26E15S33S31E07S35G16E21
                                E08R12R05G29E23R11
  21160527.982 8 111199632.43708  86649214.75706  21160530.212 6  21160527.746 6
  21160530.519 7  21160533.341 8  83038889.60308

  21382832.489 6 114343640.60506  88933997.35707
  21382844.074 7

  20490240.823 8 107677430.51308  83904743.13607  20490243.122 7  20490240.528 7
  20490243.323 7

  23071796.382 7 121243252.28607  94475353.41905  23071800.471 5  23071796.159 5
  23071800.900 6

  20812538.686 7 109371066.55307  85224478.92206  20812541.487 6  20812538.476 6
  20812541.605 7  20812545.032 8  81673478.29008

  22799417.569 7 121704909.89107  94659443.81506
  22799424.444 6

  19957058.593 8 106794519.94208  83062567.66807
  19957065.603 7

  22302021.674 7 117198150.80307  91323361.91605  22302024.802 5  22302021.236 5


  23994402.431 6 126091652.61106  98253409.88404  23994413.726 4  23994402.145 4
  23994413.773 6  23994412.471 7  94159527.93507

  25004642.743 6 131400079.49806 102389644.92903  25004662.233 3  25004642.086 3
  25004663.154 6  25004664.317 6  98123400.44706

  19214670.862 6 102533239.64306


  27613573.209 6 145110445.48706
                  27613583.398 6 108361815.20806  27613580.165 6 117784358.64206
  27613581.107 7 111188627.64807  27613582.275 7 109775224.50107
  23886425.803 6 125524046.73006  97810992.08904  23886434.553 4  23886425.334 4
  23886435.070 6  23886433.480 7  93735530.82307

  21356303.439 7 114322378.14707  88917638.96307
  21356313.709 7

  23989286.547 8 126064631.64708
                  23989292.608 8  94139242.64008  23989290.016 8 102325232.58008
  23989290.482 8  96595033.46608  23989291.504 8  95367138.12608
  28098636.044 6 147659106.82506
                  28098657.482 6 110264869.53406  28098652.212 6 119853304.59706
  28098653.326 6 113141344.32306  28098655.301 6 111703109.49906
  25000647.905 7 131379598.62007
                  25000652.336 7  98108344.12607  25000652.856 7 106639435.73707
  25000650.300 7 100667663.67107  25000651.191 8  99388009.47308
  26995847.057 6 141864058.57006
                  26995858.873 7 105937445.34807  26995854.766 7 115149397.18807
  26995856.248 7 108701024.79307  26995857.438 7 107319235.14707
  37103769.495 7 194981597.37807
                  37103768.455 6 145603160.38206

  36827724.849 7 193530996.95907
                  36827734.899 7 144519950.44607

  25384501.096 7 133396880.67907
                  25384510.784 7  99614847.57807  25384506.826 7 108276448.97007
  25384508.127 7 102213457.99607  25384509.337 8 100914153.86308
  36973989.034 7 194299611.68907
                  36973994.630 6 145093903.16606

  23982887.892 6 126030966.17206  98205975.89204  23982892.460 4  23982887.052 4


  25747423.731 7 135303636.82407
                  25747432.819 7 101038473.94007  25747431.756 7 109824420.20507
  25747430.542 7 103674251.00207  25747431.538 8 102356365.54608
  24941380.854 7 131068148.98507
                  24941385.942 7  97875769.78507  24941385.065 7 106386631.66307
  24941383.915 8 100429026.19108  24941384.846 8  99152395.56208
  23505593.860 7 125562671.64107  97659897.79706
  23505603.117 6

  21991153.468 8 117555629.25808  91432337.60307
  21991161.116 7

  20502763.661 8 107742866.39008  83955559.71407  20502765.765 7  20502763.281 7
  20502766.132 7

  26055252.651 7 136921331.06907
                  26055260.098 7 102246496.44607  26055258.017 7 111137480.16607
  26055258.026 7 104913788.04007  26055258.901 7 103580146.31707
  23811563.276 6 127241654.75406  98965711.00006
  23811581.595 6

 25  4 11  0  2  0.0000000  0 30G18R20G15G05G23R22R21G13G10G25R06E03
                                G26R07E13E27E26E15S33S31E07S35G16E21
                                E08R12R05G29E23R11
  21157545.177 8 111183958.70808  86637001.48106  21157547.586 6  21157544.936 6
  21157547.838 7  21157550.690 8  83027185.21908

  21387318.005 6 114367630.29106  88952655.98307
  21387330.509 7

  20488051.976 8 107665928.78608  83895780.78307  20488054.348 7  20488051.686 7
  20488054.803 7

  23080630.962 7 121289676.92207  94511528.41905  23080635.158 5  23080630.743 5
  23080634.524 6

  20808931.393 7 109352110.51507  85209708.01906  20808934.260 6  20808931.183 6
  20808934.593 7  20808937.773 8  81659322.84908

  22791151.133 7 121660787.49407  94625126.44206
  22791158.861 6

  19953926.266 8 106777756.89108  83049529.75807
  19953933.110 7

  22304702.790 7 117212241.26807  91334341.51405  22304705.907 5  22304702.352 5


  23986754.385 6 126051461.50506  98222092.32704  23986765.243 4  23986754.104 4
  23986764.963 6  23986764.017 7  94129515.32507

  25013317.918 6 131445665.51406 102425166.30003  25013337.172 3  25013317.279 3
  25013337.699 6  25013339.326 6  98157441.74006

  19212354.697 6 102520876.87306


  27618808.290 6 145137955.11306
                  27618818.254 6 108382358.08106  27618815.151 6 117806687.86406
  27618816.180 7 111209706.42207  27618817.172 7 109796035.32507
  23888515.423 6 125535025.39606  97819546.88704  23888523.968 4  23888514.958 4
  23888524.752 6  23888522.658 7  93743729.19207

  21345348.228 7 114263734.48607  88872027.35507
  21345358.454 7

  23990258.081 7 126069737.50007
                  23990264.180 8  94143055.45708  23990261.542 8 102329376.94308
  23990262.072 8  96598945.74508  23990263.112 8  95371000.67508
  28106615.760 6 147701041.44606
                  28106637.217 6 110296184.14906  28106631.503 6 119887342.30306
  28106633.423 6 113173475.85406  28106635.497 6 111734832.57706
  24997223.714 7 131361605.62607
                  24997228.261 7  98094907.83507  24997228.803 7 106624831.06107
  24997226.360 7 100653876.86707  24997227.211 8  99374397.92508
  27000219.253 6 141887032.53606
                  27000230.733 7 105954601.19207  27000226.890 6 115168044.87106
  27000228.186 7 108718628.19507  27000229.277 7 107336614.76807
  37103775.129 7 194981629.47107
                  37103774.536 6 145603184.36906

  36827726.875 7 193531004.46507
                  36827736.298 7 144519956.14807

  25377101.283 7 133357997.25907
                  25377111.241 7  99585811.35807  25377107.486 7 108244887.82307
  25377108.770 7 102183664.30107  25377109.968 8 100884738.90608
  36973995.013 7 194299662.45207
                  36974004.351 6 145093941.04406

  23980304.570 6 126017387.04106  98195394.78004  23980308.533 4  23980303.721 4


  25753767.643 7 135336975.27807
                  25753776.866 7 101063369.49707  25753775.911 7 109851480.60607
  25753774.729 7 103699796.01007  25753775.688 8 102381585.82708
  24940168.812 7 131061779.61607
                  24940173.927 7  97871013.48007  24940172.914 7 106381461.74407
  24940171.867 8 100424145.79708  24940172.755 8  99147577.21208
  23508553.188 7 125578488.20207  97672199.54406
  23508564.707 6

  22001286.672 8 117609799.34908  91474469.86007
  22001294.382 7

  20506948.017 8 107764856.22908  83972694.63907  20506950.336 7  20506947.637 7
  20506950.837 7

  26055549.686 7 136922893.26707
                  26055557.287 7 102247663.03407  26055555.293 7 111138748.20707
  26055555.289 7 104914985.06607  26055556.152 7 103581328.12507
  23820413.346 6 127288935.25706  99002484.47706
  23820430.650 6

 25  4 11  0  2 15.0000000  0 30G18R20G15G05G23R22R21G13G10G25R06E03
                                G26R07E13E27E26E15S33S31E07S35G16E21
                                E08R12R05G29E23R11
  21154568.586 8 111168315.81308  86624812.23406  21154570.777 6  21154568.354 6
  21154570.886 7  21154573.958 8  83015503.85908

  21391819.689 6 114391693.00706  88971371.42707
  21391829.982 7

  20485892.474 8 107654580.81508  83886938.24007  20485894.850 7  20485892.188 7
  20485895.201 7

  23089467.473 7 121336113.25407  94547712.54205  23089471.228 5  23089467.254 5
  23089471.497 6

  20805341.491 7 109333244.69107  85195007.41206  20805344.142 6  20805341.281 6
  20805344.203 7  20805347.733 8  81645234.77408

  22782882.256 7 121616645.44807  94590793.78906
  22782889.698 6

  19950805.330 8 106761056.47508  83036540.56107
  19950812.084 7

  22307411.714 7 117226478.92107  91345435.79905  22307415.330 5  22307411.285 5


  23979116.004 6 126011322.08706  98190815.04204  23979126.603 4  23979115.709 4
  23979127.057 6  23979125.782 7  94099541.29407

  25021984.317 6 131491201.66606 102460648.83003  25022003.042 3  25021983.723 3
  25022003.584 6  25022005.019 6  98191445.78506

  19210073.190 6 102508710.36806


  27624057.355 6 145165540.00206
                  27624067.734 6 108402957.14906  27624064.433 6 117829078.17606
  27624065.333 7 111230842.87507  27624066.433 7 109816903.08507
  23890624.254 6 125546109.38906  97828183.75304  23890633.340 4  23890623.803 4
  23890633.309 6  23890631.750 7  93752006.16307

  21334409.667 7 114205181.08607  88826485.97807
  21334420.444 7

  23991231.610 8 126074852.40408
                  23991237.480 8  94146875.04208  23991234.921 8 102333528.65808
  23991235.449 8  96602864.97208  23991236.432 8  95374870.08108
  28114589.209 5 147742941.18205
                  28114610.416 6 110327472.71506  28114605.372 6 119921351.71006
  28114607.263 6 113205580.66606  28114608.803 6 111766529.26506
  24993800.087 7 131343612.62607
                  24993804.313 7  98081471.54407  24993804.928 7 106610226.37807
  24993802.355 7 100640090.05807  24993803.214 8  99360786.37508
  27004591.360 6 141910010.65806
                  27004603.348 7 105971760.14707  27004599.444 7 115186695.91907
  27004600.675 7 108736234.77807  27004601.915 7 107353997.53807
  37103778.894 7 194981657.90807
                  37103780.157 6 145603205.30606

  36827727.108 7 193531008.68107
                  36827737.157 7 144519959.21907

  25369709.676 7 133319153.47207
                  25369719.598 7  99556804.73007  25369715.832 7 108213358.83007
  25369716.912 7 102153900.96307  25369718.144 8 100855353.92108
  36974005.454 7 194299710.57707
                  36974013.402 6 145093977.02206

  23977745.730 6 126003939.51906  98184916.21604  23977749.522 4  23977744.885 4


  25760120.672 7 135370361.27907
                  25760130.045 7 101088300.55207  25760128.989 7 109878579.60107
  25760127.935 7 103725377.44707  25760128.871 8 102406842.07208
  24938976.286 7 131055511.87007
                  24938981.125 7  97866333.05307  24938980.049 7 106376374.31007
  24938979.077 8 100419343.27808  24938980.008 8  99142835.73908
  23511542.395 7 125594448.74307  97684613.26506
  23511553.034 6

  22011438.342 8 117664064.38108  91516675.96807
  22011446.142 7

  20511156.234 8 107786971.44308  83989927.26307  20511158.750 7  20511155.859 7
  20511158.999 7

  26055865.842 7 136924554.56407
                  26055873.424 7 102248903.62107  26055871.183 7 111140096.65807
  26055871.479 7 104916258.00507  26055872.264 7 103582584.88707
  23829262.724 6 127336229.78906  99039268.92306
  23829280.322 6

 25  4 11  0  2 30.0000000  0 30G18R20G15G05G23R22R21G13G10G25R06E03
                                G26R07E13E27E26E15S33S31E07S35G16E21
                                E08R12R05G29E23R11
  21151598.535 8 111152709.28008  86612651.31906  21151600.900 6  21151598.303 6
  21151601.227 7  21151604.141 8  83003849.65508

  21396332.600 6 114415834.28106  88990147.95407
  21396345.470 7

  20483763.327 8 107643392.03208  83878219.73807  20483765.691 7  20483763.046 7
  20483766.325 7

  23098306.875 7 121382566.62107  94583909.94605  23098310.892 5  23098306.647 5
  23098311.657 6

  20801769.427 7 109314474.51007  85180381.33506  20801772.246 6  20801769.222 6
  20801772.345 7  20801775.805 8  81631218.12308

  22774609.908 7 121572489.34007  94556450.21806
  22774617.313 6

  19947696.939 8 106744424.57408  83023604.65907
  19947704.104 7

  22310150.283 7 117240869.15707  91356648.98705  22310153.537 5  22310149.854 5


  23971487.878 6 125971239.94906  98159582.39204  23971499.231 4  23971487.624 4
  23971499.139 6  23971498.002 7  94069610.03007

  25030640.279 5 131536693.14805 102496096.54603  25030660.180 3  25030639.649 3
  25030660.009 6  25030661.972 6  98225416.45306

  19207832.042 6 102496745.95106


  27629321.820 6 145193205.45106
                  27629332.264 6 108423616.40006  27629328.983 6 117851533.88306
  27629329.998 7 111252041.05707  27629330.995 7 109837831.80007
  23892754.568 6 125557303.90706  97836906.73804  23892763.688 4  23892754.117 4
  23892763.858 6  23892761.996 7  93760365.70107

  21323489.205 7 114146723.79507  88781019.30607
  21323499.953 7

  23992207.630 8 126079981.86708
                  23992213.597 8  94150705.49008  23992210.922 7 102337692.18707
  23992211.549 8  96606795.34708  23992212.538 8  95378750.49208
  28122557.630 5 147784811.27905
                  28122578.785 6 110358739.16406  28122572.961 6 119955337.03406
  28122574.922 6 113237662.77406  28122576.461 7 111798203.54507
  24990376.939 7 131325625.09507
                  24990381.461 7  98068039.32707  24990382.049 7 106595626.13807
  24990379.356 7 100626307.43107  24990380.276 8  99347178.95308
  27008966.179 6 141932998.44706
                  27008977.874 7 105988926.31607  27008973.893 6 115205354.79606
  27008975.245 7 108753848.76107  27008976.369 7 107371387.61607
  37103785.910 7 194981690.21607
                  37103786.055 6 145603229.70306

  36827728.851 7 193531016.18907
                  36827738.364 7 144519964.97107

  25362326.185 7 133280354.97807
                  25362336.386 7  99527831.93407  25362332.549 7 108181866.62707
  25362333.654 7 102124172.34107  25362334.927 8 100826003.21308
  36974015.292 7 194299761.65307
                  36974023.074 6 145094015.14906

  23975212.209 6 125990628.91006  98174544.33304  23975216.429 4  23975211.364 4


  25766484.260 7 135403799.99407
                  25766493.282 7 101113270.98207  25766492.359 7 109905721.39207
  25766491.092 7 103750999.28707  25766492.102 8 102432138.20808
  24937803.777 7 131049351.28107
                  24937808.833 7  97861732.65107  24937807.838 7 106371373.86207
  24937806.690 8 100414622.85308  24937807.655 8  99138175.32608
  23514557.221 7 125610558.86607  97697143.32807
  23514568.632 7

  22021607.729 8 117718429.48508  91558959.91907
  22021616.838 7

  20515389.622 8 107809217.35208  84007261.72807  20515392.049 7  20515389.251 7
  20515392.298 7

  26056201.494 7 136926320.37007
                  26056209.450 7 102250222.23507  26056207.033 7 111141529.94307
  26056207.383 7 104917611.03207  26056208.280 7 103583920.70907
  23838116.452 6 127383543.06106  99076067.91306
  23838134.468 6

 25  4 11  0  2 45.0000000  0 30G18R20G15G05G23R22R21G13G10G25R06E03
                                G26R07E13E27E26E15S33S31E07S35G16E21
                                E08R12R05G29E23R11
  21148634.546 8 111137134.20008  86600514.91706  21148636.988 6  21148634.296 6
  21148637.108 7  21148640.286 8  82992218.94108

  21400862.349 6 114440048.85406  89008981.47707
  21400873.226 7

  20481663.052 8 107632357.62108  83869621.52607  20481665.848 7  20481662.775 7
  20481666.314 7

  23107149.023 7 121429032.06707  94620116.74105  23107153.172 5  23107148.773 5
  23107153.698 6

  20798214.936 7 109295794.93807  85165825.86006  20798217.587 6  20798214.735 6
  20798218.145 7  20798221.191 8  81617269.13508

  22766335.267 7 121528314.35207  94522091.95006
  22766341.767 6

  19944601.459 8 106727856.34108  83010718.26607
  19944607.678 7

  22312916.680 7 117255406.92407  91367977.13305  22312920.103 5  22312916.247 5


  23963871.572 6 125931210.10506  98128390.48704  23963881.540 4  23963871.331 4
  23963881.272 6  23963880.346 7  94039717.84207

  25039287.222 5 131582134.64505 102531505.32203  25039307.515 3  25039286.547 3
  25039307.643 6  25039309.360 6  98259349.82606

  19205626.493 6 102484978.60106


  27634601.142 6 145220946.31406
                  27634611.109 6 108444331.95206  27634608.045 6 117874050.81606
  27634608.957 7 111273297.01407  27634609.928 7 109858817.55507
  23894905.270 6 125568603.78106  97845711.82304  23894913.845 4  23894904.819 4
  23894913.672 6  23894912.318 7  93768803.90007

  21312585.794 7 114088358.08807  88735623.89007
  21312596.522 7

  23993185.639 8 126085120.96808
                  23993191.529 8  94154543.14008  23993188.998 8 102341863.54308
  23993189.505 8  96610733.10308  23993190.473 8  95382638.19508
  28130518.558 6 147826646.56806
                  28130540.078 6 110389979.60806  28130534.293 6 119989294.11306
  28130535.709 6 113269718.20206  28130537.773 7 111829851.47807
  24986953.875 7 131307638.01107
                  24986958.576 7  98054607.44807  24986959.194 7 106581026.24807
  24986956.454 7 100612525.15507  24986957.410 8  99333571.87408
  27013341.765 6 141955991.00506
                  27013353.282 7 106006096.03607  27013348.802 7 115224017.56507
  27013350.558 7 108771466.39807  27013351.758 7 107388781.29207
  37103791.433 7 194981719.87007
                  37103791.671 6 145603251.90606

  36827730.112 7 193531020.93707
                  36827739.429 7 144519968.37807

  25354951.098 7 133241597.07207
                  25354960.891 7  99498889.45207  25354957.112 7 108150407.36507
  25354958.236 7 102094474.82007  25354959.442 8 100796683.21108
  36974023.774 7 194299810.61707
                  36974032.312 6 145094051.86506

  23972704.085 6 125977450.31506  98164275.32403  23972708.336 3  23972703.240 3


  25772856.008 7 135437286.21207
                  25772865.523 7 101138276.87407  25772864.673 7 109932901.72007
  25772863.412 7 103776657.51507  25772864.370 8 102457470.26808
  24936650.754 7 131043292.93307
                  24936655.843 7  97857208.59907  24936654.915 7 106366456.41107
  24936653.824 8 100409980.78408  24936654.750 8  99133592.26508
  23517600.657 7 125626813.12907  97709785.52106
  23517611.737 6

  22031796.088 8 117772888.96708  91601317.25007
  22031804.085 7

  20519646.641 8 107831588.97408  84024694.15107  20519649.230 7  20519646.266 7
  20519649.429 7

  26056556.746 7 136928185.63407
                  26056564.335 7 102251615.13407  26056562.243 7 111143043.96107
  26056562.339 7 104919040.25607  26056563.237 7 103585331.76907
  23846972.735 6 127430869.48006  99112877.14606
  23846992.509 6

 25  4 11  0  3  0.0000000  0 30G18R20G15G05G23R22R21G13G10G25R06E03
                                G26R07E13E27E26E15S33S31E07S35G16E21
                                E08R12R05G29E23R11
  21145677.312 8 111121594.39708  86588406.00106  21145679.873 6  21145677.053 6
  21145680.111 7  21145683.140 8  82980614.56608

  21405403.944 6 114464341.34506  89027875.62407
  21405415.947 7

  20479593.743 8 107621481.42208  83861146.59507  20479596.176 7  20479593.475 7
  20479596.651 7

  23115994.517 7 121475512.67707  94656335.36105  23115998.328 5  23115994.289 5
  23115998.723 6

  20794678.187 7 109277209.68207  85151343.87906  20794680.945 6  20794677.982 6
  20794681.214 7  20794684.527 8  81603390.57608

  22758056.606 7 121484124.31007  94487721.96206
  22758063.496 6

  19941517.415 8 106711355.66208  82997884.42707
  19941524.368 7

  22315712.014 7 117270095.85707  91379423.06305  22315715.489 5  22315711.581 5


  23956264.148 6 125891236.47006  98097242.37904  23956274.626 4  23956263.907 4
  23956274.432 6  23956273.880 7  94009867.61007

  25047927.098 6 131627529.67406 102566877.86003  25047946.033 3  25047926.396 3
  25047946.427 6  25047948.024 6  98293248.45706

  19203458.752 6 102473412.14106


  27639894.659 6 145248766.15106
                  27639905.228 6 108465106.45706  27639902.376 6 117896631.81306
  27639902.920 7 111294613.47107  27639903.869 7 109879863.03807
  23897076.408 6 125580012.51306  97854601.74604  23897084.760 4  23897075.939 4
  23897084.214 6  23897083.478 7  93777323.38207

  21301700.455 7 114030088.28607  88690303.06107
  21301710.824 7

  23994165.961 8 126090273.45508
                  23994171.968 8  94158390.77808  23994169.379 8 102346045.75508
  23994169.969 8  96614681.11608  23994170.952 8  95386536.02008
  28138473.234 6 147868450.57406
                  28138495.029 6 110421196.64906  28138489.347 6 120023225.75106
  28138491.075 6 113301749.64606  28138493.107 6 111861475.71906
  24983532.148 7 131289655.10807
                  24983536.496 7  98041178.70107  24983537.184 7 106566429.77107
  24983534.397 7 100598746.08707  24983535.340 8  99319967.96708
  27017718.609 6 141978992.09406
                  27017730.167 7 106023272.15207  27017726.070 6 115242687.26606
  27017727.559 7 108789090.58707  27017728.721 7 107406181.44407
  37103798.735 7 194981750.31607
                  37103797.619 6 145603274.39106

  36827729.518 7 193531027.22407
                  36827740.426 7 144519973.00907

  25347584.145 7 133202883.72407
                  25347593.840 7  99469980.23707  25347590.056 7 108118984.25707
  25347591.231 7 102064811.43407  25347592.448 8 100767396.91108
  36974033.473 7 194299860.83607
                  36974041.797 6 145094089.33306

  23970222.230 6 125964407.65206  98154112.21603  23970226.384 3  23970221.376 3


  25779238.006 7 135470823.38507
                  25779247.517 7 101163320.82607  25779246.240 7 109960123.42507
  25779245.398 7 103802354.78907  25779246.319 8 102482840.88208
  24935517.965 7 131037340.61907
                  24935523.165 7  97852763.72207  24935522.372 7 106361624.99507
  24935521.111 8 100405419.94408  24935522.026 8  99129089.40608
  23520670.921 7 125643214.91907  97722542.43506
  23520681.811 6

  22042002.483 8 117827446.01408  91643750.47407
  22042009.943 7

  20523928.645 8 107854089.88708  84042227.31707  20523931.019 7  20523928.270 7
  20523931.278 7

  26056931.409 7 136930154.04907
                  26056939.006 7 102253085.05907  26056937.062 7 111144641.70507
  26056936.897 7 104920548.53507  26056937.798 7 103586820.87107
  23855834.421 6 127478212.40606  99149699.22306
  23855851.962 6

 25  4 11  0  3 15.0000000  0 30G18R20G15G05G23R22R21G13G10G25R06E03
                                G26R07E13E27E26E15S33S31E07S35G16E21
                                E08R12R05G29E23R11
  21142726.884 8 111106088.95208  86576323.86106  21142729.295 6  21142726.634 6
  21142729.747 7  21142732.472 8  82969035.85508

  21409962.001 6 114488710.82306  89046829.64807
  21409973.932 7

  20477553.831 8 107610762.63708  83852794.32507  20477556.432 7  20477553.559 7
  20477556.845 7

  23124842.038 7 121522007.41707  94692564.98805  23124845.885 5  23124841.815 5
  23124846.291 6

  20791158.985 7 109258717.70207  85136934.57506  20791162.007 6  20791158.766 6
  20791162.083 7  20791165.520 8  81589581.66708

  22749775.209 7 121439918.43607  94453339.68406
  22749783.188 6

  19938446.251 8 106694922.08808  82985102.78307
  19938453.437 7

  22318535.774 7 117284934.91807  91390985.97605  22318539.251 5  22318535.345 5


  23948667.629 6 125851318.07706  98066137.31704  23948678.064 4  23948667.397 4
  23948678.352 6  23948676.849 7  93980058.62807

  25056557.030 5 131672876.94105 102602213.19103  25056575.423 3  25056556.320 3
  25056576.504 6  25056577.147 6  98327111.46806

  19201328.811 6 102462045.54906


  27645203.356 6 145276663.76606
                  27645214.003 6 108485939.06006  27645211.171 6 117919275.96406
  27645211.454 7 111315989.54507  27645212.687 7 109900967.37407
  23899267.546 6 125591528.85606  97863575.50404  23899276.230 4  23899267.086 4
  23899276.225 6  23899275.022 7  93785923.25307

  21290833.462 8 113971913.58308  88645056.19707
  21290843.162 7

  23995148.805 8 126095438.38608
                  23995154.923 8  94162247.71208  23995152.328 8 102350238.07408
  23995152.784 8  96618638.66808  23995153.810 8  95390443.26408
  28146422.408 6 147910222.04106
                  28146443.876 6 110452389.43906  28146438.542 6 120057131.05706
  28146440.195 6 113333756.17406  28146441.980 6 111893075.38406
  24980110.454 7 131271675.37307
                  24980114.984 7  98027752.31807  24980115.811 7 106551835.86007
  24980113.029 7 100584969.44507  24980113.896 8  99306366.45508
  27022097.227 6 142002000.83806
                  27022108.668 7 106040453.95807  27022104.722 6 115261363.16406
  27022105.895 7 108806720.61807  27022107.159 7 107423587.36207
  37103805.625 7 194981781.79707
                  37103803.530 6 145603298.11006

  36827733.685 7 193531034.19407
                  36827741.732 7 144519978.34107

  25340225.302 7 133164214.19807
                  25340235.245 7  99441103.74507  25340231.515 7 108087596.74507
  25340232.531 7 102035181.64407  25340233.776 8 100738143.76908
  36974043.999 7 194299911.42507
                  36974051.500 6 145094127.06906

  23967766.766 6 125951499.91706  98144054.25903  23967770.323 3  23967765.930 3


  25785629.631 7 135504410.28207
                  25785638.931 7 101188401.90907  25785638.061 7 109987385.49207
  25785636.769 7 103828090.17007  25785637.752 8 102508249.11308
  24934405.421 7 131031493.40807
                  24934410.464 7  97848397.33907  24934409.471 7 106356878.91607
  24934408.457 8 100400939.65708  24934409.312 8  99124666.07208
  23523769.431 7 125659762.92107  97735413.05306
  23523779.559 6

  22052226.070 8 117882099.27808  91686258.54207
  22052233.406 7

  20528234.887 8 107876719.28408  84059860.60607  20528237.268 7  20528234.516 7
  20528237.441 7

  26057325.337 7 136932224.57207
                  26057333.074 7 102254631.22107  26057330.852 7 111146322.31807
  26057330.891 7 104922135.03207  26057331.793 7 103588387.20007
  23864696.290 6 127525570.24806  99186532.86406
  23864713.469 6

 25  4 11  0  3 30.0000000  0 31G18R20G15G05G23R22R21G13G10G25R06R13
                                E03G26R07E13E27E26E15S33S31E07S35G16
                                E21E08R12R05G29E23R11
  21139783.034 8 111090618.63608  86564269.08906  21139785.416 6  21139782.784 6
  21139785.594 7  21139788.611 8  82957483.36808

  21414533.658 6 114513157.35406  89065843.60107
  21414544.705 7

  20475544.136 8 107600202.09008  83844565.35707  20475546.818 7  20475543.859 7
  20475547.035 7

  23133692.319 7 121568516.84607  94728806.07005  23133696.393 5  23133692.100 5
  23133696.801 6

  20787658.039 7 109240319.63507  85122598.45506  20787660.923 6  20787657.811 6
  20787661.165 7  20787664.402 8  81575842.89308

  22741490.637 7 121395697.46607  94418945.64606
  22741498.710 6

  19935387.785 8 106678556.52408  82972374.03507
  19935395.179 7

  22321388.274 7 117299924.75607  91402666.38605  22321391.619 5  22321387.854 5


  23941081.671 6 125811455.71906  98035075.91604  23941092.363 4  23941081.435 4
  23941091.715 6  23941091.351 7  93950291.48807

  25065176.889 5 131718176.83805 102637511.60303  25065196.224 3  25065176.156 3
  25065196.732 6  25065197.911 6  98360939.08506

  19199236.345 6 102450879.55006


  24716050.994 5 131982333.70215


  27650526.887 6 145304639.70206
                  27650537.622 6 108506830.14406  27650534.499 6 117941983.65906
  27650535.241 6 111337425.61806  27650536.395 7 109922130.95207
  23901479.527 6 125603153.33706  97872633.53104  23901488.163 4  23901479.045 4
  23901488.492 6  23901487.016 7  93794603.86007

  21279982.877 7 113913835.49007  88599884.49107
  21279994.092 7

  23996134.313 7 126100616.48707
                  23996140.222 8  94166114.48008  23996137.768 8 102354441.07808
  23996138.113 8  96622606.30608  23996139.159 8  95394360.46708
  28154365.692 6 147951961.55406
                  28154386.992 6 110483558.32906  28154381.515 6 120091010.36606
  28154383.065 6 113365738.19306  28154384.820 7 111924650.83307
  24976689.838 7 131253699.49007
                  24976694.236 7  98014328.79107  24976694.983 7 106537245.06007
  24976692.243 7 100571195.74007  24976693.149 8  99292767.83908
  27026477.276 6 142025017.94606
                  27026488.824 7 106057642.02407  27026485.168 7 115280045.85707
  27026486.172 7 108824357.06907  27026487.208 7 107440999.62307
  37103813.120 7 194981814.76107
                  37103809.692 6 145603322.97706

  36827733.515 7 193531041.90507
                  36827743.279 7 144519983.96907

  25332875.156 7 133125589.43907
                  25332885.021 7  99412260.66307  25332881.118 7 108056245.54007
  25332882.444 7 102005586.12707  25332883.627 8 100708924.47108
  36974053.980 7 194299963.27007
                  36974061.360 6 145094165.88706

  23965336.261 6 125938728.06706  98134102.20103  23965339.786 3  23965335.416 3


  25792031.058 7 135538047.34207
                  25792039.940 7 101213520.44207  25792038.949 7 110014688.26807
  25792037.796 7 103853863.98407  25792038.710 8 102533695.28908
  24933312.747 7 131025752.07307
                  24933317.856 7  97844110.02507  24933316.749 7 106352218.77107
  24933315.776 8 100396540.49008  24933316.733 8  99120322.83108
  23526894.145 7 125676457.60507  97748397.79206
  23526904.405 6

  22062467.809 8 117936848.76808  91728841.44907
  22062476.354 7

  20532565.879 8 107899477.67208  84077594.40307  20532567.998 7  20532565.508 7
  20532568.511 7

  26057738.895 7 136934397.80507
                  26057746.464 7 102256254.10107  26057744.612 7 111148086.31307
  26057744.567 7 104923800.24907  26057745.320 7 103590031.24907
  23873561.440 6 127572943.10406  99223378.20306
  23873579.590 6

 25  4 11  0  3 45.0000000  0 31G18R20G15G05G23R22R21G13G10G25R06R13
                                E03G26R07E13E27E26E15S33S31E07S35G16
                                E21E08R12R05G29E23R11
  21136844.126 8 111075174.68208  86552234.85806  21136846.527 6  21136843.876 6
  21136846.461 7  21136849.683 8  82945950.57008

  21419118.754 6 114537672.32806  89084910.77307
  21419128.893 7

  20473562.887 8 107589791.02408  83836452.86306  20473565.647 6  20473562.606 6
  20473565.702 7

  23142543.817 7 121615031.85107  94765051.48705  23142547.903 5  23142543.598 5
  23142548.215 6

  20784172.949 7 109222006.60307  85108328.59106  20784176.067 6  20784172.721 6
  20784176.394 7  20784179.528 8  81562167.61708

  22733202.259 7 121351452.61407  94384533.05806
  22733210.208 6

  19932340.745 8 106662250.15508  82959691.31007
  19932347.946 7

  22324267.351 7 117315056.37107  91414457.26505  22324271.120 5  22324266.922 5


  23933505.356 6 125771640.63906  98004051.36204  23933515.570 4  23933505.120 4
  23933515.457 6  23933514.555 7  93920559.65607

  25073786.338 5 131763420.32805 102672766.06803  25073805.551 3  25073785.628 3
  25073805.891 6  25073807.591 6  98394724.54706

  19197179.285 6 102439905.31606


  24713037.835 5 131966243.84505


  27655863.921 6 145332684.93306
                  27655874.384 6 108527772.99006  27655871.428 6 117964747.63706
  27655872.233 7 111358914.78607  27655873.227 7 109943346.95907
  23903710.707 6 125614876.84006  97881768.71904  23903718.725 4  23903710.220 4
  23903719.212 6  23903717.914 7  93803358.41607

  21269150.271 7 113855845.01107  88554780.89907
  21269160.835 7

  23997120.354 8 126105798.94608
                  23997126.428 8  94169984.50708  23997123.997 8 102358647.63308
  23997124.350 8  96626577.29408  23997125.353 8  95398280.97408
  28162300.777 6 147993659.96306
                  28162321.929 6 110514696.54706  28162316.724 6 120124856.34206
  28162317.847 6 113397688.75206  28162320.049 6 111956195.21906
  24973268.207 7 131235718.55807
                  24973272.582 7  98000901.51507  24973273.454 7 106522650.18507
  24973270.558 7 100557418.17907  24973271.468 8  99279165.42108
  27030857.412 6 142048034.64606
                  27030868.925 7 106074829.77607  27030864.931 6 115298728.21906
  27030866.126 7 108841993.20507  27030867.175 7 107458411.56607
  37103813.317 7 194981838.91307
                  37103814.539 6 145603340.67206

  36827732.518 7 193531042.12407
                  36827743.386 7 144519984.22707

  25325531.979 7 133087000.79607
                  25325541.823 7  99383444.58607  25325538.102 7 108024923.66907
  25325539.164 7 101976018.30907  25325540.351 8 100679732.52208
  36974064.269 7 194300007.50207
                  36974069.718 6 145094198.91006

  23962929.381 6 125926082.90606  98124248.84103  23962933.365 3  23962928.545 3


  25798439.260 7 135571725.46207
                  25798448.605 7 101238669.64107  25798447.669 7 110042024.36807
  25798446.557 7 103879669.24507  25798447.497 8 102559172.51808
  24932238.633 7 131020107.79107
                  24932243.712 7  97839895.17107  24932242.618 7 106347637.39507
  24932241.686 8 100392215.67608  24932242.627 8  99116052.99808
  23530046.072 7 125693289.67907  97761489.34306
  23530055.893 6

  22072725.810 8 117991684.86408  91771491.71607
  22072734.101 7

  20536919.380 8 107922356.01308  84095421.67307  20536921.637 7  20536919.005 7
  20536921.913 7

  26058170.005 7 136936664.86407
                  26058177.943 7 102257947.04107  26058175.926 7 111149926.45907
  26058175.880 7 104925537.34607  26058176.760 7 103591746.26807
  23882428.615 6 127620321.60506  99260227.92806
  23882445.509 6

 25  4 11  0  4  0.0000000  0 31G18R20G15E29G05G23R22R21G13G10G25R06
                                E03G26R07E13E27E26E15S33S31E07S35G16
                                E21E08R12R05G29E23R11
  21133913.190 8 111059771.91408  86540232.72106  21133915.427 6  21133912.945 6
  21133915.772 7  21133918.662 8  82934448.52808

  21423717.933 6 114562270.94206  89104043.02107
  21423729.342 7

  20471613.104 8 107579544.43308  83828468.53706  20471615.770 6  20471612.818 6
  20471615.861 7

  28756280.335 5 151115283.33415
                  28756318.313 5 112845976.78815  28756307.112 5 122658618.94415
  28756313.273 6 115789763.80916
  23151399.181 7 121661566.72407  94801312.39105  23151403.383 5  23151398.962 5
  23151403.429 6

  20780707.347 7 109203793.28307  85094136.43106  20780710.166 6  20780707.119 6
  20780710.456 7  20780713.600 8  81548566.80208

  22724911.798 7 121307198.99307  94350113.61906
  22724919.294 6

  19929307.564 8 106646018.40708  82947066.63607
  19929314.483 7

  22327176.962 7 117330344.40807  91426370.03705  22327180.286 5  22327176.538 5


  23925940.809 6 125731887.62606  97973075.16804  23925950.685 4  23925940.564 4
  23925950.555 6  23925949.805 7  93890874.18107

  25082387.288 6 131808621.75006 102707987.74603  25082407.486 3  25082386.586 3
  25082408.374 6  25082409.155 6  98428478.62506

  19195162.165 6 102429137.86006


  27661216.671 6 145360814.02306
                  27661226.924 6 108548778.44306  27661223.820 6 117987579.68106
  27661224.996 6 111380468.21806  27661225.961 7 109964626.40107
  23905962.818 6 125626713.92506  97890992.40404  23905971.247 4  23905962.327 4
  23905972.099 6  23905970.503 7  93812197.77807

  21258335.764 7 113797957.95007  88509757.76507
  21258346.498 7

  23998110.309 8 126111000.56608
                  23998116.256 8  94173868.83508  23998113.840 8 102362869.72908
  23998114.193 8  96630562.94208  23998115.174 8  95402215.96208
  28170231.039 6 148035331.87706
                  28170252.020 6 110545814.96406  28170246.954 6 120158680.79006
  28170248.373 6 113429618.96906  28170250.266 6 111987719.53806
  24969848.264 7 131217747.36407
                  24969852.673 7  97987481.50307  24969853.430 7 106508063.19407
  24969850.635 7 100543648.07507  24969851.634 8  99265570.36208
  27035240.127 6 142071065.75106
                  27035251.483 7 106092028.28007  27035247.646 7 115317422.25007
  27035248.705 7 108859640.36607  27035249.907 7 107475834.39607
  37103819.237 7 194981870.36307
                  37103820.379 6 145603364.14006

  36827734.589 7 193531049.51507
                  36827744.710 7 144519989.88007

  25318198.597 7 133048463.29907
                  25318208.406 7  99354666.68007  25318204.520 7 107993643.30107
  25318205.475 7 101946489.66307  25318206.800 8 100650579.24808
  36974073.539 7 194300058.71307
                  36974079.403 6 145094237.13806

  23960550.235 6 125913579.48806  98114505.93203  23960553.965 3  23960549.417 3


  25804858.457 7 135605459.12207
                  25804867.902 7 101263860.30507  25804867.293 7 110069405.54507
  25804866.029 7 103905517.06507  25804866.860 8 102584691.75908
  24931185.940 7 131014575.37807
                  24931190.904 7  97835763.86007  24931190.065 7 106343146.83107
  24931188.869 8 100387976.59508  24931189.797 8  99111867.80108
  23533223.433 7 125710273.59707  97774699.06206
  23533235.127 6

  22083003.654 8 118046622.08808  91814220.63607
  22083012.169 7

  20541298.483 8 107945369.02708  84113353.88207  20541300.854 7  20541298.108 7
  20541301.207 7

  26058621.880 7 136939040.42707
                  26058629.901 7 102259721.00107  26058627.682 7 111151854.67407
  26058627.988 7 104927357.57807  26058628.796 7 103593543.36207
  23891296.778 6 127667720.17306  99297093.27306
  23891315.839 6

 25  4 11  0  4 15.0000000  0 32G18R20G15E29G05G23R22R21G13G10G25R06
                                E03G24G26R07E13E27E26E15S33S31E07S35
                                G16E21E08R12R05G29E23R11
  21130988.350 8 111044402.76308  86528256.78306  21130990.745 6  21130988.100 6
  21130990.995 7  21130993.939 8  82922971.58708

  21428331.736 6 114586945.54706  89123234.35007
  21428343.865 7

  20469693.034 8 107569454.64508  83820606.39107  20469695.713 7  20469692.748 7
  20469696.231 7

  28748138.217 5 151072504.69705
                  28748176.386 5 112814033.13405  28748165.006 5 122623897.06105
  28748171.708 6 115756986.68806
  23160256.864 7 121708113.61007  94837582.65705  23160261.001 5  23160256.641 5
  23160261.463 6

  20777259.004 7 109185672.00307  85080015.98506  20777261.749 6  20777258.772 6
  20777262.043 7  20777265.206 8  81535034.71708

  22716618.895 7 121262928.95507  94315681.41006
  22716625.998 6

  19926286.619 8 106629853.61008  82934494.02507
  19926293.903 7

  22330114.326 7 117345781.09207  91438398.63105  22330117.789 5  22330113.897 5


  23918385.230 6 125692189.15106  97942141.46604  23918396.151 4  23918384.998 4
  23918395.708 6  23918395.066 7  93861229.42107

  25090979.918 6 131853773.22606 102743170.49803  25090999.915 3  25090979.225 3
  25090999.788 6  25091001.703 6  98462195.39806

  19193181.547 6 102418569.30906


  27666584.392 6 145389019.13906
                  27666594.579 6 108569840.67406  27666591.450 6 118010473.41006
  27666592.302 6 111402079.89606  27666593.200 7 109985963.35707
  25800587.735 5 135583002.15915
  25800603.845 5  25800605.839 6 101247119.39316

  23908235.847 6 125638656.66106  97900298.42604  23908244.320 4  23908235.329 4
  23908244.733 6  23908243.198 7  93821116.04507

  21247540.100 7 113740167.12707  88464809.48107
  21247550.663 7

  23999102.432 7 126116213.70407
                  23999108.285 8  94177761.76508  23999105.887 8 102367101.17208
  23999106.248 8  96634557.43308  23999107.208 8  95406159.67308
  28178154.278 6 148076969.39006
                  28178175.828 6 110576907.71306  28178170.176 6 120192477.33406
  28178172.085 6 113461522.84706  28178173.628 7 112019217.84807
  24966428.923 7 131199778.18007
                  24966433.220 7  97974062.99007  24966433.915 7 106493477.84307
  24966431.166 7 100529879.50807  24966432.175 8  99251976.82208
  27039623.840 6 142094103.65506
                  27039635.291 7 106109231.86007  27039631.540 7 115336121.81407
  27039632.750 7 108877292.74607  27039633.921 7 107493262.37807
  37103825.792 7 194981902.15607
                  37103826.224 6 145603388.42906

  36827737.146 7 193531055.84607
                  36827745.962 7 144519994.63407

  25310873.225 7 133009969.51407
                  25310883.122 7  99325921.42307  25310879.282 7 107962398.41207
  25310880.343 7 101916994.51407  25310881.576 8 100621459.04508
  36974082.183 7 194300109.32007
                  36974089.004 6 145094275.04306

  23958196.445 6 125901210.12406  98104867.49303  23958200.054 3  23958195.596 3


  25811286.981 6 135639240.40806
                  25811296.410 7 101289086.53807  25811295.126 7 110096825.38407
  25811294.212 7 103931401.38107  25811295.256 8 102610247.03308
  24930153.153 7 131009147.23007
                  24930158.016 8  97831710.41108  24930157.161 7 106338740.89507
  24930155.976 8 100383817.39808  24930156.826 8  99107761.47908
  23536430.708 7 125727401.38907  97788020.62806
  23536441.198 6

  22093298.191 8 118101652.51108  91857022.05407
  22093306.113 7

  20545702.068 8 107968508.92608  84131384.96207  20545704.262 7  20545701.693 7
  20545704.734 7

  26059093.458 7 136941516.78607
                  26059101.199 7 102261570.22507  26059098.939 7 111153864.71107
  26059099.280 7 104929255.05507  26059100.007 7 103595416.71307
  23900170.239 6 127715130.27406  99333967.56106
  23900187.906 6

 25  4 11  0  4 30.0000000  0 33G18R20G15E29G05G23R22R21G13G10G25R06
                                E33E03G24G26R07E13E27E26E15S33S31E07
                                S35G16E21E08R12R05G29E23R11
  21128069.311 8 111029063.40108  86516304.05406  21128071.719 6  21128069.052 6
  21128071.979 7  21128074.884 8  82911516.89308

  21432959.862 6 114611691.97506  89142481.55807
  21432971.194 7

  20467802.256 8 107559517.99008  83812863.57107  20467804.829 7  20467801.970 7
  20467805.167 7

  28739989.836 5 151029686.64705
                  28740027.157 5 112782060.12105  28740016.238 5 122589143.23205
  28740022.511 6 115724179.42706
  23169116.163 7 121754668.73207  94873859.33105  23169120.466 5  23169115.931 5
  23169120.319 6

  20773827.158 7 109167638.80507  85065964.17406  20773830.078 6  20773826.917 6
  20773830.458 7  20773833.529 8  81521568.40008

  22708322.359 7 121218638.65707  94281233.46406
  22708329.197 6

  19923277.702 8 106613752.13808  82921970.68407
  19923285.029 7

  22333079.523 7 117361362.51307  91450540.01005  22333082.824 5  22333079.094 5


  23910840.394 6 125652541.37906  97911247.26804  23910850.892 4  23910840.158 4
  23910851.255 6  23910850.392 7  93831622.51407

  25099562.024 6 131898870.63306 102778311.14703  25099581.785 3  25099561.305 3
  25099582.306 6  25099583.626 6  98495871.75806

  19191238.031 6 102408196.00406


  28757580.326 5 151122103.53215
                  28757596.902 6 112850986.11616
  28757593.537 5 115794912.08815
  27671964.917 6 145417296.20506
                  27671975.542 6 108590956.63906  27671972.390 6 118033425.54806
  27671973.159 7 111423746.71407  27671974.181 7 110007354.74707
  25793971.988 5 135548242.25605                  25793987.967 2  25793972.274 2
  25793988.767 6  25793991.451 6 101221162.40806

  23910527.840 6 125650700.96606  97909683.57804  23910536.429 4  23910527.313 4
  23910536.238 6  23910535.223 7  93830110.15507

  21236762.032 8 113682468.78308  88419933.11407
  21236771.987 7

  24000095.633 7 126121434.51807
                  24000101.746 8  94181660.43208  24000099.260 8 102371338.84608
  24000099.730 8  96638557.80308  24000100.695 8  95410109.19008
  28186069.982 5 148118568.40405
                  28186091.875 6 110607971.68306  28186086.137 6 120226242.58406
  28186087.762 6 113493397.20306  28186089.791 6 112050687.01306
  24963009.158 7 131181807.13707
                  24963013.400 7  97960643.09407  24963014.227 7 106478890.99007
  24963011.442 7 100516109.52207  24963012.368 8  99238381.88008
  27044008.147 6 142117144.50906
                  27044019.986 7 106126437.66807  27044015.932 7 115354823.79807
  27044017.214 7 108894947.39607  27044018.472 7 107510692.60507
  37103832.442 7 194981928.15807
                  37103831.496 6 145603407.33706

  36827736.637 7 193531058.36907
                  36827746.297 7 144519996.59907

  25303555.897 7 132971515.79807
                  25303565.434 7  99297206.08007  25303561.727 7 107931186.04807
  25303562.844 7 101887530.06107  25303563.985 8 100592369.14608
  36974093.514 7 194300155.40107
                  36974097.866 6 145094309.32806

  23955867.244 6 125888970.88506  98095330.44103  23955871.295 3  23955866.390 3


  25817724.084 7 135673065.16507
                  25817733.217 7 101314345.22907  25817732.075 7 110124280.49907
  25817731.112 7 103957318.99507  25817731.960 8 102635835.18608
  24929138.966 7 131003819.51207
                  24929144.124 7  97827731.96007  24929143.135 7 106334416.47607
  24929141.994 8 100379735.15708  24929142.957 8  99103731.13208
  23539663.182 7 125744668.62107  97801450.66906
  23539674.191 6

  22103609.022 8 118156771.22108  91899892.12507
  22103617.307 7

  20550128.605 8 107991771.82408  84149511.88307  20550131.061 7  20550128.234 7
  20550131.283 7

  26059583.124 7 136944089.96807
                  26059590.802 7 102263491.77307  26059588.834 7 111155953.33007
  26059588.776 7 104931226.71907  26059589.677 7 103597363.32007
  23909043.678 6 127762547.61306  99370847.50306
  23909061.948 6

 25  4 11  0  4 45.0000000  0 33G18R20G15E29G05G23R22R21G13G10G25R06
                                E33E03G24G26R07E13E27E26E15S33S31E07
                                S35G16E21E08R12R05G29E23R11
  21125158.268 8 111013764.59108  86504382.91906  21125160.424 6  21125158.018 6
  21125160.609 7  21125163.665 8  82900092.48008

  21437602.343 6 114636521.48306  89161793.38007
  21437614.788 7

  20465942.580 8 107549745.12008  83805248.37307  20465945.091 7  20465942.290 7
  20465945.470 7

  28731835.728 5 150986840.15605
                  28731872.454 5 112750065.81805  28731861.530 5 122554366.24105
  28731867.886 6 115691350.30506
  23177978.600 7 121801242.26007  94910150.34105  23177982.945 5  23177978.359 5
  23177982.866 6

  20770414.540 7 109149704.30907  85051989.27706  20770417.220 6  20770414.304 6
  20770417.502 7  20770420.665 8  81508175.80608

  22700022.827 7 121174339.08607  94246778.30006
  22700030.245 6

  19920283.091 8 106597725.20108  82909505.29307
  19920289.850 7

  22336074.277 7 117377099.19007  91462802.36305  22336077.680 5  22336073.839 5


  23903307.767 6 125612955.06506  97880400.96604  23903318.010 4  23903307.513 4
  23903318.326 6  23903317.066 7  93802061.51507

  25108135.016 6 131943924.27206 102813417.67803  25108155.482 3  25108134.283 3
  25108155.642 6  25108156.909 6  98529515.48406

  19189331.954 6 102398028.53706


  28752648.921 5 151096192.44505
                  28752666.059 5 112831637.27205  28752661.977 5 122643070.15715
  28752662.501 5 115775058.45905  28752664.133 6 114303350.94016
  27677361.653 6 145445655.71006
                  27677372.106 6 108612134.15306  27677369.129 6 118056444.61006
  27677369.473 6 111445476.69406  27677370.852 7 110028808.49407
  25787349.137 5 135513440.62205 105594950.67812  25787366.080 2  25787349.526 2
  25787366.902 6  25787368.228 6 101195174.27706

  23912841.119 6 125662857.27906  97919156.01604  23912849.810 4  23912840.569 4
  23912850.129 6  23912848.452 7  93839187.90207

  21226002.074 7 113624874.38307  88375137.60407
  21226012.877 7

  24001092.844 8 126126673.73208
                  24001098.672 8  94185572.83608  24001096.331 7 102375591.45607
  24001096.719 8  96642572.26708  24001097.683 8  95414072.62508
  28193981.488 6 148160139.36606
                  28194003.001 6 110639014.72006  28193997.300 6 120259985.11206
  28193998.775 6 113525250.10606  28194000.874 6 112082134.98606
  24959590.952 7 131163844.89207
                  24959595.290 7  97947229.75707  24959595.999 7 106464311.26007
  24959593.287 7 100502346.26607  24959594.228 8  99224793.58508
  27048395.580 6 142140199.07306
                  27048407.177 7 106143653.69207  27048402.966 6 115373536.88606
  27048404.323 7 108912612.55107  27048405.577 7 107528133.19707
  37103839.149 7 194981960.74907
                  37103837.702 6 145603431.53206

  36827737.455 7 193531066.28107
                  36827747.822 7 144520002.42707

  25296247.789 7 132933113.06607
                  25296257.603 7  99268528.81807  25296253.903 7 107900015.06907
  25296254.848 7 101858104.68807  25296256.097 8 100563317.82808
  36974100.525 7 194300207.39207
                  36974107.749 6 145094348.00406

  23953565.063 6 125876872.56906  98085903.19903  23953568.803 3  23953564.218 3


  25824170.753 7 135706943.82207
                  25824180.061 7 101339644.16607  25824178.814 7 110151779.36807
  25824177.931 7 103983277.91807  25824178.913 8 102661464.11808
  24928146.255 7 130998602.94907
                  24928151.407 7  97823836.51907  24928150.291 7 106330182.28807
  24928149.270 8 100375738.08508  24928150.243 8  99099784.87708
  23542923.549 7 125762085.90607  97814997.40706
  23542934.644 6

  22113938.693 8 118211988.89808  91942839.17607
  22113946.899 7

  20554580.966 8 108015168.16408  84167742.78507  20554583.254 7  20554580.600 7
  20554583.494 7

  26060092.930 7 136946770.60107
                  26060100.848 7 102265493.55507  26060098.795 6 111158129.18006
  26060098.879 7 104933280.71807  26060099.781 7 103599391.21107
  23917921.299 6 127809982.45806  99407741.06406
  23917938.687 6

 25  4 11  0  5  0.0000000  0 33G18R20G15E29G05G23R22R21G13G10G25R06
                                E33E03G24G26R07E13E27E26E15S33S31E07
                                S35G16E21E08R12R05G29E23R11
  21122253.483 8 110998500.12608  86492488.55006  21122255.676 6  21122253.233 6
  21122255.883 7  21122258.868 8  82888693.71108

  21442260.142 6 114661428.01706  89181165.10707
  21442272.392 7

  20464112.730 8 107540129.94708  83797756.05807  20464115.316 7  20464112.435 7
  20464115.586 7

  28723674.414 5 150943958.92905
                  28723710.879 5 112718045.59305  28723700.670 5 122519561.11405
  28723706.577 6 115658494.60306
  23186843.518 7 121847827.72407  94946450.66705  23186847.695 5  23186843.268 5
  23186848.208 6

  20767019.264 7 109131862.18307  85038086.35806  20767021.984 6  20767019.019 6
  20767022.189 7  20767025.435 8  81494852.17608

  22691721.047 7 121130023.98407  94212311.06306
  22691727.858 6

  19917300.450 8 106581766.69908  82897093.13207
  19917307.279 7

  22339096.645 7 117392984.67907  91475180.67105  22339100.622 5  22339096.194 5


  23895784.968 6 125573423.99106  97849597.71804  23895795.319 4  23895784.696 4
  23895795.559 6  23895794.284 7  93772541.76707

  25116700.376 5 131988927.66105 102848485.01903  25116719.874 3  25116699.625 3
  25116720.368 6  25116721.520 6  98563121.64806

  19187464.000 6 102388060.94106


  28747716.785 6 151070272.36106
                  28747733.398 6 112812281.71106  28747729.485 5 122622031.37505
  28747729.593 6 115755197.93606  28747731.406 6 114283742.90006
  27682772.907 6 145474091.20406
                  27682783.298 6 108633368.41106  27682780.085 6 118079525.32406
  27682780.793 6 111467264.89706  27682782.052 7 110050319.72907
  25780717.007 5 135478591.33005 105567795.46902  25780734.731 2  25780717.154 2
  25780734.985 6  25780736.898 6 101169150.54006

  23915174.602 6 125675119.06806  97928710.64604  23915183.335 4  23915174.057 4
  23915183.122 6  23915181.672 7  93848344.41607

  21215261.849 7 113567377.67307  88330418.06907
  21215271.994 7

  24002092.018 7 126131925.07007
                  24002098.014 8  94189494.29508  24002095.639 8 102379853.91308
  24002095.989 8  96646596.02708  24002096.970 8  95418045.23408
  28201885.472 5 148201675.83705
                  28201906.872 6 110670031.99406  28201900.837 6 120293699.61506
  28201903.592 6 113557076.55106  28201905.263 6 112113556.84506
  24956173.268 7 131145885.10607
                  24956177.729 7  97933818.27707  24956178.244 7 106449733.55007
  24956175.602 7 100488584.92107  24956176.572 8  99211207.17308
  27052784.177 6 142163261.13906
                  27052795.759 7 106160875.32807  27052792.013 6 115392256.06806
  27052792.784 7 108930283.43907  27052794.148 7 107545579.45907
  37103844.989 7 194981993.71707
                  37103843.685 6 145603456.70306

  36827737.960 7 193531074.05607
                  36827749.387 7 144520008.11107

  25288948.331 7 132894755.25507
                  25288958.292 7  99239885.09607  25288954.756 7 107868880.55907
  25288955.591 7 101828713.73007  25288956.750 8 100534300.48808
  36974109.303 7 194300260.07607
                  36974117.618 6 145094387.60406

  23951288.343 6 125864908.67506  98076580.69603  23951292.224 3  23951287.467 3


  25830626.710 6 135740869.85606
                  25830635.995 7 101364978.47107  25830634.447 7 110179316.68907
  25830634.035 7 104009273.13107  25830634.885 8 102687128.87708
  24927173.518 7 130993491.32207
                  24927178.646 7  97820019.42507  24927177.753 7 106326033.26007
  24927176.489 8 100371821.41308  24927177.500 8  99095917.99308
  23546211.676 7 125779646.43807  97828655.55906
  23546222.495 6

  22124285.880 8 118267298.18908  91985857.48107
  22124294.193 7

  20559057.331 8 108038691.62108  84186072.74607  20559059.648 7  20559056.965 7
  20559060.045 7

  26060622.538 7 136949552.29707
                  26060630.215 7 102267570.81007  26060628.126 7 111160387.07607
  26060628.330 7 104935412.16007  26060629.105 7 103601495.56007
  23926800.773 6 127857427.86206  99444642.80306
  23926817.612 6

 25  4 11  0  5 15.0000000  0 33G18R20G15E29G05G23R22R21G13G10G25R06
                                E33E03G24G26R07E13E27E26E15S33S31E07
                                S35G16E21E08R12R05G29E23R11
  21119355.156 8 110983269.78708  86480620.76906  21119357.403 6  21119354.906 6
  21119357.692 7  21119360.639 8  82877320.42108

  21446931.742 6 114686410.94306  89200596.24107
  21446944.729 7

  20462313.055 8 107530672.27208  83790386.46707  20462315.537 7  20462312.756 7
  20462316.162 7

  28715506.596 5 150901042.84805
                  28715542.993 5 112685999.33905  28715532.693 5 122484727.65805
  28715538.645 6 115625612.19706
  23195710.507 7 121894424.40807  94982759.73605  23195714.802 5  23195710.257 5
  23195715.564 7

  20763641.475 7 109114112.07907  85024255.13606  20763644.196 6  20763641.230 6
  20763644.522 7  20763647.620 8  81481597.26608

  22683416.363 7 121085693.22307  94177831.63606
  22683423.980 6

  19914330.851 8 106565876.41008  82884734.04107
  19914337.518 7

  22342148.534 7 117409018.61507  91487674.65905  22342151.842 5  22342148.105 5


  23888272.917 6 125533947.96606  97818837.34204  23888282.890 4  23888272.613 4
  23888283.166 6  23888282.091 7  93743063.11607

  25125254.055 6 132033880.18106 102883512.74803  25125273.645 3  25125253.313 3
  25125273.880 6  25125275.576 6  98596689.84106

  19185633.430 6 102378292.58306


  28742782.048 6 151044342.86506
                  28742798.508 6 112792919.11506  28742794.697 5 122600984.95405
  28742795.045 6 115735330.20806  28742796.818 6 114264127.73706
  27688198.454 6 145502602.18606
                  27688208.702 6 108654659.05406  27688205.373 6 118102667.33806
  27688206.674 6 111489110.94806  27688207.566 7 110071888.07307
  25774076.988 5 135443694.35005 105540603.07702  25774093.982 2  25774077.019 2
  25774093.743 5  25774096.196 6 101143091.19506

  23917527.717 6 125687485.81406  97938347.05604  23917536.571 4  23917527.176 4
  23917536.803 6  23917535.046 7  93857579.30707

  21204538.923 7 113509979.29307  88285775.00207
  21204549.287 7

  24003093.479 8 126137188.30708
                  24003099.605 8  94193424.63708  24003097.213 8 102384126.01708
  24003097.555 8  96650628.89608  24003098.533 8  95422026.83908
  28209782.546 5 148243177.25605
                  28209804.498 6 110701023.11206  28209799.125 6 120327385.69706
  28209801.381 6 113588876.14306  28209802.729 6 112144952.20206
  24952755.818 7 131127927.51707
                  24952760.414 7  97920408.41507  24952761.014 7 106435157.60107
  24952758.364 7 100474825.23107  24952759.308 8  99197622.39708
  27057174.136 6 142186330.42506
                  27057185.645 7 106178102.34807  27057181.511 6 115410981.10806
  27057182.990 7 108947959.86807  27057184.136 7 107563031.18307
  37103850.427 7 194982025.48607
                  37103849.811 6 145603480.10506

  36827741.457 7 193531082.02007
                  36827750.737 7 144520014.30107

  25281657.589 7 132856442.32707
                  25281667.444 7  99211274.89307  25281663.793 7 107837782.47007
  25281664.665 7 101799357.15607  25281665.935 8 100505317.10008
  36974120.607 7 194300311.40807
                  36974127.576 6 145094425.73406

  23949037.435 6 125853079.10806  98067362.86303  23949041.397 3  23949036.577 3


  25837091.476 7 135774842.66007
                  25837100.797 7 101390347.72807  25837099.536 7 110206891.98307
  25837098.721 7 104035304.20307  25837099.751 8 102712829.03908
  24926220.735 7 130988484.35307
                  24926225.833 7  97816280.48907  24926224.869 7 106321969.18607
  24926223.754 8 100367984.93408  24926224.664 8  99092130.28608
  23549526.249 7 125797349.74307  97842424.75106
  23549536.603 6

  22134649.254 8 118322698.41308  92028946.50407
  22134657.921 7

  20563557.759 8 108062341.80908  84204501.45207  20563560.140 7  20563557.397 7
  20563560.400 7

  26061170.706 7 136952434.74807
                  26061178.729 7 102269723.28707  26061176.803 7 111162726.72207
  26061176.772 7 104937620.78607  26061177.608 7 103603676.11207
  23935682.414 6 127904882.91806  99481552.05606
  23935699.580 6

 25  4 11  0  5 30.0000000  0 33G18R20G15E29G05G23R22R21G13G10G25R06
                                E33E03G24G26R07E13E27E26E15S33S31E07
                                S35G16E21E08R12R05G29E23R11
  21116462.884 8 110968071.57808  86468778.02506  21116465.305 6  21116462.630 6
  21116465.490 7  21116468.494 8  82865971.12808

  21451617.721 6 114711468.05106  89220085.08507
  21451630.173 7

  20460542.997 8 107521370.17908  83783138.10907  20460545.392 7  20460542.702 7
  20460545.850 7

  28707331.945 5 150858090.06705
                  28707368.152 5 112653925.63505  28707358.122 5 122449864.37205
  28707363.896 6 115592701.61706
  23204579.722 7 121941030.22907  95019075.91505  23204583.702 5  23204579.468 5
  23204584.362 6

  20760280.662 7 109096451.87607  85010493.97606  20760283.584 6  20760280.403 6
  20760283.802 7  20760286.969 8  81468409.49008

  22675108.494 7 121041344.84707  94143338.49506
  22675115.891 6

  19911374.322 8 106550052.75508  82872426.76207
  19911380.959 7

  22345227.114 7 117425198.86807  91500282.65605  22345230.805 5  22345226.694 5


  23880770.969 6 125494524.94706  97788118.28404  23880780.616 4  23880770.670 4
  23880781.487 6  23880779.858 7  93713624.05307

  25133798.695 6 132078779.45806 102918498.98803  25133817.444 3  25133797.953 3
  25133818.656 6  25133820.359 6  98630218.28606

  19183839.521 6 102368721.41606


  28737845.890 6 151018401.84506
                  28737862.293 6 112773547.91406  28737857.728 5 122579929.16505
  28737858.449 6 115715453.60106  28737860.263 6 114244503.83306
  27693637.880 6 145531186.41606
                  27693647.876 6 108676004.39706  27693645.219 6 118125868.80506
  27693645.806 6 111511013.12406  27693646.883 7 110093511.83207
  25767426.856 5 135408747.93405 105513372.18902  25767443.539 2  25767426.834 2
  25767443.406 5  25767445.833 6 101116994.92206

  23919900.487 6 125699955.20806  97948063.44904  23919909.125 4  23919899.933 4
  23919909.674 6  23919908.019 7  93866890.85207

  21193834.359 7 113452677.07007  88241206.73907
  21193844.809 7

  24004097.026 7 126142461.37707
                  24004103.044 8  94197362.31708  24004100.545 8 102388406.11108
  24004100.970 8  96654669.29708  24004101.970 8  95426015.88008
  28217673.558 5 148284641.37805
                  28217695.513 6 110731986.33006  28217689.947 6 120361041.46606
  28217691.763 6 113620647.12106  28217693.247 6 112176319.30106
  24949338.883 7 131109969.99507
                  24949343.174 7  97906998.61607  24949343.871 7 106420581.71307
  24949341.143 7 100461065.60307  24949342.068 8  99184037.68208
  27061565.138 6 142209404.93406
                  27061576.635 7 106195333.26707  27061572.551 6 115429710.38506
  27061573.884 7 108965640.30207  27061575.136 7 107580486.86007
  37103856.875 7 194982054.93107
                  37103855.370 6 145603501.88806

  36827740.715 7 193531086.82607
                  36827751.654 7 144520017.62407

  25274374.956 7 132818172.43307
                  25274384.935 7  99182696.83007  25274381.308 7 107806719.32107
  25274382.152 7 101770033.56707  25274383.330 8 100476366.27408
  36974128.307 7 194300361.35307
                  36974136.917 6 145094463.41606

  23946811.311 6 125841381.86406  98058248.14803  23946815.911 3  23946810.444 3


  25843564.480 6 135808859.92506
                  25843574.170 7 101415750.17507  25843572.739 7 110234503.34807
  25843572.030 7 104061369.32407  25843573.091 8 102738562.82308
  24925287.798 7 130983580.01507
                  24925292.505 7  97812618.20007  24925291.430 7 106317988.42107
  24925290.467 8 100364227.10208  24925291.383 8  99088420.22508
  23552865.365 7 125815193.21707  97856302.98906
  23552876.890 6

  22145030.198 8 118378187.05108  92072104.28707
  22145037.886 7

  20568081.918 8 108086116.54008  84223027.20507  20568084.290 7  20568081.561 7
  20568084.719 7

  26061738.388 7 136955415.77407
                  26061745.972 7 102271949.38007  26061743.960 7 111165146.38507
  26061743.917 7 104939904.95007  26061744.878 7 103605931.24007
  23944563.934 7 127952345.14207  99518466.89806
  23944580.945 6

 25  4 11  0  5 45.0000000  0 34G18R20G15E29G05G23R22R21G13G10G25R06
                                E33E03G24G26R07E13E27E26E15S33S31E07
                                S35G16E21E08E31R12R05G29E23R11
  21113577.920 8 110952909.19408  86456963.19506  21113579.990 6  21113577.666 6
  21113580.307 7  21113583.232 8  82854648.58408

  21456319.688 6 114736603.55806  89239634.89607
  21456330.201 7

  20458802.802 8 107512227.35608  83776013.86107  20458805.578 7  20458802.494 7
  20458806.154 7

  28699151.168 5 150815104.35105
                  28699186.703 5 112621827.35105  28699176.543 5 122414974.42105
  28699182.695 6 115559765.85406
  23213450.888 7 121987648.56307  95055401.84805  23213455.075 5  23213450.638 5
  23213455.424 6

  20756937.822 7 109078885.10707  84996805.61706  20756940.755 6  20756937.563 6
  20756941.000 7  20756944.014 8  81455291.48208

  22666798.390 7 120996982.60307  94108834.57406
  22666804.969 6

  19908430.158 8 106534299.42208  82860174.18007
  19908437.000 7

  22348334.157 7 117441528.84707  91513007.32605  22348338.131 5  22348333.715 5


  23873279.654 6 125455158.64106  97757443.41804  23873289.504 4  23873279.337 4
  23873289.867 6  23873288.495 7  93684227.34007

  25142332.521 5 132123628.89105 102953446.37903  25142352.350 3  25142331.766 3
  25142353.133 6  25142354.470 6  98663709.48606

  19182083.665 6 102359351.32906


  28732907.487 6 150992452.84006
                  28732924.035 6 112754170.76806  28732919.413 5 122558866.88505
  28732920.317 6 115695570.93306  28732921.911 7 114224873.92707
  27699091.941 6 145559847.29206
                  27699102.247 6 108697406.96306  27699099.080 6 118149132.47206
  27699100.003 6 111532974.02006  27699100.894 7 110115193.56307
  25760768.626 5 135373755.89905 105486105.71102  25760784.815 2  25760768.573 2
  25760786.198 5  25760787.495 6 101090864.60106

  23922293.996 6 125712530.62306  97957862.45004  23922301.867 4  23922293.464 4
  23922302.318 6  23922301.121 7  93876281.56107

  21183148.060 7 113395475.56807  88196716.81307
  21183159.086 7

  24005102.992 7 126147747.93407
                  24005109.042 8  94201310.07108  24005106.543 8 102392697.14908
  24005106.985 8  96658720.03808  24005107.951 8  95430015.12708
  28225557.322 6 148326071.58906
                  28225579.819 6 110762924.23606  28225573.568 6 120394669.71806
  28225575.103 6 113652392.14206  28225577.429 6 112207660.76506
  24945922.349 7 131092016.13007
                  24945926.598 7  97893591.54007  24945927.260 7 106406008.80107
  24945924.602 7 100447308.78007  24945925.533 8  99170455.73308
  27065957.925 6 142232488.31606
                  27065969.272 7 106212570.80807  27065965.358 6 115448446.85206
  27065966.559 7 108983327.51107  27065967.803 7 107597949.23607
  37103862.048 7 194982085.28707
                  37103861.062 6 145603524.84606

  36827743.545 7 193531093.10607
                  36827752.794 7 144520022.44307

  25267101.622 7 132779949.42107
                  25267111.214 7  99154153.76107  25267107.616 7 107775694.20307
  25267108.553 7 101740745.89307  25267109.623 8 100447450.90208
  36974139.428 7 194300411.61907
                  36974146.446 6 145094500.97606

  23944610.955 6 125829820.61406  98049239.40703  23944615.788 3  23944610.110 3


  25850047.227 7 135842924.99707
                  25850056.715 7 101441188.31307  25850055.056 7 110262153.53307
  25850054.488 7 104087471.08107  25850055.522 8 102764332.77108
  24924374.511 7 130978781.97707
                  24924379.453 7  97809035.28507  24924378.478 7 106314093.93807
  24924377.341 8 100360550.71908  24924378.327 8  99084790.57608
  28873071.908 6 151729015.31616
                  28873083.687 6 113304181.09416  28873078.780 6 123156699.63716
  28873080.936 6 116259932.59116  28873082.295 6 114782057.41916
  23556232.933 7 125833180.19807  97870292.83806
  23556243.003 6

  22155427.085 8 118433767.10208  92115333.17807
  22155435.425 7

  20572630.577 8 108110019.32308  84241652.73607  20572632.856 7  20572630.220 7
  20572633.371 7

  26062324.921 7 136958498.89207
                  26062332.803 7 102274251.71807  26062330.380 7 111167648.91707
  26062330.604 7 104942267.35507  26062331.550 7 103608263.61107
  23953447.430 6 127999817.72506  99555389.81806
  23953465.175 6

 25  4 11  0  6  0.0000000  0 33G18R20G15E29G05G23R22R21G13G10G25R06
                                E33E03G24G26R07E13E27E26E15S33S31E07
                                S35G16E21E08R12R05G29E23R11
  21110699.276 8 110937783.24708  86445176.75906  21110701.580 6  21110699.026 6
  21110701.676 7  21110704.834 8  82843353.25508

  21461034.528 6 114761817.87406  89259246.00607
  21461044.893 7

  20457093.542 8 107503244.41808  83769014.19606  20457096.157 6  20457093.221 6
  20457096.516 7

  28690964.620 5 150772086.48505
                  28690999.592 5 112589705.08805  28690989.460 5 122380058.31405
  28690995.606 6 115526805.40706
  23222324.531 7 122034279.77707  95091737.81805  23222328.715 5  23222324.272 5
  23222328.707 6

  20753613.142 7 109061412.25607  84983190.44106  20753615.706 6  20753612.883 6
  20753616.043 7  20753619.061 8  81442243.61608

  22658484.614 7 120952607.20507  94074320.45606
  22658492.335 6

  19905499.567 8 106518617.40108  82847977.06407
  19905506.422 7

  22351470.275 7 117458009.06207  91525849.05005  22351474.255 5  22351469.824 5


  23865799.024 6 125415849.65806  97726813.20304  23865809.351 4  23865798.698 4
  23865808.911 6  23865808.225 7  93654873.42307

  25150857.910 6 132168428.69906 102988355.11203  25150878.272 3  25150857.155 3
  25150878.880 6  25150879.900 6  98697163.62206

  19180365.487 6 102350182.77106


  28727967.806 6 150966496.34006
                  28727984.298 6 112734788.01306  28727979.752 5 122537798.58105
  28727980.876 6 115675682.51306  28727982.302 7 114205238.33907
  27704560.645 6 145588585.19306
                  27704570.612 6 108718867.03606  27704568.020 6 118172458.66506
  27704568.441 6 111554993.93106  27704569.523 7 110136933.55307
  25754100.717 5 135338719.17405 105458804.44402  25754117.813 2  25754100.637 2
  25754117.871 6  25754119.945 6 101064700.87406

  23924707.354 6 125725212.38006  97967744.32104  23924714.876 4  23924706.827 4
  23924715.622 6  23924714.314 7  93885751.68107

  21172480.718 7 113338375.50907  88152305.77907
  21172492.133 7

  24006111.646 7 126153048.56007
                  24006117.629 8  94205268.33608  24006115.270 8 102396999.61308
  24006115.683 8  96662781.56608  24006116.628 8  95434025.02408
  28233435.060 6 148367468.20306
                  28233457.205 6 110793837.07606  28233451.198 6 120428270.69506
  28233453.224 6 113684111.43706  28233455.202 6 112238976.83306
  24942506.685 7 131074066.47507
                  24942510.868 7  97880187.61207  24942511.537 7 106391439.29307
  24942508.966 7 100433555.17307  24942509.791 8  99156876.96508
  27070352.297 6 142255581.17306
                  27070363.699 7 106229815.42407  27070359.550 6 115467191.01506
  27070361.213 7 109001022.00407  27070362.299 7 107615418.79207
  37103869.118 7 194982117.76807
                  37103867.117 6 145603549.25206

  36827745.025 7 193531100.80307
                  36827754.297 7 144520028.26707

  25259837.000 7 132741774.07007
                  25259846.494 7  99125646.29507  25259843.068 7 107744707.79107
  25259843.922 7 101711494.73407  25259845.012 8 100418571.59008
  36974150.169 7 194300463.34107
                  36974156.319 6 145094539.51006

  23942436.769 6 125818395.84306  98040337.00703  23942441.578 3  23942435.942 3


  25856538.836 7 135877038.14707
                  25856548.162 7 101466662.37807  25856546.825 7 110289842.75707
  25856546.018 7 104113609.69107  25856547.079 8 102790139.10808
  24923481.777 7 130974090.83207
                  24923486.722 7  97805532.18707  24923485.646 7 106310286.21807
  24923484.588 8 100356956.23508  24923485.594 8  99081241.78508
  23559628.150 7 125851310.99507  97884394.54406
  23559638.137 6

  22165841.529 8 118489438.81308  92158633.36307
  22165849.812 7

  20577203.727 8 108134050.57108  84260378.37307  20577205.859 7  20577203.379 7
  20577206.332 7

  26062931.234 7 136961684.61707
                  26062938.854 7 102276630.68407  26062936.732 7 111170234.75407
  26062936.776 7 104944708.37507  26062937.755 7 103610673.60407
  23962333.166 6 128047300.51606  99592320.63906
  23962351.205 6

 25  4 11  0  6 15.0000000  0 33G18R20G15E29G05G23R22R21G13G10G25R06
                                E33E03G24G26R07E13E27E26E15S33S31E07
                                S35G16E21E08R12R05G29E23R11
  21107826.938 8 110922689.97608  86433415.78106  21107829.448 6  21107826.684 6
  21107829.330 7  21107832.625 8  82832082.31708

  21465762.765 6 114787107.31006  89278915.55307
  21465775.020 7

  20455414.245 8 107494417.76108  83762136.30607  20455416.495 7  20455413.932 7
  20455416.889 7

  28682770.598 5 150729032.72605
                  28682805.273 5 112557555.95305  28682795.684 5 122345113.10305
  28682801.652 6 115493817.46206
  23231199.493 7 122080919.71507  95128080.58205  23231204.067 5  23231199.216 5
  23231204.453 6

  20750305.203 7 109044029.43607  84969645.41706  20750307.832 6  20750304.944 6
  20750308.244 7  20750311.212 8  81429262.97608

  22650169.100 7 120908214.92707  94039793.18406
  22650175.967 6

  19902581.855 8 106503003.14608  82835832.64507
  19902588.495 7

  22354634.550 7 117474635.50407  91538804.72605  22354638.178 5  22354634.103 5


  23858329.223 6 125376594.28306  97696224.76504  23858338.862 4  23858328.924 4
  23858338.799 6  23858337.657 7  93625559.54107

  25159373.433 6 132213174.76006 103023221.92503  25159393.896 3  25159372.664 3
  25159394.321 6  25159395.348 6  98730577.62506

  19178683.889 6 102341211.79906


  28723025.796 6 150940528.41106
                  28723042.609 6 112715396.72206  28723037.735 5 122516720.92505
  28723039.097 6 115655785.30706  28723040.466 7 114185594.08907
  27710043.215 6 145617396.06306
                  27710053.440 6 108740381.63806  27710050.110 6 118195844.09806
  27710050.904 6 111577069.77506  27710052.068 7 110158728.77707
  25747424.235 5 135303634.10505 105431465.49002  25747441.135 2  25747424.142 2
  25747440.589 5  25747442.930 6 101038501.06006

  23927139.975 6 125737996.35406  97977705.84404  23927147.962 4  23927139.439 4
  23927148.297 6  23927146.968 7  93895298.13907

  21161832.901 7 113281373.69507  88107971.16807
  21161844.286 7

  24007122.479 7 126158359.45407
                  24007128.280 8  94209234.26608  24007125.857 8 102401310.39808
  24007126.324 8  96666850.95508  24007127.251 8  95438042.68408
  28241305.639 6 148408827.17406
                  28241327.740 6 110824721.79506  28241321.911 6 120461841.13706
  28241323.814 6 113715801.86806  28241325.620 6 112270264.40706
  24939090.864 7 131056117.13407
                  24939095.088 7  97866783.91907  24939095.995 7 106376870.05107
  24939093.202 7 100419801.81607  24939094.110 8  99143298.44108
  27074747.499 6 142278679.72206
                  27074759.289 7 106247064.30107  27074755.450 6 115485939.80706
  27074756.835 7 109018720.85607  27074757.855 7 107632892.65507
  37103872.968 7 194982147.12407
                  37103872.943 6 145603570.72306

  36827745.557 7 193531106.18007
                  36827755.374 7 144520032.23207

  25252580.654 7 132703642.77107
                  25252590.325 7  99097171.71907  25252586.878 7 107713757.12707
  25252587.632 7 101682277.33107  25252588.767 8 100389725.60008
  36974159.756 7 194300513.04007
                  36974165.817 6 145094576.65706

  23940288.500 6 125807103.77106  98031538.01203  23940292.945 3  23940287.637 3


  25863038.505 7 135911195.29407
                  25863048.176 7 101492169.26907  25863046.903 7 110317567.67007
  25863046.028 7 104139781.98307  25863047.003 8 102815978.70008
  24922608.592 7 130969502.76007
                  24922613.563 7  97802106.06907  24922612.631 7 106306562.15407
  24922611.515 8 100353440.74108  24922612.479 8  99077770.98008
  23563046.906 7 125869581.20507  97898604.63506
  23563058.291 6

  22176273.053 8 118545197.61108  92202001.26607
  22176280.688 7

  20581800.234 8 108158206.40508  84279201.09107  20581802.531 7  20581799.886 7
  20581802.817 7

  26063556.039 7 136964969.00207
                  26063563.933 7 102279083.31707  26063562.057 7 111172900.65207
  26063561.788 7 104947224.99307  26063562.767 7 103613158.22907
  23971220.048 6 128094789.10306  99629255.97906
  23971238.140 6

 25  4 11  0  6 30.0000000  0 33G18R20G15E29G05G23R22R21G13G10G25R06
                                E33E03G24G26R07E13E27E26E15S33S31E07
                                S35G16E21E08R12R05G29E23R11
  21104961.525 8 110907630.88608  86421681.43506  21104963.760 6  21104961.275 6
  21104963.966 7  21104966.955 8  82820836.90508

  21470506.957 6 114812473.52506  89298644.79907
  21470518.919 7

  20453764.162 8 107485748.78308  83755381.28507  20453766.824 7  20453763.845 7
  20453767.236 7

  28674570.412 5 150685944.68005
                  28674604.603 5 112525381.23305  28674595.332 5 122310140.00905
  28674600.870 6 115460803.21806
  23240076.932 7 122127569.55307  95164431.07105  23240081.065 5  23240076.660 5
  23240081.619 6

  20747014.591 7 109026738.00307  84956171.60906  20747017.425 6  20747014.337 6
  20747017.547 7  20747020.749 8  81416350.58508

  22641849.482 7 120863807.30707  94005253.96606
  22641857.003 6

  19899676.717 8 106487458.28508  82823742.22107
  19899683.531 7

  22357826.484 7 117491409.48007  91551875.36705  22357830.170 5  22357826.037 5


  23850869.134 6 125337393.87906  97665679.16804  23850878.885 4  23850868.839 4
  23850879.707 6  23850878.121 7  93596286.71507

  25167878.663 6 132257868.23906 103058047.77803  25167899.521 3  25167877.876 3
  25167898.909 6  25167900.368 6  98763952.35906

  19177040.165 6 102332439.99106


  28718082.481 6 150914550.36806
                  28718098.891 6 112695997.92006  28718093.891 5 122495635.14805
  28718095.332 6 115635880.43606  28718096.778 6 114165942.25406
  27715539.595 6 145646281.18706
                  27715550.013 6 108761951.64106  27715546.981 6 118219289.76906
  27715547.807 6 111599202.49606  27715548.806 7 110180580.14207
  25740739.464 5 135268502.49205 105404090.28802  25740755.626 2  25740739.348 2
  25740756.111 5  25740758.150 6 101012266.46806

  23929591.982 6 125750883.74106  97987747.94504  23929600.405 4  23929591.446 4
  23929600.413 6  23929599.215 7  93904921.81907

  21151203.303 7 113224471.92607  88063714.34607
  21151213.860 7

  24008135.181 7 126163682.05507
                  24008141.136 8  94213208.94408  24008138.770 8 102405630.70208
  24008139.146 8  96670929.31608  24008140.100 8  95442069.20408
  28249168.868 5 148450149.73905
                  28249191.750 6 110855579.31106  28249185.855 6 120495382.01106
  28249186.982 6 113747464.37706  28249189.201 6 112301524.41506
  24935675.576 7 131038169.52707
                  24935679.757 7  97853381.51907  24935680.671 7 106362302.21607
  24935677.799 7 100406049.78607  24935678.766 8  99129721.22508
  27079144.203 6 142301785.42306
                  27079156.133 7 106264318.52407  27079152.383 6 115504694.43006
  27079153.525 7 109036425.18107  27079154.765 7 107650371.92607
  37103879.412 7 194982176.27607
                  37103878.229 6 145603592.86806

  36827744.873 7 193531110.52907
                  36827756.215 7 144520035.45507

  25245332.989 7 132665557.17207
                  25245342.829 7  99068731.27407  25245339.280 7 107682843.56207
  25245340.060 7 101653094.95107  25245341.228 8 100360914.18708
  36974168.878 7 194300561.93707
                  36974175.069 6 145094613.15506

  23938164.504 6 125795945.88706  98022843.57703  23938169.475 3  23938163.650 3


  25869547.034 6 135945397.56906
                  25869556.592 7 101517709.88107  25869555.182 7 110345329.21807
  25869554.573 7 104165988.88407  25869555.535 8 102841852.45608
  24921755.597 7 130965019.24207
                  24921760.392 8  97798758.03108  24921759.519 7 106302922.96707
  24921758.322 8 100350005.35408  24921759.266 8  99074379.26708
  23566494.383 7 125887991.99107  97912924.09606
  23566505.425 6

  22186719.888 8 118601044.30708  92245437.55707
  22186728.662 7

  20586420.950 8 108182488.17008  84298121.93907  20586423.202 7  20586420.588 7
  20586423.271 7

  26064200.220 7 136968353.39607
                  26064207.836 7 102281610.63307  26064205.871 7 111175647.73907
  26064205.688 7 104949818.23807  26064206.775 7 103615718.50907
  23980107.943 6 128142284.28706  99666196.46006
  23980126.045 6

 25  4 11  0  6 45.0000000  0 33G18R20G15E29G05G23R22R21G13G10G25R06
                                E33E03G24G26R07E13E27E26E15S33S31E07
                                S35G16E21E08R12R05G29E23R11
  21102102.877 8 110892608.75108  86409975.89206  21102105.096 6  21102102.623 6
  21102105.597 7  21102108.334 8  82809619.09608

  21475266.674 6 114837919.12306  89318435.79407
  21475276.753 7

  20452144.975 8 107477240.21908  83748751.26107  20452147.698 7  20452144.636 7
  20452148.006 7

  28666363.900 5 150642825.22605
                  28666398.018 5 112493183.04905  28666389.123 6 122275141.47706
  28666394.425 6 115427764.92006
  23248956.495 7 122174231.93207  95200791.31705  23248960.755 5  23248956.214 5
  23248960.963 6

  20743742.191 7 109009540.61807  84942771.07706  20743744.814 6  20743741.941 6
  20743744.990 7  20743748.114 8  81403508.42008

  22633527.821 7 120819387.25107  93970705.11006
  22633535.572 6

  19896785.560 8 106471985.83808  82811708.09907
  19896791.878 7

  22361047.080 7 117508333.59207  91565062.99305  22361050.735 5  22361046.642 5


  23843420.928 6 125298251.33006  97635178.64404  23843430.562 4  23843420.678 4
  23843430.227 6  23843429.297 7  93567057.08107

  25176373.761 6 132302511.51206 103092834.50703  25176395.063 3  25176372.952 3
  25176394.816 6  25176396.233 6  98797289.56906

  19175434.486 6 102323870.16206


  28713137.275 6 150888564.97206
                  28713153.884 6 112676593.55206  28713148.848 5 122474543.34405
  28713150.207 6 115615969.82406  28713151.611 6 114146284.76106
  27721050.852 6 145675243.05906
                  27721061.384 6 108783578.98806  27721058.134 6 118242797.76006
  27721059.146 6 111621394.02606  27721060.094 7 110202489.58007
  25734044.646 5 135233327.20805 105376681.00902  25734061.759 2  25734044.521 2
  25734062.199 5  25734064.134 6 100985999.28306

  23932064.593 6 125763877.04206  97997872.57204  23932073.043 4  23932064.079 4
  23932072.940 6  23932071.845 7  93914624.57907

  21140592.603 7 113167673.14707  88019537.64707
  21140603.436 7

  24009150.777 7 126169019.12707
                  24009156.688 8  94217194.42408  24009154.305 8 102409962.74008
  24009154.718 8  96675018.76408  24009155.704 8  95446106.66808
  28257026.586 6 148491438.35206
                  28257048.696 6 110886411.48706  28257042.816 6 120528895.34006
  28257044.426 6 113779100.91706  28257046.571 6 112332758.77806
  24932261.120 7 131020226.36607
                  24932265.344 7  97839982.44507  24932266.034 7 106347737.98807
  24932263.287 7 100392301.16307  24932264.266 8  99116147.37708
  27083543.089 6 142324901.09106
                  27083554.956 7 106281580.16107  27083550.988 6 115523457.09006
  27083552.269 7 109054137.13707  27083553.558 7 107667858.72407
  37103887.174 7 194982207.10307
                  37103884.261 6 145603616.02006

  36827747.543 7 193531117.08107
                  36827757.364 7 144520040.52207

  25238094.542 7 132627520.23007
                  25238104.507 7  99040327.17507  25238100.967 7 107651969.49407
  25238101.971 7 101623949.85707  25238102.932 8 100332139.59208
  36974178.179 7 194300613.00507
                  36974184.714 6 145094651.33406

  23936067.611 6 125784924.92806  98014255.82103  23936071.725 3  23936066.744 3


  25876064.891 6 135979647.43006
                  25876074.342 7 101543286.02407  25876072.609 7 110373129.38707
  25876072.090 7 104192232.22707  25876073.130 8 102867762.19908
  24920922.735 7 130960643.02807
                  24920927.635 8  97795490.11108  24920926.770 7 106299370.86707
  24920925.526 8 100346652.17508  24920926.480 8  99071068.71708
  23569967.143 7 125906545.86507  97927354.85006
  23569978.495 6

  22197184.493 8 118656981.26208  92288944.02007
  22197191.825 7

  20591066.062 8 108206898.32808  84317142.82807  20591068.247 7  20591065.700 7
  20591068.672 7

  26064863.512 7 136971840.44007
                  26064871.490 7 102284214.59907  26064869.466 7 111178478.13407
  26064869.314 7 104952490.12707  26064870.328 7 103618356.43707
  23988998.836 6 128189788.28806  99703143.78506
  23989016.717 6

 25  4 11  0  7  0.0000000  0 33G18R20G15E29G05G23R22R21G13G10G25R06
                                E33E03G24G26R07E13E27E26E15S33S31E07
                                S35G16E21E08R12R05G29E23R11
  21099250.417 8 110877618.99308  86398295.57506  21099252.621 6  21099250.167 6
  21099252.873 7  21099255.920 8  82798425.46108

  21480038.608 6 114863439.56006  89338284.98407
  21480049.303 7

  20450555.702 8 107468887.51908  83742242.69107  20450558.224 7  20450555.367 7
  20450558.666 7

  28658150.635 5 150599669.85305
                  28658184.569 5 112460958.00405  28658175.468 5 122240113.75605
  28658181.069 6 115394699.06806
  23257837.517 7 122220901.74007  95237157.36105  23257841.845 5  23257837.240 5
  23257842.128 6

  20740486.307 7 108992432.52407  84929440.13206  20740489.222 6  20740486.057 6
  20740489.158 7  20740492.489 8  81390732.93008

  22625203.998 7 120774950.15907  93936142.96606
  22625210.880 6

  19893906.676 8 106456581.25008  82799726.75807
  19893913.334 7

  22364295.058 7 117525402.99107  91578363.83105  22364298.877 5  22364294.620 5


  23835981.607 6 125259161.97506  97604719.57704  23835991.785 4  23835981.339 4
  23835991.871 6  23835990.760 7  93537867.17807

  25184859.071 6 132347099.68006 103127578.28303  25184880.248 3  25184858.253 3
  25184879.647 6  25184881.582 6  98830585.63506

  19173865.178 6 102315497.42306


  28708189.665 6 150862567.34306
                  28708206.049 6 112657180.12206  28708201.309 5 122453441.61205
  28708202.824 6 115596049.88306  28708204.105 6 114126618.07906
  27726576.150 6 145704276.76806
                  27726586.298 6 108805259.97906  27726582.918 6 118266364.07806
  27726583.919 6 111643640.60506  27726585.043 7 110224453.36407
  25727342.848 5 135198103.92405 105349234.36802  25727358.962 2  25727342.741 2
  25727359.331 5  25727361.750 6 100959696.27406

  23934556.144 6 125776971.31706  98008075.88404  23934564.738 4  23934555.612 4
  23934565.478 6  23934563.732 7  93924402.75507

  21130000.097 7 113110973.29007  87975437.88307
  21130010.808 7

  24010168.294 7 126174366.02507
                  24010174.195 8  94221187.24208  24010171.892 8 102414302.76308
  24010172.180 8  96679115.74508  24010173.181 8  95450151.56708
  28264875.862 5 148532688.18105
                  28264898.333 6 110917214.69206  28264892.925 6 120562377.18806
  28264894.524 6 113810707.71406  28264896.419 6 112363963.77906
  24928846.534 7 131002282.94507
                  24928850.843 7  97826583.16607  24928851.318 7 106333173.53707
  24928848.787 7 100378552.33207  24928849.717 8  99102573.32208
  27087943.232 6 142348022.04906
                  27087954.808 7 106298845.77307  27087950.477 6 115542224.07106
  27087952.068 7 109071853.15707  27087953.362 7 107685349.53807
  37103891.083 7 194982234.91407
                  37103889.560 6 145603636.48706

  36827748.254 7 193531120.42407
                  36827758.035 7 144520042.94207

  25230864.617 7 132589527.48107
                  25230874.645 7  99011956.05707  25230871.222 7 107621131.29507
  25230871.994 7 101594838.61707  25230873.070 8 100303398.41408
  36974187.838 7 194300661.00807
                  36974193.783 6 145094687.19006

  23933995.507 6 125774036.09106  98005771.03103  23933999.602 3  23933994.640 3


  25882590.283 6 136013939.91606
                  25882599.982 7 101568894.00207  25882598.661 7 110400964.15907
  25882597.830 7 104218508.24707  25882598.842 8 102893704.19908
  24920109.379 7 130956369.45807
                  24920114.340 7  97792298.84107  24920113.208 7 106295902.08107
  24920112.208 8 100343377.65608  24920113.213 8  99067835.82308
  23573466.838 7 125925237.46407  97941892.73406
  23573477.555 6

  22207664.105 8 118713003.19308  92332516.60607
  22207672.721 7

  20595734.844 8 108231432.18708  84336260.10807  20595736.854 7  20595734.491 7
  20595737.417 7

  26065545.894 7 136975425.37407
                  26065553.735 7 102286891.66807  26065551.448 7 111181387.99707
  26065551.415 7 104955237.03407  26065552.514 7 103621068.42407
  23997888.249 6 128237295.87506  99740093.91006
  23997907.328 6

 25  4 11  0  7 15.0000000  0 33G18R20G15E29G05G23R22R21G13G10G25R06
                                E33E03G24G26R07E13E27E26E15S33S31E07
                                S35G16E21E08R12R05G29E23R11
  21096404.900 8 110862666.34508  86386644.17406  21096407.198 6  21096404.646 6
  21096407.536 7  21096410.485 8  82787259.53808

  21484825.478 6 114889039.48906  89358196.01807
  21484836.782 7

  20448996.917 8 107460695.53408  83735859.34907  20448999.336 7  20448996.587 7
  20448999.728 7

  28649932.201 5 150556483.41005
                  28649965.346 5 112428709.72805  28649956.280 5 122205060.79205
  28649961.691 6 115361609.38006
  23266720.930 7 122267583.62607  95273532.80905  23266725.201 5  23266720.653 5
  23266725.207 6

  20737248.673 7 108975418.34407  84916182.35906  20737251.522 6  20737248.423 6
  20737251.740 7  20737254.826 8  81378027.57908

  22616876.846 7 120730500.86507  93901571.35106
  22616883.235 6

  19891041.537 8 106441249.68708  82787802.23007
  19891048.145 7

  22367571.919 7 117542622.36507  91591781.52605  22367575.731 5  22367571.472 5


  23828553.976 6 125220130.60206  97574305.67704  23828564.268 4  23828553.695 4
  23828564.390 6  23828563.030 7  93508720.55707

  25193334.805 5 132391637.16305 103162282.55503  25193355.091 3  25193334.010 3
  25193355.185 6  25193356.649 6  98863843.84406

  19172335.469 6 102307326.56306


  28703241.077 6 150836562.21206
                  28703257.058 6 112637761.02706  28703252.662 5 122432333.79005
  28703253.647 6 115576124.18006  28703255.204 6 114106945.67506
  27732115.218 6 145733386.89906
                  27732125.867 6 108826998.00906  27732122.307 6 118289992.39006
  27732123.354 6 111665945.72706  27732124.511 7 110246474.94007
  25720631.683 5 135162837.67905 105321754.23002  25720648.233 2  25720631.576 2
  25720648.899 6  25720650.357 6 100933361.14506

  23937068.476 6 125790170.98606  98018361.31704  23937076.556 4  23937067.949 4
  23937076.696 6  23937075.572 7  93934259.62107

  21119428.033 7 113054377.84107  87931419.31507
  21119438.308 7

  24011188.403 7 126179727.45607
                  24011194.469 8  94225190.91908  24011192.019 8 102418654.57108
  24011192.411 8  96683223.85608  24011193.431 8  95454207.46008
  28272719.355 6 148573903.66806
                  28272741.836 6 110947992.25506  28272735.781 6 120595831.13006
  28272737.961 6 113842288.17606  28272739.600 6 112395142.78406
  24925432.857 7 130984343.89907
                  24925437.006 7  97813187.15407  24925437.795 7 106318612.65707
  24925435.045 7 100364806.86407  24925435.995 8  99089002.58208
  27092344.446 6 142371153.06606
                  27092356.481 7 106316118.88807  27092352.395 6 115560999.21406
  27092353.827 7 109089576.88207  27092355.084 7 107702847.95707
  37103896.006 7 194982264.75707
                  37103895.136 6 145603658.99106

  36827750.749 7 193531126.00807
                  36827759.059 7 144520047.28807

  25223644.586 7 132551583.85707
                  25223654.107 7  98983621.63607  25223650.698 7 107590332.97407
  25223651.495 7 101565765.02107  25223652.553 8 100274694.40308
  36974196.518 7 194300710.78107
                  36974203.289 6 145094724.48506

  23931949.556 6 125763284.17306  97997392.92903  23931953.521 3  23931948.680 3


  25889125.205 7 136048279.46407
                  25889134.722 7 101594537.10607  25889133.036 6 110428837.12206
  25889132.501 7 104244820.31007  25889133.497 8 102919681.78008
  24919316.612 7 130952203.29907
                  24919321.513 8  97789187.78108  24919320.471 7 106292520.47907
  24919319.378 8 100340185.43108  24919320.399 8  99064684.18008
  23576991.762 7 125944071.32507  97956541.24606
  23577002.493 6

  22218160.537 8 118769114.39008  92376158.60207
  22218169.540 7

  20600427.855 8 108256094.32908  84355477.35107  20600429.893 7  20600427.498 7
  20600430.390 7

  26066247.971 7 136979112.80007
                  26066255.409 7 102289645.26007  26066253.326 7 111184381.02507
  26066253.209 7 104958062.46507  26066254.192 7 103623857.93607
  24006781.140 6 128284811.61706  99777050.34506
  24006799.354 6

 25  4 11  0  7 30.0000000  0 33G18R20G15E29G05G23R22R21G13G10G25R06
                                E33E03G24G26R07E13E27E26E15S33S31E07
                                S35G16E21E08R12R05G29E23R11
  21093566.242 8 110847748.16208  86375019.62806  21093568.326 6  21093565.992 6
  21093568.842 7  21093571.631 8  82776119.34708

  21489628.794 6 114914716.83106  89378167.27407
  21489638.456 7

  20447467.978 8 107452661.51508  83729599.10007  20447470.502 7  20447467.643 7
  20447470.872 7

  28641707.000 5 150513263.29705
                  28641739.498 5 112396436.33005  28641730.655 5 122169980.45105
  28641736.098 6 115328493.88406
  23275605.790 7 122314274.53707  95309915.29605  23275610.226 5  23275605.504 5
  23275610.438 6

  20734028.240 7 108958495.28507  84902995.58606  20734031.117 6  20734027.995 6
  20734031.271 7  20734034.443 8  81365390.26008

  22608547.635 7 120686036.75807  93866988.20406
  22608554.950 6

  19888190.037 8 106425988.63008  82775932.52807
  19888196.503 7

  22370876.344 7 117559988.67607  91605313.72205  22370880.417 5  22370875.893 5


  23821137.059 6 125181154.49706  97543934.84804  23821147.313 4  23821136.782 4
  23821147.044 6  23821145.808 7  93479615.22607

  25201800.473 5 132436120.88005 103196944.94903  25201820.208 3  25201799.695 3
  25201819.900 6  25201821.349 6  98897061.92306

  19170839.853 6 102299354.86906


  28698290.205 6 150810546.69006
                  28698306.301 6 112618334.20406  28698301.747 5 122411217.54205
  28698302.626 6 115556190.52706  28698304.326 6 114087265.43806
  27737668.546 6 145762570.41006
                  27737679.247 6 108848790.87606  27737675.998 6 118313680.27606
  27737676.827 6 111688307.11306  27737678.061 7 110268552.06707
  25713912.180 5 135127525.94005 105294238.67402  25713928.596 2  25713912.046 2
  25713929.460 6  25713930.610 6 100906992.07906

  23939599.666 6 125803473.05506  98028726.54004  23939607.767 4  23939599.130 4
  23939608.190 6  23939606.840 7  93944192.96707

  21108874.189 7 112997883.85807  87887479.66607
  21108884.611 7

  24012211.136 8 126185100.71408
                  24012216.966 8  94229203.42308  24012214.618 8 102423015.98708
  24012214.965 8  96687341.03308  24012215.912 8  95458272.30208
  28280555.106 6 148615081.82606
                  28280577.980 6 110978741.95206  28280571.918 6 120629254.78906
  28280573.868 6 113873840.05106  28280575.640 6 112426293.57106
  24922019.504 7 130966406.50607
                  24922023.650 7  97799792.38207  24922024.472 7 106304053.09807
  24922021.696 7 100351062.65207  24922022.582 8  99075433.09008
  27096747.970 6 142394291.42206
                  27096759.751 7 106333397.48407  27096755.542 6 115579780.31606
  27096756.946 7 109107306.23407  27096758.229 7 107720351.93207
  37103901.479 7 194982293.32607
                  37103900.600 6 145603680.36106

  36827749.533 7 193531130.48007
                  36827759.842 7 144520050.60207

  25216432.944 7 132513686.85807
                  25216442.441 7  98955322.02107  25216439.006 7 107559572.48707
  25216439.889 7 101536727.14707  25216440.908 8 100246025.65908
  36974205.881 7 194300759.90207
                  36974212.532 6 145094761.19606

  23929929.430 6 125752666.40606  97989119.36703  23929933.108 3  23929928.559 3


  25895668.101 7 136082663.04307
                  25895677.830 7 101620213.10807  25895675.888 7 110456745.84507
  25895675.555 7 104271166.12707  25895676.513 8 102945692.69108
  24918543.501 7 130948141.78007
                  24918548.633 8  97786154.86808  24918547.698 7 106289223.82307
  24918546.528 8 100337073.39208  24918547.497 8  99061611.70408
  23580544.087 7 125963044.43407  97971298.05806
  23580554.860 6

  22228674.015 8 118825311.19608  92419867.20307
  22228682.374 7

  20605144.372 8 108280881.83608  84374792.28107  20605146.798 7  20605144.006 7
  20605147.294 7

  26066968.426 7 136982899.88307
                  26066976.201 7 102292473.28807  26066973.938 7 111187454.96107
  26066973.868 7 104960964.26407  26066974.848 7 103626722.85007
  24015673.391 6 128332331.75406  99814010.26706
  24015693.000 6

 25  4 11  0  7 45.0000000  0 33G18R20G15E29G05G23R22R21G13G10G25R06
                                E33E03G24G26R07E13E27E26E15S33S31E07
                                S35G16E21E08R12R05G29E23R11
  21090733.892 8 110832865.83408  86363423.02106  21090736.336 6  21090733.633 6
  21090736.600 7  21090739.594 8  82765005.93308

  21494444.114 6 114940472.47506  89398199.39807
  21494455.339 7

  20445969.422 8 107444786.92308  83723463.07807  20445971.976 7  20445969.092 7
  20445972.300 7

  28633475.355 5 150470010.96905
                  28633507.861 5 112364138.83205  28633499.430 5 122134873.99605
  28633504.568 6 115295353.70906
  23284492.633 7 122360975.34207  95346305.48705  23284497.039 5  23284492.338 5
  23284497.440 6

  20730825.420 7 108941664.58107  84889880.78706  20730828.358 6  20730825.175 6
  20730828.347 7  20730831.582 8  81352821.91408

  22600215.256 7 120641559.35207  93832394.72206
  22600222.259 6

  19885351.477 8 106410799.55408  82764118.81307
  19885357.967 7

  22374209.231 7 117577503.13407  91618961.35405  22374213.104 5  22374208.780 5


  23813730.789 6 125142235.08006  97513608.19204  23813741.318 4  23813730.490 4
  23813740.699 6  23813739.698 7  93450552.21007

  25210254.868 5 132480551.90305 103231566.27803  25210275.192 3  25210254.099 3
  25210275.447 6  25210277.240 6  98930240.62606

  19169384.129 6 102291583.62506


  28693337.777 6 150784522.05306
                  28693353.811 6 112598900.56506  28693349.334 5 122390093.93005
  28693350.329 6 115536249.89906  28693351.700 6 114067578.30506
  27743236.352 6 145791828.51606
                  27743246.888 6 108870639.41906  27743243.598 6 118337428.72706
  27743244.910 6 111710725.62006  27743245.835 7 110290685.59207
  25707185.013 5 135092170.33105 105266688.88402  25707200.628 2  25707184.911 2
  25707201.494 6  25707202.578 6 100880590.20806

  23942150.874 6 125816878.63006  98039172.42904  23942158.957 4  23942150.351 4
  23942159.123 6  23942157.878 7  93954203.61107

  21098340.009 7 112941493.48707  87843620.61207
  21098350.395 7

  24013235.984 8 126190487.18608
                  24013241.966 8  94233225.79208  24013239.569 8 102427388.12408
  24013239.936 8  96691468.33708  24013240.920 8  95462347.13808
  28288384.290 6 148656223.77106
                  28288407.312 6 111009464.59106  28288400.705 6 120662649.08106
  28288403.109 6 113905364.20606  28288404.902 6 112457416.97406
  24918606.579 7 130948472.04107
                  24918610.841 7  97786399.78807  24918611.514 7 106289495.92407
  24918608.815 7 100337320.69007  24918609.742 8  99061865.81108
  27101152.812 6 142417438.52606
                  27101164.347 7 106350682.59207  27101160.398 6 115598568.49106
  27101161.994 7 109125042.26007  27101163.045 7 107737862.50007
  37103907.002 7 194982322.56707
                  37103906.163 6 145603702.07406

  36827752.479 7 193531135.30907
                  36827760.790 7 144520054.21007

  25209230.568 7 132475838.00207
                  25209240.018 7  98927058.35807  25209236.763 7 107528851.07807
  25209237.397 7 101507726.15707  25209238.425 8 100217393.33308
  36974215.513 7 194300809.18307
                  36974221.932 6 145094797.85906

  23927934.361 6 125742184.17906  97980951.40503  23927938.501 3  23927933.481 3


  25902219.331 6 136117091.73006
                  25902229.272 7 101645922.78707  25902227.476 7 110484691.17307
  25902227.106 7 104297546.50307  25902228.089 8 102971737.72008
  24917791.078 7 130944186.30407
                  24917795.865 7  97783201.13107  24917794.968 7 106286013.23007
  24917793.829 8 100334042.59708  24917794.762 8  99058619.43808
  23584122.256 7 125982157.53707  97986163.76006
  23584133.396 6

  22239202.339 8 118881594.71508  92463643.25007
  22239211.613 7

  20609885.881 8 108305795.85108  84394205.78407  20609887.804 7  20609885.519 7
  20609888.328 7

  26067708.271 7 136986787.86407
                  26067715.920 7 102295376.66207  26067713.692 7 111190610.80407
  26067713.790 7 104963943.37607  26067714.705 7 103629664.09307
  24024567.454 6 128379857.03106  99850974.10606
  24024585.374 6

 25  4 11  0  8  0.0000000  0 33G18R20G15E29G05G23R22R21G13G10G25R06
                                E33E03G24G26R07E13E27E26E15S33S31E07
                                S35G16E21E08R12R05G29E23R11
  21087909.063 8 110818020.24908  86351855.03906  21087911.312 6  21087908.800 6
  21087911.607 7  21087914.561 8  82753919.95708

  21499274.008 6 114966307.01206  89418292.92607
  21499286.547 7

  20444501.515 8 107437072.84608  83717452.12907  20444504.019 7  20444501.185 7
  20444504.235 7

  28625237.842 5 150426727.53105
                  28625269.899 5 112331818.03605  28625261.594 5 122099742.22205
  28625266.638 6 115262189.61906
  23293381.694 7 122407686.98107  95382704.12005  23293385.748 5  23293381.408 5
  23293386.455 6

  20727640.529 7 108924926.98507  84876838.53206  20727643.235 6  20727640.284 6
  20727643.267 7  20727646.573 8  81340323.09308

  22591880.436 7 120597069.51707  93797791.56606
  22591887.788 6

  19882526.828 8 106395683.63808  82752362.00007
  19882533.393 7

  22377570.500 7 117595166.59907  91632725.09905  22377574.387 5  22377570.044 5


  23806335.614 6 125103373.19406  97483326.36004  23806345.983 4  23806335.275 4
  23806345.613 6  23806344.318 7  93421532.15807

  25218700.703 5 132524930.76305 103266146.94303  25218720.021 3  25218699.934 3
  25218720.486 6  25218722.401 6  98963380.37306

  19167965.591 6 102284013.62706


  28688383.751 6 150758489.03806
                  28688399.479 6 112579460.70006  28688394.509 5 122368963.48405
  28688396.185 6 115516302.85006  28688397.518 6 114047884.85206
  27748818.840 6 145821161.79106
                  27748828.802 6 108892544.10806  27748825.791 6 118361238.17606
  27748826.746 6 111733201.73606  27748827.797 7 110312875.99107
  25700447.227 5 135056771.93305 105239105.77903  25700464.607 3  25700447.120 3
  25700464.868 6  25700466.698 7 100854156.42307

  23944721.305 6 125830388.25106  98049699.38004  23944729.908 4  23944720.778 4
  23944730.174 6  23944728.885 7  93964291.93807

  21087825.748 7 112885208.00007  87799843.13107
  21087835.517 7

  24014263.713 7 126195887.67207
                  24014269.649 8  94237258.62908  24014267.233 8 102431771.64708
  24014267.600 8  96695606.37808  24014268.584 8  95466432.57608
  28296207.403 6 148697330.17506
                  28296229.977 6 111040160.67806  28296223.421 6 120696014.45906
  28296225.408 6 113936861.06806  28296227.455 6 112488513.44606
  24915194.522 7 130930541.29707
                  24915198.683 7  97773009.98107  24915199.291 7 106274941.77507
  24915196.650 7 100323581.57307  24915197.581 8  99048301.35008
  27105558.985 6 142440595.21006
                  27105571.075 7 106367974.88507  27105566.808 6 115617364.48806
  27105568.544 7 109142785.65407  27105569.677 7 107755380.34207
  37103912.359 7 194982352.53407
                  37103911.980 6 145603724.51506

  36827750.999 7 193531141.34507
                  36827761.823 7 144520058.83207

  25202037.117 7 132438038.33207
                  25202046.869 7  98898831.42807  25202043.552 7 107498169.60007
  25202044.261 7 101478762.86607  25202045.297 8 100188798.22308
  36974224.729 7 194300860.14307
                  36974231.622 6 145094835.98006

  23925965.914 6 125731838.20806  97972889.63903  23925969.663 3  23925965.038 3


  25908780.183 6 136151566.04606
                  25908789.539 7 101671666.55107  25908787.642 6 110512673.54706
  25908787.242 7 104323961.85107  25908788.380 8 102997817.27608
  24917058.561 7 130940337.68207
                  24917063.453 8  97780327.18908  24917062.609 7 106282889.37107
  24917061.463 8 100331093.68608  24917062.364 8  99055708.01108
  23587726.968 7 126001411.27207  98001138.84206
  23587737.637 6

  22249748.018 8 118937965.19308  92507486.89907
  22249756.504 7

  20614651.131 8 108330837.25808  84413718.55207  20614653.056 7  20614650.774 7
  20614653.431 7

  26068467.599 7 136990777.49407
                  26068475.107 7 102298355.93007  26068472.915 7 111193849.14407
  26068472.938 7 104967000.36307  26068473.883 7 103632682.22207
  24033462.292 6 128427387.93606  99887942.35506
  24033480.596 6

 25  4 11  0  8 15.0000000  0 33G18R20G15E29G05G23R22R21G13G10G25R06
                                E33E03G24G26R07E13E27E26E15S33S31E07
                                S35G16E21E08R12R05G29E23R11
  21085090.718 8 110803209.92608  86340314.54106  21085093.023 6  21085090.455 6
  21085093.289 7  21085096.221 8  82742860.31408

  21504120.214 6 114992219.19906  89438446.80207
  21504131.972 7

  20443063.846 8 107429517.56308  83711564.92107  20443066.276 7  20443063.516 7
  20443066.654 7

  28616994.185 5 150383411.44205
                  28617026.100 5 112299472.86705  28617017.866 6 122064583.97406
  28617022.742 6 115229000.50806
  23302272.387 7 122454407.34807  95419109.55905  23302276.447 5  23302272.092 5
  23302276.601 6

  20724472.813 7 108908280.86007  84863867.55406  20724475.515 6  20724472.563 6
  20724475.872 7  20724478.876 8  81327892.58008

  22583544.081 7 120552565.92707  93763177.71606
  22583550.384 6

  19879715.176 8 106380639.62808  82740661.11407
  19879721.702 7

  22380959.802 7 117612977.28107  91646603.55005  22380963.604 5  22380959.342 5


  23798951.169 6 125064567.35806  97453088.20804  23798961.147 4  23798950.816 4
  23798961.543 6  23798959.819 7  93392553.95507

  25227135.473 6 132569255.62506 103300685.54403  25227155.746 3  25227134.718 3
  25227156.156 6  25227157.715 6  98996479.82206

  19166584.348 6 102276643.25506


  28683427.632 6 150732445.99606
                  28683443.370 6 112560013.34806  28683438.669 5 122347824.92205
  28683439.848 6 115496348.13806  28683441.381 6 114028183.81606
  27754414.319 6 145850568.46606
                  27754424.686 6 108914503.61406  27754421.405 6 118385107.21506
  27754422.746 6 111755734.11306  27754423.608 7 110335121.93607
  25693702.594 5 135021329.43905 105211488.30303  25693720.716 3  25693702.469 3
  25693720.547 6  25693722.296 7 100827689.67807

  23947311.250 6 125844000.12306  98060306.00604  23947320.261 4  23947310.727 4
  23947320.317 6  23947319.171 7  93974456.61107

  21077329.720 7 112829025.96607  87756146.12407
  21077340.352 7

  24015293.788 7 126201300.65507
                  24015299.674 8  94241300.79408  24015297.292 8 102436165.30208
  24015297.677 8  96699753.99308  24015298.636 8  95470527.46708
  28304022.454 6 148738399.18806
                  28304045.002 6 111070828.83706  28304039.678 6 120729349.54006
  28304040.643 6 113968329.30506  28304042.832 6 112519581.64306
  24911782.672 7 130912612.68607
                  24911786.944 7  97759621.77307  24911787.659 7 106260389.35807
  24911784.940 7 100309844.10307  24911785.853 8  99034738.51008
  27109967.264 6 142463759.98406
                  27109979.161 7 106385273.19707  27109975.273 6 115636167.02506
  27109976.641 7 109160535.24007  27109977.821 7 107772904.29107
  37103915.426 7 194982382.33607
                  37103917.503 6 145603746.84206

  36827752.493 7 193531146.68607
                  36827762.905 7 144520062.64607

  25194852.868 7 132400286.53907
                  25194862.726 7  98870640.24807  25194859.516 7 107467526.97307
  25194860.305 7 101449836.24907  25194861.282 8 100160239.32408
  36974233.243 7 194300910.23407
                  36974241.151 6 145094873.50006

  23924022.608 6 125721626.97006  97964932.84803  23924026.430 3  23924021.719 3


  25915348.732 6 136186084.15906
                  25915358.204 7 101697443.01207  25915356.123 6 110540691.44206
  25915355.957 7 104350410.74007  25915357.005 8 103023929.95108
  24916346.343 7 130936594.39907
                  24916351.068 7  97777531.92007  24916350.176 7 106279851.01907
  24916349.111 8 100328225.48708  24916350.012 8  99052876.27808
  23591356.766 7 126020803.52707  98016221.68306
  23591368.199 6

  22260309.767 8 118994420.70208  92551396.71107
  22260317.632 7

  20619440.015 8 108356004.21408  84433329.15207  20619442.191 7  20619439.658 7
  20619442.782 7

  26069245.925 7 136994867.09207
                  26069253.398 7 102301409.85107  26069250.938 6 111197168.61506
  26069251.055 7 104970133.95307  26069252.102 7 103635775.97707
  24042357.695 6 128474922.40506  99924913.36706
  24042377.160 6

 25  4 11  0  8 30.0000000  0 33G18R20G15E29G05G23R22R21G13G10G25R06
                                E33E03G24G26R07E13E27E26E15S33S31E07
                                S35G16E21E08R12R05G29E23R11
  21082279.551 8 110788436.60608  86328802.87706  21082281.763 6  21082279.288 6
  21082281.898 7  21082284.905 8  82731828.30808

  21508980.606 6 115018211.27206  89458662.82807
  21508992.625 7

  20441656.487 8 107422122.73008  83705802.73507  20441659.039 7  20441656.152 7
  20441659.502 7

  28608744.591 5 150340064.58405
                  28608776.363 5 112267104.69605  28608768.007 5 122029400.69905
  28608773.107 6 115195787.82306  28608774.794 6 113731341.33916
  23311164.874 7 122501137.95707  95455522.97605  23311169.141 5  23311164.588 5
  23311169.565 6

  20721323.023 7 108891727.79107  84850969.09206  20721325.588 6  20721322.787 6
  20721325.641 7  20721328.881 8  81315531.56808

  22575203.802 7 120508050.32407  93728554.51506
  22575211.328 6

  19876917.782 8 106365669.38508  82729017.59607
  19876924.233 7

  22384377.389 7 117630936.74207  91660597.94405  22384381.162 5  22384376.920 5


  23791577.115 7 125025819.28107  97422895.05604  23791587.589 4  23791576.753 4
  23791587.393 6  23791585.843 7  93363618.88607

  25235560.060 5 132613527.85105 103335183.12303  25235580.918 3  25235559.296 3
  25235580.846 6  25235581.971 6  99029539.92406

  19165240.773 6 102269474.29406


  28678469.775 6 150706394.56506
                  28678485.679 6 112540559.66106  28678481.255 5 122326679.48405
  28678482.008 6 115476386.93906  28678483.510 6 114008476.37106
  27760024.144 6 145880049.99906
                  27760034.985 6 108936519.02506  27760031.792 6 118409037.03506
  27760032.792 6 111778323.83806  27760033.683 7 110357424.50207
  25686951.191 5 134985844.74605 105183837.96202  25686968.338 2  25686951.057 2
  25686967.982 6  25686969.778 7 100801191.44807

  23949921.697 6 125857715.57106  98070993.34904  23949930.329 4  23949921.192 4
  23949930.892 6  23949929.139 7  93984698.65507

  21066855.082 8 112772949.81608  87712531.44307
  21066864.770 7

  24016326.513 8 126206727.84208
                  24016332.421 8  94245353.58208  24016330.019 8 102440570.50108
  24016330.439 8  96703912.49808  24016331.388 8  95474633.11308
  28311830.466 6 148779432.27706
                  28311853.773 6 111101470.16906  28311848.095 6 120762655.42406
  28311849.377 6 113999770.02506  28311851.403 6 112550622.67406
  24908371.901 7 130894687.84907
                  24908375.869 7  97746236.37207  24908376.745 7 106245839.99807
  24908373.910 7 100296109.51607  24908374.833 8  99021178.51608
  27114377.208 6 142486934.52706
                  27114389.360 7 106402578.80607  27114385.415 6 115654977.48806
  27114386.583 7 109178292.31007  27114387.820 7 107790435.63207
  37103924.504 7 194982413.89007
                  37103923.553 6 145603770.36706

  36827753.602 7 193531153.62907
                  36827764.237 7 144520067.89307

  25187678.694 7 132362584.49107
                  25187688.214 7  98842486.21607  25187684.726 7 107436924.72807
  25187685.840 7 101420947.75907  25187686.756 8 100131718.06308
  36974243.733 7 194300961.90307
                  36974250.872 6 145094912.03006

  23922104.991 6 125711552.17706  97957082.37103  23922109.151 3  23922104.102 3


  25921925.818 7 136220647.46907
                  25921935.408 7 101723253.21507  25921933.751 6 110568746.04006
  25921933.150 7 104376894.26807  25921934.243 8 103050076.81608
  24915654.279 7 130932958.14607
                  24915659.116 7  97774816.56407  24915658.244 7 106276899.53307
  24915657.106 8 100325439.29008  24915658.028 8  99050125.50108
  23595012.178 7 126040335.72307  98031413.33906
  23595023.463 6

  22270886.428 8 119050962.13608  92595373.32707
  22270895.007 7

  20624253.198 8 108381298.26408  84453038.79107  20624255.490 7  20624252.836 7
  20624255.903 7

  26070043.407 7 136999058.22407
                  26070050.918 7 102304539.60707  26070048.371 6 111200570.51306
  26070048.667 7 104973345.35107  26070049.638 7 103638946.55407
  24051254.632 6 128522461.52606  99961888.01106
  24051272.791 6

 25  4 11  0  8 45.0000000  0 33G18R20G15E29G05G23R22R21G13G10G25R06
                                E33E03G24G26R07E13E27E26E15S33S31E07
                                S35G16E21E08R12R05G29E23R11
  21079475.092 8 110773699.00808  86317319.04906  21079477.282 6  21079474.829 6
  21079477.640 7  21079480.441 8  82720822.97108

  21513857.911 6 115044281.46206  89478939.62107
  21513867.635 7

  20440279.540 8 107414887.25208  83700164.72307  20440282.128 7  20440279.201 7
  20440282.351 7

  28600489.078 5 150296685.76405
                  28600520.524 5 112234712.62605  28600512.356 6 121994191.47406
  28600517.292 6 115162550.60306  28600519.115 6 113698526.69306
  23320059.143 7 122547877.38707  95491943.26205  23320063.337 5  23320058.853 5
  23320063.794 6

  20718190.428 7 108875266.37907  84838142.05106  20718193.055 6  20718190.196 6
  20718193.120 7  20718196.370 8  81303238.98708

  22566861.868 7 120463521.51707  93693921.06506
  22566869.995 6

  19874133.551 8 106350771.87208  82717430.65807
  19874140.502 7

  22387823.076 7 117649043.36807  91674707.01305  22387826.642 5  22387822.607 5


  23784213.813 6 124987127.64706  97392745.88904  23784224.598 4  23784213.424 4
  23784224.534 6  23784223.026 7  93334725.97207

  25243973.852 6 132657745.80906 103369638.40703  25243995.514 3  25243973.092 3
  25243994.979 6  25243997.183 6  99062559.54106

  19163934.997 6 102262505.21406


  28673509.858 5 150680333.26305
                  28673525.904 6 112521098.67006  28673521.444 5 122305526.10805
  28673522.186 6 115456418.21406  28673524.011 6 113988761.51306
  27765648.773 6 145909604.87906
                  27765659.078 6 108958589.19606  27765656.417 6 118433026.33606
  27765656.833 6 111800969.73706  27765657.826 7 110379782.53807
  25680189.561 5 134950316.82505 105156153.93102  25680207.540 2  25680189.427 2
  25680207.022 6  25680208.907 6 100774660.92606

  23952550.993 6 125871533.10506  98081760.23104  23952559.786 4  23952550.497 4
  23952559.608 6  23952558.373 7  93995016.90207

  21056398.137 7 112716978.64307  87668998.43607
  21056408.736 7

  24017361.740 8 126212167.88608
                  24017367.643 8  94249415.96208  24017365.230 8 102444986.12508
  24017365.603 8  96708080.85408  24017366.578 8  95478748.48108
  28319632.555 6 148820427.86806
                  28319655.206 6 111132083.51106  28319649.321 6 120795930.87506
  28319650.658 6 114031181.97606  28319652.792 6 112581635.31406
  24904961.240 7 130876765.43007
                  24904965.346 7  97732852.77907  24904966.104 7 106231292.59707
  24904963.353 7 100282376.78207  24904964.263 8  99007620.35308
  27118788.806 6 142510117.56206
                  27118800.909 7 106419890.77407  27118796.423 6 115673794.85806
  27118798.277 7 109196055.89607  27118799.464 7 107807973.41107
  37103931.698 7 194982444.95407
                  37103929.192 6 145603793.67506

  36827756.137 7 193531160.49707
                  36827765.462 7 144520073.11007

  25180513.520 7 132324931.06707
                  25180522.927 7  98814368.49107  25180519.678 7 107406361.95207
  25180520.578 7 101392096.51407  25180521.468 8 100103233.57808
  36974254.304 7 194301013.34907
                  36974260.736 6 145094950.53206

  23920213.904 6 125701612.38406  97949337.09703  23920217.713 3  23920213.006 3


  25928511.316 7 136255254.33007
                  25928520.976 7 101749095.96307  25928519.105 6 110596835.99406
  25928518.625 7 104403411.17707  25928519.758 7 103076256.64407
  24914982.378 7 130929427.57007
                  24914987.286 7  97772180.12907  24914986.348 7 106274033.83507
  24914985.237 8 100322734.07508  24914986.158 8  99047454.67608
  23598696.050 7 126060006.08707  98046712.45406
  23598706.781 6

  22281479.986 8 119107587.55908  92639415.28507
  22281488.014 7

  20629090.572 8 108406717.99708  84472846.36107  20629092.712 7  20629090.201 7
  20629093.511 7

  26070860.419 7 137003349.45907
                  26070867.453 7 102307744.10307  26070865.176 6 111204053.66006
  26070865.274 7 104976633.44907  26070866.210 7 103642192.85007
  24060152.827 6 128570003.37206  99998864.75206
  24060170.374 6

 25  4 11  0  9  0.0000000  0 33G18R20G15E29G05G23R22R21G13G10G25R06
                                E33E03G24G26R07E13E27E26E15S33S31E07
                                S35G16E21E08R12R05G29E23R11
  21076677.736 8 110758999.00308  86305864.50806  21076679.929 6  21076677.473 6
  21076680.410 7  21076683.147 8  82709845.70408

  21518746.931 6 115070431.86206  89499278.79207
  21518757.980 7

  20438933.415 8 107407812.87308  83694652.24307  20438935.888 7  20438933.080 7
  20438936.273 7

  28592228.442 5 150253276.96005
                  28592259.193 6 112202298.14106  28592251.166 6 121958957.89806
  28592255.799 6 115129290.37706  28592257.698 6 113665689.33906
  23328955.551 7 122594627.08807  95528371.55605  23328959.594 5  23328955.243 5
  23328959.748 6

  20715075.584 7 108858898.33607  84825387.76206  20715078.275 6  20715075.348 6
  20715078.706 7  20715081.626 8  81291016.13308

  22558519.000 7 120418981.49907  93659278.85706
  22558525.325 6

  19871364.054 8 106335949.13608  82705901.86507
  19871370.441 7

  22391297.178 7 117667298.66707  91688931.92305  22391300.493 5  22391296.736 5


  23776862.532 6 124948494.35906  97362642.18704  23776872.879 4  23776862.157 4
  23776872.840 6  23776871.234 7  93305876.62007

  25252379.804 6 132701911.05806 103404052.62003  25252400.264 3  25252379.053 3
  25252400.054 6  25252401.785 6  99095539.76806

  19162666.647 6 102255737.99406


  28668549.128 5 150654263.87205
                  28668564.793 6 112501631.60906  28668559.798 5 122284366.10905
  28668561.262 6 115436443.26306  28668562.683 6 113969040.50806
  27771287.310 6 145939234.70606
                  27771297.343 6 108980715.33406  27771294.795 6 118457076.50506
  27771295.296 6 111823673.09006  27771296.198 7 110402197.28607
  25673421.564 5 134914747.86705 105128437.93702  25673438.787 2  25673421.439 2
  25673438.119 5  25673440.118 6 100748099.76906

  23955199.810 6 125885454.18306  98092607.80404  23955208.798 4  23955199.323 4
  23955208.827 6  23955207.415 7  94005412.49707

  21045962.860 7 112661114.64107  87625548.78307
  21045973.344 7

  24018399.575 8 126217622.65908
                  24018405.595 8  94253489.33508  24018403.358 8 102449413.70808
  24018403.564 8  96712260.49008  24018404.580 8  95482874.98608
  28327426.668 5 148861387.57105
                  28327449.648 6 111162670.05006  28327443.589 6 120829177.22006
  28327445.070 6 114062566.46506  28327447.389 6 112612620.83106
  24901551.518 7 130858847.19607
                  24901555.607 7  97719472.31007  24901556.316 7 106216748.60607
  24901553.664 7 100268647.25207  24901554.508 8  98994065.35308
  27123202.195 6 142533310.94906
                  27123214.460 7 106437210.46007  27123210.477 6 115692620.62006
  27123211.729 7 109213827.40507  27123213.032 7 107825519.00607
  37103937.029 7 194982477.41007
                  37103935.662 6 145603817.92106

  36827757.908 7 193531168.79507
                  36827766.960 7 144520079.23207

  25173358.048 7 132287328.29907
                  25173367.264 7  98786288.58707  25173363.940 7 107375840.27907
  25173364.871 7 101363284.07207  25173365.830 8 100074787.40408
  36974265.720 7 194301066.42707
                  36974270.882 6 145094990.15406

  23918348.687 6 125691809.45406  97941698.46603  23918352.134 3  23918347.798 3


  25935105.442 7 136289906.29607
                  25935115.132 7 101774972.37807  25935113.390 6 110624962.56406
  25935112.764 7 104429962.63907  25935113.855 8 103102470.58208
  24914330.934 7 130926004.53807
                  24914335.868 7  97769623.99607  24914334.842 7 106271255.42007
  24914333.780 8 100320111.26408  24914334.768 8  99044865.20408
  23602404.948 7 126079815.83607  98062120.01006
  23602414.647 6

  22292088.580 8 119164298.26008  92683523.56607
  22292096.754 7

  20633952.001 8 108432265.25308  84492753.30307  20633954.193 7  20633951.639 7
  20633954.626 7

  26071696.067 7 137007742.54507
                  26071703.540 7 102311024.65807  26071701.338 6 111207619.47406
  26071701.073 7 104979999.57407  26071702.185 7 103645516.19007
  24069050.000 6 128617549.16106 100035844.56806
  24069068.107 6

 25  4 11  0  9 15.0000000  0 33G18R20G15E29G05G23R22R21G13G10G25R06
                                E33E03G24G26R07E13E27E26E15S33S31E07
                                S35G16E21E08R12R05G29E23R11
  21073886.580 8 110744330.82108  86294434.76806  21073888.648 6  21073886.321 6
  21073889.048 7  21073891.844 8  82698892.21308

  21523651.386 6 115096656.19606  89519675.46707
  21523662.475 7

  20437616.715 8 107400893.96408  83689260.90707  20437619.272 7  20437616.389 7
  20437619.691 7

  28583960.414 5 150209832.42505
                  28583990.925 5 112169856.96305  28583983.016 6 121923695.32306
  28583987.680 6 115096002.80106  28583989.391 6 113632824.96406
  23337852.543 7 122641380.99107  95564803.12505  23337856.616 5  23337852.235 5
  23337856.794 6

  20711977.182 7 108842617.73407  84812701.61106  20711980.152 6  20711976.946 6
  20711980.465 7  20711983.489 8  81278858.57608

  22550170.870 7 120374424.42207  93624623.42206
  22550178.423 6

  19868606.474 8 106321195.65508  82694426.95507
  19868613.056 7

  22394797.886 7 117685696.89207  91703268.20705  22394801.720 5  22394797.444 5


  23769521.383 6 124909913.58806  97332579.39904  23769530.931 4  23769521.012 4
  23769531.029 6  23769529.265 7  93277066.49007

  25260772.564 5 132746017.44105 103438420.93703  25260793.527 3  25260771.822 3
  25260793.731 6  25260795.205 6  99128476.01406

  19161434.969 6 102249166.64306


  28663585.767 6 150628180.39606
                  28663600.821 6 112482154.04206  28663596.397 5 122263194.69205
  28663597.084 6 115416457.53506  28663598.780 6 113949308.85806
  27776938.857 6 145968933.40106
                  27776949.032 6 109002892.89106  27776945.870 6 118481182.54406
  27776946.788 6 111846429.18806  27776947.712 7 110424664.11407
  25666643.793 5 134879132.28905 105100685.59602  25666660.889 2  25666643.659 2
  25666660.790 5  25666662.933 6 100721503.78406

  23957867.668 6 125899472.75106  98103531.34004  23957876.688 4  23957867.181 4
  23957876.364 6  23957875.158 7  94015880.86707

  21035545.673 7 112605351.83407  87582177.81407
  21035555.772 7

  24019439.632 8 126223086.32108
                  24019445.263 8  94257569.35108  24019442.988 8 102453848.50608
  24019443.249 8  96716446.94008  24019444.263 8  95487008.21808
  28335213.732 6 148902305.27606
                  28335236.407 6 111193225.22806  28335230.537 6 120862389.47106
  28335231.837 6 114093918.76806  28335234.192 6 112643574.57406
  24898141.467 7 130840927.27907
                  24898145.469 7  97706090.58307  24898146.109 7 106202203.23707
  24898143.582 7 100254916.43507  24898144.431 8  98980509.08208
  27127616.565 6 142556508.85506
                  27127629.009 7 106454533.53407  27127625.020 6 115711450.05106
  27127626.202 7 109231602.38807  27127627.453 7 107843068.03607
  37103940.660 7 194982506.05707
                  37103940.930 6 145603839.27406

  36827759.021 7 193531172.56707
                  36827767.667 7 144520082.04107

  25166210.816 7 132249770.54907
                  25166220.216 7  98758242.30807  25166216.890 7 107345355.15807
  25166217.775 7 101334506.14907  25166218.742 8 100046375.30308
  36974273.590 7 194301115.50907
                  36974279.996 6 145095026.83106

  23916508.432 6 125682137.46006  97934161.86303  23916511.753 3  23916507.538 3


  25941707.020 6 136324597.23806
                  25941716.643 7 101800877.90607  25941714.671 6 110653120.75306
  25941714.230 7 104456543.95807  25941715.351 7 103128714.00607
  24913699.072 7 130922683.20107
                  24913703.760 7  97767143.80907  24913702.914 7 106268559.55607
  24913701.777 8 100317566.37908  24913702.713 8  99042352.66808
  23606137.248 7 126099759.02607  98077631.32406
  23606149.119 6

  22302712.059 8 119221087.90208  92727693.23907
  22302721.385 7

  20638836.550 8 108457933.80108  84512754.75707  20638838.779 7  20638836.197 7
  20638839.336 7

  26072550.097 7 137012231.50307
                  26072557.769 7 102314376.79407  26072555.118 6 111211263.11306
  26072555.358 7 104983439.16807  26072556.390 7 103648912.05507
  24077947.021 6 128665092.54806 100072822.52306
  24077964.810 6

 25  4 11  0  9 30.0000000  0 34G18R20G15E29G05G23R22R21G13G10G25R06
                                E33E03G24G26R07E13E27E26E15S33S31E07
                                S35G16E21E08R12R05E31G29E23R11
  21071101.670 8 110729696.54408  86283031.45106  21071103.811 6  21071101.416 6
  21071104.145 7  21071107.036 8  82687964.03308

  21528569.504 6 115122956.75806  89540131.43007
  21528580.840 7

  20436329.984 8 107394132.62908  83683992.35607  20436332.594 7  20436329.654 7
  20436332.809 7

  28575685.835 5 150166354.41705
                  28575716.328 5 112137390.75305  28575708.411 5 121888405.50405
  28575712.934 6 115062689.48106  28575714.676 6 113599935.19806
  23346750.592 7 122688140.71807  95601239.22705  23346754.689 5  23346750.271 5
  23346755.534 6

  20708896.236 7 108826426.49207  84800085.09306  20708899.016 6  20708895.995 6
  20708899.195 7  20708902.332 8  81266767.75508

  22541821.445 7 120329852.48207  93589956.40406
  22541828.428 6

  19865862.902 8 106306513.66908  82683007.64407
  19865869.591 7

  22398327.075 7 117704239.94207  91717717.33805  22398330.394 5  22398326.637 5


  23762189.649 7 124871387.40607  97302559.15404  23762199.639 4  23762189.314 4
  23762199.176 6  23762197.891 7  93248297.11607

  25269155.173 5 132790066.71405 103472744.74103  25269175.959 3  25269154.440 3
  25269176.981 6  25269178.405 6  99161369.59506

  19160240.561 6 102242793.05306


  28658618.669 6 150602084.85606
                  28658634.936 6 112462667.43006  28658630.321 5 122242013.49005
  28658630.972 6 115396462.55106  28658632.726 6 113929568.06006
  27782603.647 6 145998702.78206
                  27782613.952 6 109025123.23606  27782610.843 6 118505345.97806
  27782611.636 6 111869239.47006  27782612.672 7 110447184.42207
  25659857.441 5 134843472.29405 105072898.63502  25659874.777 2  25659857.285 2
  25659873.720 5  25659876.211 6 100694874.62506

  23960553.686 6 125913590.50106  98114532.17004  23960563.418 4  23960553.186 4
  23960562.915 6  23960561.592 7  94026423.34007

  21025147.825 8 112549693.33208  87538887.98107
  21025157.783 7

  24020481.206 8 126228560.90008
                  24020487.093 8  94261657.52508  24020484.806 8 102458292.16208
  24020485.020 8  96720641.75608  24020486.035 8  95491149.71308
  28342992.425 6 148943182.83206
                  28343015.186 6 111223750.39906  28343009.429 6 120895569.11506
  28343010.868 6 114125240.28706  28343013.161 6 112674497.91406
  24894731.546 7 130823007.65107
                  24894735.431 7  97692709.08707  24894736.131 7 106187658.11907
  24894733.559 7 100241185.85507  24894734.412 8  98966953.04408
  27132032.869 6 142579713.35606
                  27132044.672 7 106471861.51007  27132040.532 6 115730284.83706
  27132041.948 7 109249382.41007  27132043.145 7 107860622.03607
  37103948.020 7 194982532.19707
                  37103945.924 6 145603858.75806

  36827759.969 7 193531174.66007
                  36827768.047 7 144520083.70307

  25159072.567 7 132212260.04407
                  25159082.133 7  98730231.31307  25159078.626 7 107314908.39107
  25159079.730 7 101305764.41907  25159080.669 8 100017998.94108
  36974282.663 7 194301162.58607
                  36974289.006 6 145095062.09206

  23914693.120 6 125672598.48406  97926728.90704  23914696.775 4  23914692.240 4


  25948316.166 7 136359328.87507
                  25948325.955 7 101826813.81707  25948323.974 6 110681311.98106
  25948323.503 7 104483156.46807  25948324.597 7 103154988.21407
  24913086.848 7 130919465.60607
                  24913091.497 7  97764741.09007  24913090.764 7 106265947.88607
  24913089.403 8 100315100.96708  24913090.396 8  99039918.60308
  23609896.521 7 126119837.00807  98093247.48206
  23609906.683 6

  22313351.256 8 119277958.09508  92771925.57507
  22313359.111 7


                                                  28799479.197 6 122842763.50616
  28799480.831 6 115963574.86316
  20643744.503 8 108483725.42108  84532852.10907  20643746.801 7  20643744.155 7
  20643747.169 7

  26073422.976 7 137016818.24007
                  26073430.585 7 102317801.96907  26073428.110 6 111214986.11406
  26073428.081 7 104986953.68507  26073429.210 7 103652381.90107
  24086843.633 6 128712634.97206 100109799.73206
  24086862.961 6

 25  4 11  0  9 45.0000000  0 34G18R20G15E29G05G23R22R21G13G10G25R06
                                E33E03G24G26R07E13E27E26E15S33S31E07
                                S35G16E21E08R12R05E31G29E23R11
  21068324.891 8 110715103.57708  86271660.32106  21068326.862 6  21068324.637 6
  21068327.243 7  21068330.048 8  82677066.70308

  21533504.341 6 115149340.94306  89560652.44107
  21533514.684 7

  20435074.718 8 107387536.11408  83678852.23907  20435077.298 7  20435074.392 7
  20435077.702 7

  28567406.647 5 150122850.41305
                  28567436.825 5 112104905.10905  28567429.094 5 121853094.60005
  28567433.156 6 115029356.24006  28567435.069 6 113567025.75406
  23355650.912 7 122734913.59007  95637685.57905  23355655.257 5  23355650.586 5
  23355656.075 6

  20705833.428 7 108810331.88307  84787543.86806  20705836.303 6  20705833.183 6
  20705836.572 7  20705839.620 8  81254749.08508

  22533470.041 7 120285273.24407  93555283.72006
  22533476.996 6

  19863133.909 8 106291910.75608  82671649.84207
  19863140.627 7

  22401884.859 7 117722934.99307  91732284.92005  22401887.824 5  22401884.426 5


  23754870.183 6 124832923.21106  97272587.19104  23754880.022 4  23754869.835 4
  23754880.561 6  23754878.054 7  93219574.02407

  25277527.627 6 132834065.84406 103507029.49203  25277549.076 3  25277526.894 3
  25277548.458 6  25277550.835 6  99194225.75706

  19159084.959 6 102236624.57406


  28653652.559 6 150575984.41306
                  28653667.963 6 112443177.19106  28653663.952 5 122220828.34705
  28653664.187 6 115376463.84206  28653665.705 6 113909823.59206
  27788283.646 6 146028549.97806
                  27788293.568 6 109047411.70106  27788290.328 6 118529572.58806
  27788291.111 6 111892109.36906  27788292.428 7 110469763.60607
  25653064.823 5 134807775.52205 105045083.01802  25653081.694 2  25653064.636 2
  25653082.972 6  25653083.537 6 100668218.02706

  23963261.372 6 125927814.55206  98125615.82304  23963269.729 4  23963260.885 4
  23963269.093 6  23963268.478 7  94037045.16107

  21014770.860 8 112494146.73308  87495685.21607
  21014781.971 7

  24021526.431 8 126234053.78108
                  24021532.275 8  94265759.36108  24021530.083 8 102462750.67708
  24021530.245 8  96724850.60008  24021531.277 8  95495305.05308
  28350764.836 6 148984027.29006
                  28350787.892 6 111254250.86606  28350781.867 6 120928721.87806
  28350783.633 6 114156536.43306  28350785.758 6 112705396.22306
  24891322.964 7 130805095.64207
                  24891326.981 7  97679333.26807  24891327.559 7 106173119.17307
  24891325.014 7 100227461.09007  24891325.828 8  98953402.75208
  27136450.711 6 142602931.80406
                  27136462.808 7 106489199.91707  27136458.862 6 115749130.93906
  27136460.242 7 109267173.12807  27136461.506 7 107878186.59607
  37103953.721 7 194982563.97107
                  37103951.854 6 145603882.70506

  36827761.432 7 193531182.13707
                  36827769.523 7 144520089.26107

  25151945.259 7 132174804.35907
                  25151954.331 7  98702261.24007  25151951.102 7 107284506.10907
  25151952.175 7 101277064.68207  25151953.010 8  99989664.03508
  36974293.722 7 194301214.28107
                  36974298.848 6 145095100.61406

  23912904.544 6 125663199.95806  97919405.39804  23912908.595 4  23912903.664 4


  25954934.312 7 136394108.26207
                  25954944.249 7 101852785.39607  25954942.304 6 110709541.97006
  25954941.869 7 104509805.57307  25954942.934 8 103181298.55808
  24912495.462 7 130916359.06507
                  24912500.317 7  97762421.29807  24912499.371 7 106263426.36607
  24912498.224 8 100312720.65708  24912499.212 8  99037568.55108
  23613680.672 7 126140057.02807  98108974.12406
  23613692.403 6

  22324006.442 8 119334915.64108  92816225.84907
  22324015.164 7

  28794684.071 6 151317092.95716
                  28794695.548 6 112996569.25716  28794690.371 6 122822338.94606
  28794692.809 6 115944294.10206  28794694.144 7 114470438.25517
  20648677.332 8 108509647.71008  84553051.28306  20648679.698 6  20648676.975 6
  20648679.975 7

  26074315.684 7 137021510.00807
                  26074323.309 7 102321305.55407  26074321.059 6 111218794.36406
  26074321.055 7 104990548.67107  26074322.041 7 103655931.18607
  24095741.561 6 128760183.34506 100146781.55706
  24095760.892 6

 25  4 11  0 10  0.0000000  0 34G18R20G15E29G05G23R22R21G13G10G25R06
                                E33E03G24G26R07E13E27E26E15S33S31E07
                                S35G16E21E08R12R05E31G29E23R11
  21065554.728 8 110700547.74008  86260318.12206  21065557.005 6  21065554.474 6
  21065557.542 7  21065560.176 8  82666197.09408

  21538451.942 6 115175804.79306  89581235.41807
  21538463.832 7

  20433849.970 8 107381100.31208  83673837.35207  20433852.583 7  20433849.649 7
  20433852.797 7

  28559121.849 5 150079316.34205
                  28559151.522 5 112072396.96705  28559143.858 5 121817759.26605
  28559147.706 6 114995999.93706  28559149.782 6 113534093.52406
  23364553.334 7 122781695.03107  95674138.60205  23364557.824 5  23364553.013 5
  23364557.836 6

  20702788.222 7 108794329.56407  84775074.56206  20702791.075 6  20702787.959 6
  20702791.187 7  20702794.427 8  81242799.34108

  22525116.796 7 120240682.57307  93520602.12106
  22525124.017 6

  19860419.022 8 106277382.94108  82660350.44107
  19860425.826 7

  22405469.992 7 117741777.49807  91746967.39705  22405473.283 5  22405469.563 5


  23747560.875 6 124794516.74106  97242660.22804  23747571.441 4  23747560.531 4
  23747571.436 6  23747569.386 7  93190894.05507

  25285890.615 6 132878010.41406 103541271.72603  25285911.350 3  25285889.873 3
  25285912.188 6  25285913.633 6  99227041.15406

  19157967.130 6 102230657.06506


  28648683.640 6 150549874.82106
                  28648699.137 6 112423680.10106  28648694.841 5 122199635.72805
  28648695.221 6 115356458.08706  28648696.879 6 113890072.16706
  27793977.239 6 146058470.52206
                  27793987.423 6 109069754.93606  27793984.344 6 118553858.72106
  27793985.055 6 111915035.48006  27793986.128 7 110492398.28107
  25646264.016 5 134772038.04305 105017235.71202  25646280.924 2  25646263.856 2
  25646281.821 6  25646282.993 6 100641531.03906

  23965987.295 6 125942140.33406  98136778.74504  23965995.447 4  23965986.804 4
  23965995.435 6  23965994.649 7  94047742.96707

  21004415.473 8 112438708.27408  87452566.50407
  21004424.798 7

  24022574.206 7 126239560.71107
                  24022580.243 8  94269871.68708  24022578.027 8 102467220.59308
  24022578.198 8  96729070.19808  24022579.202 8  95499471.01508
  28358530.488 6 149024834.22306
                  28358553.305 6 111284723.31106  28358547.319 6 120961844.19206
  28358549.421 6 114187803.83306  28358551.182 6 112736266.14906
  24887914.769 7 130787186.94807
                  24887919.051 7  97665959.92507  24887919.656 7 106158582.91307
  24887916.988 7 100213738.87307  24887917.875 8  98939854.97208
  27140871.338 6 142626160.02606
                  27140883.146 7 106506545.61007  27140878.755 6 115767984.98206
  27140880.488 7 109284971.32807  27140881.772 7 107895758.54207
  37103958.971 7 194982595.66907
                  37103958.020 6 145603906.18806

  36827762.228 7 193531189.48407
                  36827771.074 7 144520094.60407

  25144827.060 7 132137399.43207
                  25144836.371 7  98674329.07907  25144833.003 7 107254145.02907
  25144834.120 7 101248403.84907  25144835.018 8  99961367.53908
  36974303.725 7 194301267.09307
                  36974308.855 6 145095140.11606

  23911141.799 6 125653937.45906  97912187.87804  23911145.873 4  23911140.936 4


  25961560.734 7 136428930.87107
                  25961570.682 7 101878789.23407  25961569.122 6 110737807.04206
  25961568.457 7 104536487.77407  25961569.516 7 103207641.57807
  24911924.677 7 130913359.35707
                  24911929.413 7  97760181.29007  24911928.613 7 106260991.55807
  24911927.413 8 100310422.21108  24911928.365 8  99035299.32408
  23617492.154 7 126160414.47807  98124807.64806
  23617503.017 6

  22334677.154 8 119391955.55408  92860590.17607
  22334685.782 7

  28789910.727 6 151292009.07306
                  28789922.004 6 112977837.81406  28789917.202 6 122801978.66006
  28789919.301 6 115925074.00606  28789920.731 7 114451462.48307
  20653634.155 8 108535695.96708  84573348.61007  20653636.514 7  20653633.798 7
  20653636.855 7

  26075227.735 7 137026302.42107
                  26075235.304 7 102324884.31407  26075233.007 6 111222684.32206
  26075232.934 7 104994220.78007  26075234.011 7 103659556.62007
  24104639.484 6 128807732.84406 100183764.26106
  24104658.987 6

 25  4 11  0 10 15.0000000  0 34G18R20G15E29G05G23R22R21G13G10G25R06
                                E33E03G24G26R07E13E27E26E15S33S31E07
                                S35G16E21E08R12R05E31G29E23R11
  21062790.911 8 110686023.78408  86249000.76406  21062793.198 6  21062790.652 6
  21062793.364 7  21062796.309 8  82655351.29908

  21543414.398 6 115202343.00006  89601876.21207
  21543426.964 7

  20432654.872 8 107374819.98508  83668943.61707  20432657.462 7  20432654.546 7
  20432657.716 7

  28550830.028 5 150035746.98805
                  28550859.625 5 112039862.48305  28550852.063 5 121782395.31005
  28550856.226 6 114962616.61006  28550857.919 6 113501134.61806
  23373456.087 7 122828479.36607  95710593.88105  23373460.592 5  23373455.761 5
  23373460.118 6

  20699759.701 7 108778414.13307  84762672.95806  20699762.427 6  20699759.429 6
  20699762.678 7  20699765.749 8  81230914.47808

  22516760.205 7 120196075.14207  93485907.52506
  22516767.577 6

  19857717.582 8 106262925.08208  82649105.45407
  19857724.116 7

  22409082.699 7 117760762.11107  91761760.61305  22409085.992 5  22409082.261 5


  23740262.876 6 124756162.77906  97212774.16904  23740272.787 4  23740262.528 4
  23740272.999 6  23740270.526 7  93162253.26307

  25294241.400 5 132921894.74005 103575467.00803  25294262.298 3  25294240.645 3
  25294263.016 6  25294264.780 6  99259811.56406

  19156884.157 6 102224884.94006


  28643712.071 6 150523750.65506
                  28643726.771 6 112404172.12806  28643723.281 5 122178431.27405
  28643723.782 6 115336441.15406  28643725.360 6 113870309.71506
  27799683.888 6 146088458.89606
                  27799694.240 6 109092148.82106  27799691.029 6 118578199.91106
  27799691.877 6 111938013.52806  27799692.777 7 110515084.24807
  25639454.917 5 134736254.85505 104989352.76302  25639471.385 2  25639454.698 2
  25639471.616 6  25639473.665 6 100614809.88406

  23968732.283 6 125956562.28406  98148016.60404  23968740.062 4  23968731.810 4
  23968739.698 6  23968739.066 7  94058512.57807

  20994077.635 7 112383373.09807  87409528.16707
  20994087.961 7

  24023624.029 7 126245076.42207
                  24023629.872 8  94273990.57408  24023627.517 8 102471697.63908
  24023627.819 8  96733296.53408  24023628.790 8  95503643.62608
  28366287.964 6 149065598.06106
                  28366310.778 6 111315163.57906  28366305.274 6 120994931.56906
  28366306.551 6 114219038.21906  28366308.481 6 112767103.47306
  24884506.651 7 130769276.21807
                  24884510.745 7  97652585.06707  24884511.389 7 106144045.01107
  24884508.626 7 100200015.09607  24884509.550 8  98926305.65408
  27145292.595 6 142649392.71306
                  27145304.265 7 106523894.64707  27145300.158 6 115786842.64606
  27145301.543 7 109302772.95207  27145302.879 7 107913333.87207
  37103965.692 7 194982623.44507
                  37103963.194 6 145603926.94406

  36827763.171 7 193531193.19807
                  36827771.548 7 144520097.56607

  25137718.063 7 132100040.18307
                  25137727.069 7  98646431.02607  25137723.801 7 107223821.02807
  25137724.800 7 101219778.01207  25137725.706 8  99933105.59308
  36974312.959 7 194301315.47507
                  36974317.919 6 145095176.35206

  23909403.447 6 125644805.68806  97905072.22804  23909408.276 4  23909402.584 4


  25968195.315 7 136463791.08507
                  25968204.460 7 101904821.15607  25968202.290 6 110766102.62206
  25968202.128 7 104563198.80007  25968203.227 7 103234013.05207
  24911373.266 7 130910461.19907
                  24911377.903 7  97758017.11407  24911376.907 7 106258639.18707
  24911375.884 8 100308201.57108  24911376.839 8  99033106.91608
  23621327.791 7 126180903.30607  98140743.34706
  23621339.081 6

  22345361.286 7 119449071.78507  92905013.86707
  22345369.462 7

  28785151.884 6 151266999.12306
                  28785162.992 6 112959161.59906  28785157.861 6 122781678.39706
  28785160.377 6 115905910.57106  28785161.633 7 114432542.65807
  20658614.139 8 108561864.76708  84593739.86906  20658616.274 6  20658613.786 6
  20658616.584 7

  26076157.951 7 137031190.08607
                  26076165.560 7 102328534.18607  26076163.021 6 111226651.56906
  26076162.977 7 104997965.86707  26076164.077 7 103663254.09907
  24113537.649 6 128855277.27406 100220743.02706
  24113557.171 6

 25  4 11  0 10 30.0000000  0 34G18R20G15E29G05G23R22R21G13G10G25R06
                                E33E03G24G26R07E13E27E26E15S33S31E07
                                S35G16E21E08R12R05E31G29E23R11
  21060034.642 8 110671539.51208  86237714.32906  21060036.925 6  21060034.392 6
  21060037.200 7  21060040.034 8  82644535.13408

  21548393.042 6 115228963.13106  89622580.72807
  21548404.499 7

  20431490.803 8 107368702.84808  83664177.04207  20431493.342 7  20431490.482 7
  20431493.593 7

  28542533.027 5 149992150.27705
                  28542562.767 5 112007307.54805  28542554.944 5 121747009.10005
  28542559.330 6 114929212.28806  28542561.002 6 113468154.98606
  23382361.036 7 122875274.27807  95747057.40405  23382365.220 5  23382360.715 5
  23382365.869 6

  20696749.008 7 108762593.22907  84750345.01306  20696751.750 6  20696748.736 6
  20696751.824 7  20696755.123 8  81219100.20608

  22508401.894 7 120151459.01007  93451206.14006
  22508409.169 6

  19855030.409 8 106248545.41808  82637921.29107
  19855036.853 7

  22412723.814 7 117779896.28407  91776670.35205  22412727.221 5  22412723.390 5


  23732975.461 6 124717869.08006  97182935.07204  23732985.527 4  23732975.099 4
  23732985.658 6  23732983.517 7  93133657.50407

  25302582.707 6 132965726.25306 103609621.12703  25302603.564 3  25302581.934 3
  25302603.919 6  25302605.930 6  99292542.53006

  19155840.887 6 102219315.96606


  28638739.164 5 150497619.50505
                  28638754.692 6 112384658.96706  28638750.857 5 122157221.18905
  28638750.608 6 115316418.93706  28638752.442 6 113850542.02106
  27805404.931 6 146118522.61206
                  27805415.201 6 109114598.97306  27805411.870 6 118602602.25506
  27805412.383 6 111961049.35206  27805413.779 7 110537827.23207
  25632638.571 5 134700433.81405 104961440.34402  25632654.794 2  25632638.361 2
  25632655.349 6  25632657.238 6 100588060.54506

  23971495.984 6 125971087.87006  98159335.21004  23971504.356 4  23971495.519 4
  23971504.589 6  23971503.244 7  94069359.57107

  20983761.303 8 112328149.21008  87366576.35007
  20983771.407 7

  24024676.742 8 126250608.65908
                  24024682.577 8  94278121.79808  24024680.258 8 102476188.09408
  24024680.613 8  96737535.52708  24024681.535 8  95507828.73608
  28374037.924 6 149106326.35106
                  28374061.622 6 111345577.28006  28374056.049 6 121027990.01706
  28374056.931 6 114250245.36206  28374059.216 6 112797913.89406
  24881099.267 7 130751371.17907
                  24881103.533 7  97639214.45607  24881104.105 7 106129511.72107
  24881101.312 7 100186295.68907  24881102.313 8  98912760.64508
  27149715.555 6 142672637.63206
                  27149727.816 7 106541252.82407  27149723.356 6 115805710.26306
  27149725.077 7 109320583.96107  27149726.297 7 107930918.47007
  37103971.639 7 194982653.91007
                  37103968.931 6 145603949.79306

  36827763.471 7 193531199.40607
                  36827772.899 7 144520102.27207

  25130618.950 7 132062734.54607
                  25130627.974 7  98618573.01007  25130624.509 7 107193540.54107
  25130625.684 7 101191193.25507  25130626.608 8  99904884.20808
  36974322.890 7 194301366.94007
                  36974327.717 6 145095214.74506

  23907692.483 6 125635812.36506  97898064.45404  23907696.843 4  23907691.616 4


  25974837.272 6 136498696.35506
                  25974846.783 7 101930886.72107  25974845.053 6 110794434.78206
  25974844.277 7 104589944.34307  25974845.531 7 103260418.60507
  24910842.484 7 130907672.31207
                  24910847.182 7  97755934.52807  24910846.279 7 106256375.49107
  24910845.120 8 100306064.65808  24910846.102 8  99030997.16708
  23625189.954 7 126201531.02407  98156787.10206
  23625200.241 6

  22356062.569 8 119506271.97108  92949502.84107
  22356070.084 7

  28780407.671 6 151242071.00206
                  28780419.200 6 112940546.47506  28780414.109 6 122761444.57206
  28780416.239 6 115886809.84606  28780417.827 7 114413684.73907
  20663618.105 8 108588161.64508  84614230.92806  20663620.445 6  20663617.757 6
  20663621.097 7

  26077107.459 7 137036180.62307
                  26077115.259 7 102332260.89407  26077112.518 6 111230702.33406
  26077112.599 7 105001789.79407  26077113.743 7 103667029.41707
  24122434.876 6 128902824.24206 100257723.77806
  24122455.324 6

 25  4 11  0 10 45.0000000  0 34G18R20G15E29G05G23R22R21G13G10G25R06
                                E33E03G24G26R07E13E27E26E15S33S31E07
                                S35G16E21E08R12R05E31G29E23R11
  21057285.717 8 110657093.03708  86226457.35106  21057287.848 6  21057285.472 6
  21057288.093 7  21057290.926 8  82633747.19508

  21553385.851 6 115255663.29806  89643347.50607
  21553398.042 7

  20430357.633 8 107362747.13208  83659536.25007  20430359.942 7  20430357.320 7
  20430360.100 7

  28534230.585 5 149948524.46705
                  28534260.152 5 111974730.80105  28534252.906 5 121711599.24205
  28534256.299 6 114895785.61706  28534258.451 6 113435153.28206
  23391267.746 7 122922077.84507  95783527.66605  23391271.757 5  23391267.433 5
  23391272.144 6

  20693756.278 7 108746864.81707  84738089.14306  20693758.661 6  20693756.024 6
  20693758.782 7  20693762.070 8  81207355.00708

  22500041.988 7 120106832.29807  93416496.51006
  22500049.634 6

  19852357.212 8 106234242.09708  82626796.50207
  19852363.694 7

  22416392.868 7 117799177.94307  91791695.03005  22416396.362 5  22416392.435 5


  23725699.699 7 124679633.74107  97153141.43904  23725709.415 4  23725699.319 4
  23725708.966 6  23725707.507 7  93105105.29607

  25310912.957 6 133009502.76906 103643732.41403  25310934.242 3  25310912.188 3
  25310934.615 6  25310936.391 6  99325232.43006

  19154835.986 6 102213948.16706


  28633764.965 6 150471479.43106
                  28633779.701 6 112365139.10906  28633775.422 5 122136003.82405
  28633776.369 6 115296389.80206  28633777.833 6 113830767.52506
  27811139.596 6 146148659.53706
                  27811149.960 6 109137103.77206  27811146.742 6 118627064.00606
  27811147.344 6 111984141.25106  27811148.729 6 110560625.58206
  25625814.072 5 134664573.45805 104933497.29302  25625830.812 2  25625813.831 2
  25625830.883 6  25625833.195 6 100561281.76606

  23974279.583 6 125985714.86306  98170732.85004  23974287.673 4  23974279.114 4
  23974287.707 6  23974286.612 7  94080282.29207

  20973466.345 8 112273035.20408  87323710.01107
  20973475.306 7

  24025732.256 8 126256155.48208
                  24025738.078 8  94282263.91208  24025735.667 8 102480690.39608
  24025736.087 8  96741785.70108  24025737.048 8  95512024.87908
  28381781.468 6 149147016.89406
                  28381804.647 6 111375962.80906  28381799.394 6 121061017.89306
  28381800.546 6 114281423.59606  28381802.600 6 112828695.77206
  24877692.961 7 130733469.84807
                  24877696.967 7  97625846.61007  24877697.604 7 106114981.44107
  24877694.787 7 100172579.11107  24877695.746 8  98899218.43308
  27154141.320 6 142695892.90106
                  27154153.174 7 106558618.72507  27154149.197 6 115824586.25106
  27154150.452 7 109338402.89107  27154151.647 7 107948510.88307
  37103973.776 7 194982685.94307
                  37103974.954 6 145603973.75906

  36827761.548 7 193531206.99707
                  36827774.254 7 144520107.98807

  25123529.510 7 132025480.79207
                  25123538.787 7  98590753.74307  25123535.431 7 107163302.16407
  25123536.530 7 101162648.25307  25123537.396 8  99876702.07208
  36974330.720 7 194301419.76407
                  36974337.814 6 145095254.26106

  23906007.668 6 125626955.42406  97891162.94304  23906011.618 4  23906006.814 4


  25981487.455 7 136533644.45207
                  25981497.313 7 101956984.27207  25981495.198 6 110822801.70506
  25981494.817 7 104616722.70607  25981496.001 7 103286856.56307
  24910332.104 7 130904990.75307
                  24910336.840 7  97753932.09107  24910336.007 7 106254198.91707
  24910334.912 8 100304009.97908  24910335.792 8  99028968.60808
  23629077.218 7 126222295.35507  98172937.09506
  23629087.722 6

  22366776.632 8 119563553.36608  92994055.01407
  22366786.204 7

  28775679.085 6 151217222.86006
                  28775690.714 6 112921991.08106  28775685.756 6 122741275.66206
  28775687.996 6 115867770.39506  28775689.457 7 114394887.31307
  20668646.437 8 108614584.56908  84634820.20106  20668648.596 6  20668646.098 6
  20668648.766 7

  26078076.189 7 137041271.97707
                  26078083.937 7 102336062.87007  26078081.623 6 111234834.92306
  26078081.621 7 105005690.95707  26078082.578 7 103670880.98707
  24131334.033 6 128950371.22506 100294704.52106
  24131353.011 6

 25  4 11  0 11  0.0000000  0 34G18R20G15E29G05G23R22R21G13G10G25R06
                                E33E03G24G26R07E13E27E26E15S33S31E07
                                S35G16E21E08R12R05E31G29E23R11
  21054542.304 8 110642676.57208  86215223.75206  21054544.436 6  21054542.059 6
  21054545.056 7  21054547.592 8  82622981.67208

  21558391.950 6 115282436.20806  89664170.84207
  21558404.214 7

  20429253.292 8 107356944.95708  83655015.09807  20429255.822 7  20429252.984 7
  20429256.025 7

  28525921.543 5 149904861.75405
                  28525950.610 5 111942126.55205  28525942.904 5 121676159.44405
  28525946.949 6 114862330.69806  28525948.821 6 113402123.70006
  23400173.956 7 122968881.84407  95819998.27405  23400178.237 5  23400173.639 5
  23400178.561 6

  20690779.223 7 108731220.95707  84725899.15806  20690781.701 6  20690778.978 6
  20690782.090 7  20690785.090 8  81195672.94308

  22491678.383 7 120062187.16407  93381772.58306
  22491685.253 6

  19849697.024 8 106220007.43508  82615725.10808
  19849704.091 8

  22420088.417 7 117818599.10007  91806828.40505  22420091.809 5  22420087.975 5


  23718433.149 6 124641448.96106  97123387.19904  23718442.885 4  23718432.783 4
  23718443.088 6  23718441.094 7  93076590.86607

  25319231.940 5 133053216.13205 103677794.44603  25319253.123 3  25319231.194 3
  25319253.055 6  25319255.111 6  99357875.14706

  19153865.366 6 102208773.67506


  28628787.195 6 150445322.41606
                  28628802.343 6 112345606.60606  28628797.868 5 122114772.73105
  28628798.560 6 115276347.73406  28628800.130 6 113810980.24106
  27816886.898 6 146178861.56206
                  27816896.994 6 109159657.22306  27816894.147 6 118651578.63006
  27816894.689 6 112007283.05806  27816896.034 6 110583473.21106
  25618981.219 5 134628665.98505 104905517.52302  25618997.931 2  25618980.969 2
  25618998.332 6  25618999.639 6 100534467.87806

  23977080.184 6 126000435.12106  98182203.14904  23977088.778 4  23977079.724 4
  23977088.990 6  23977087.772 7  94091274.66507

  20963188.978 8 112218023.26608  87280923.08507
  20963199.206 7

  24026789.100 8 126261709.09108
                  24026794.937 8  94286411.09408  24026792.544 8 102485198.19808
  24026792.850 8  96746041.06608  24026793.858 8  95516226.15308
  28389516.557 6 149187661.63206
                  28389539.397 6 111406314.11206  28389533.886 6 121094008.52706
  28389534.903 6 114312566.70806  28389537.259 6 112859442.98206
  24874285.511 7 130715564.34407
                  24874289.566 7  97612475.65107  24874290.243 7 106100447.77507
  24874287.357 7 100158859.34207  24874288.409 8  98885673.06908
  27158567.156 6 142719150.67206
                  27158578.889 7 106575986.50307  27158574.340 6 115843464.28106
  27158576.255 7 109356223.74707  27158577.498 7 107966105.20007
  37103979.737 7 194982711.12507
                  37103979.819 6 145603992.52906

  36827761.217 7 193531208.26107
                  36827774.392 7 144520109.04607

  25116448.455 7 131988271.26907
                  25116457.855 7  98562967.49407  25116454.530 7 107133099.69807
  25116455.666 7 101134137.13707  25116456.595 8  99848553.39008
  36974341.148 7 194301465.99007
                  36974346.435 6 145095288.87406

  23904345.904 6 125618227.05806  97884361.64404  23904350.598 4  23904345.050 4


  25988144.845 7 136568627.25907
                  25988154.334 7 101983107.73707  25988152.173 6 110851196.78706
  25988151.974 7 104643527.66307  25988153.076 7 103313320.77307
  24909840.799 7 130902408.68307
                  24909845.453 7  97752003.95207  24909844.505 7 106252103.10307
  24909843.557 8 100302031.53708  24909844.428 8  99027015.31808
  23632988.261 7 126243187.80507  98189186.70606
  23632998.297 6

  22377507.819 8 119620907.61108  93038663.82707
  22377515.769 7

  28770964.622 6 151192446.96806
                  28770976.028 6 112903489.64306  28770970.698 6 122721165.37206
  28770973.342 6 115848786.29406  28770974.534 7 114376144.54407
  20673696.744 8 108641125.57108  84655501.48306  20673699.209 6  20673696.400 6
  20673699.580 7

  26079062.702 7 137046456.17007
                  26079070.320 7 102339934.18907  26079068.161 6 111239042.88406
  26079067.987 7 105009663.26807  26079069.080 7 103674802.80107
  24140230.481 6 128997909.70006 100331678.62306
  24140249.080 6

 25  4 11  0 11 15.0000000  0 34G18R20G15E29G05G23R22R21G13G10G25R06
                                E33E03G24G26R07E13E27E26E15S33S31E07
                                S35G16E21E08R12R05E31G29E23R11
  21051806.766 8 110628301.34008  86204022.28406  21051808.907 6  21051806.530 6
  21051809.354 7  21051812.044 8  82612246.93308

  21563415.383 6 115309292.58506  89685059.13007
  21563426.970 7

  20428180.615 8 107351307.48208  83650622.28607  20428183.035 7  20428180.311 7
  20428183.324 7

  28517607.086 5 149861173.55505
                  28517635.716 5 111909503.20905  28517628.291 6 121640698.93306
  28517632.511 6 114828856.21606  28517634.425 6 113369074.78606
  23409082.562 7 123015696.75207  95856477.37605  23409086.983 5  23409082.245 5
  23409087.552 6

  20687820.295 7 108715672.70707  84713783.66606  20687822.926 6  20687820.054 6
  20687822.965 7  20687826.389 8  81184062.26908

  22483313.485 7 120017535.04507  93347043.22106
  22483321.157 6

  19847051.971 8 106205852.98908  82604716.11207
  19847058.499 7

  22423812.969 7 117838170.69607  91822079.00405  22423816.121 5  22423812.536 5


  23711178.897 7 124603325.91007  97093681.07804  23711188.250 4  23711178.553 4
  23711188.113 6  23711186.266 7  93048122.50907

  25327541.162 5 133096877.21305 103711815.74003  25327561.934 3  25327540.416 3
  25327562.432 6  25327564.410 6  99390478.83206

  19152933.444 6 102203803.61306


  28623807.315 6 150419159.56206
                  28623822.967 6 112326069.73706  28623818.348 5 122093536.86705
  28623819.459 6 115256301.16906  28623821.162 6 113791188.52406
  27822648.799 6 146209139.64006
                  27822658.537 6 109182267.43406  27822655.485 6 118676154.96906
  27822656.708 6 112030483.12106  27822657.765 6 110606378.35006
  25612142.139 5 134592723.03905 104877510.12902  25612158.133 2  25612141.911 2
  25612158.166 6  25612159.829 6 100507627.43806

  23979901.568 6 126015259.50906  98193754.59904  23979909.880 4  23979901.112 4
  23979910.166 6  23979908.788 7  94102344.79607

  20952933.540 8 112163125.47408  87238224.92207
  20952943.377 7

  24027849.298 8 126267280.62608
                  24027855.168 8  94290571.66808  24027852.851 8 102489720.55408
  24027853.082 8  96750310.17208  24027854.062 8  95520440.99308
  28397244.030 6 149228271.47306
                  28397267.348 6 111436639.35406  28397261.266 6 121126970.84906
  28397263.368 6 114343683.07106  28397265.372 6 112890163.78906
  24870879.584 7 130697665.75607
                  24870883.500 7  97599109.86307  24870884.041 7 106085919.73207
  24870881.376 7 100145144.87307  24870882.392 8  98872132.94208
  27162995.450 6 142742422.17306
                  27163007.351 7 106593364.52007  27163003.178 6 115862353.45106
  27163004.781 7 109374055.10307  27163005.961 7 107983709.88607
  37103985.081 7 194982740.83907
                  37103985.306 6 145604014.84606

  36827766.011 7 193531213.55007
                  36827775.506 7 144520112.83307

  25109378.749 7 131951117.33807
                  25109387.726 7  98535222.76607  25109384.350 7 107102942.34207
  25109385.454 7 101105668.61907  25109386.369 8  99820446.76708
  36974349.854 7 194301516.29807
                  36974356.219 6 145095326.26006

  23902712.123 6 125609638.62106  97877669.35804  23902716.238 4  23902711.274 4


  25994810.585 7 136603655.60307
                  25994820.243 7 102009265.21807  25994818.109 6 110879628.85206
  25994817.614 7 104670367.51407  25994818.794 7 103339819.43907
  24909370.549 7 130899937.26307
                  24909375.134 7  97750158.43807  24909374.164 7 106250097.09107
  24909373.160 8 100300137.87708  24909374.098 8  99025145.73108
  23636924.517 7 126264219.32407  98205544.52806
  23636935.599 6

  22388252.762 8 119678345.21608  93083337.45907
  22388260.399 7

  28766265.896 6 151167754.55506
                  28766277.208 6 112885050.53706  28766272.148 6 122701122.84106
  28766274.592 6 115829866.16806  28766275.923 7 114357464.92807
  20678771.969 8 108667795.60808  84676283.31406  20678774.416 6  20678771.625 6
  20678774.704 7

  26080068.870 7 137051744.25907
                  26080076.716 7 102343883.08107  26080074.317 6 111243335.13606
  26080074.308 7 105013715.17007  26080075.370 7 103678803.19907
  24149126.633 6 129045450.30006 100368654.40906
  24149146.407 6

 25  4 11  0 11 30.0000000  0 34G18R20G15E29G05G23R22R21G13G10G25R06
                                E33E03G24G26R07E13E27E26E15S33S31E07
                                S35G16E21E08R12R05E31G29E23R11
  21049078.181 8 110613962.64108  86192849.28606  21049080.346 6  21049077.945 6
  21049080.564 8  21049083.414 8  82601539.48008

  21568452.003 6 115336228.23306  89706009.06607
  21568464.096 7

  20427138.234 8 107345829.92408  83646354.08507  20427140.705 7  20427137.926 7
  20427140.866 7

  28509287.345 5 149817455.22505
                  28509315.712 5 111876857.36305  28509308.373 6 121605213.95506
  28509312.494 6 114795358.62906  28509314.251 6 113336003.07106
  23417992.363 7 123062517.85207  95892961.31305  23417996.472 5  23417992.050 5
  23417996.958 6

  20684878.781 7 108700215.19007  84701738.87806  20684881.435 6  20684878.545 6
  20684881.574 7  20684884.872 8  81172519.35708

  22474946.585 7 119972871.33007  93312304.82006
  22474953.586 6

  19844421.149 8 106191774.10608  82593765.87707
  19844427.429 7

  22427565.278 7 117857887.78907  91837442.97505  22427568.340 5  22427564.827 5


  23703934.931 6 124565259.85906  97064019.34804  23703944.284 4  23703934.596 4
  23703944.313 6  23703942.292 7  93019696.72607

  25335838.473 5 133140480.93205 103745792.33003  25335859.692 3  25335837.713 3
  25335860.198 6  25335862.103 6  99423039.64406

  19152039.639 6 102199033.06706


  28618827.079 6 150392986.01806
                  28618841.818 6 112306524.90206  28618838.465 5 122072292.34605
  28618838.757 6 115236246.41706  28618840.150 6 113771388.73106
  27828423.697 6 146239488.77306
                  27828433.627 6 109204930.74106  27828430.775 6 118700788.99506
  27828432.102 6 112053737.62106  27828432.892 6 110629337.25206
  25605293.661 5 134556740.01505 104849471.47602  25605310.692 2  25605293.447 2
  25605311.159 6  25605312.333 6 100480757.10206

  23982741.528 6 126030183.00506  98205383.26904  23982749.606 4  23982741.086 4
  23982750.034 6  23982748.790 7  94113488.93507

  20942697.984 8 112108337.18908  87195611.92707
  20942708.456 7

  24028911.979 8 126272865.35608
                  24028917.853 8  94294742.09308  24028915.429 8 102494253.62508
  24028915.774 8  96754589.39008  24028916.792 8  95524665.81508
  28404964.493 6 149268841.39106
                  28404988.063 6 111466934.79206  28404982.443 6 121159900.80706
  28404983.623 6 114374768.85606  28404985.718 6 112920854.40306
  24867473.992 7 130679769.31007
                  24867477.905 7  97585745.66707  24867478.532 7 106071393.42507
  24867475.733 7 100131432.04107  24867476.773 8  98858594.42708
  27167425.344 6 142765702.62506
                  27167437.690 7 106610749.21307  27167433.286 6 115881249.88006
  27167434.756 7 109391893.32207  27167436.109 7 108001321.34007
  37103990.621 7 194982769.91807
                  37103991.048 6 145604036.63506

  36827768.774 7 193531218.63707
                  36827776.476 7 144520116.45207

  25102318.298 7 131914014.45407
                  25102327.283 7  98507516.15107  25102323.852 7 107072826.42807
  25102324.992 7 101077239.22107  25102325.856 8  99792378.76008
  36974359.830 7 194301566.75307
                  36974365.708 6 145095363.94406

  23901103.064 6 125601184.95506  97871082.09404  23901107.742 4  23901102.210 4


  26001483.823 7 136638724.47307
                  26001493.509 7 102035452.94307  26001491.621 6 110908093.80006
  26001491.167 7 104697238.40807  26001492.234 8 103366348.74908
  24908920.292 7 130897571.70207
                  24908924.952 7  97748391.97507  24908924.159 7 106248177.02307
  24908922.962 8 100298325.33208  24908923.922 8  99023356.22708
  23640887.163 7 126285384.78507  98222006.48206
  23640898.234 6

  22399011.040 7 119735861.05707  93128071.96907
  22399019.992 7

  28761581.850 6 151143141.01206
                  28761593.409 6 112866670.31206  28761588.091 6 122681144.33406
  28761590.301 6 115811006.45606  28761591.912 7 114338844.96007
  20683870.744 7 108694589.89207  84697161.96006  20683873.242 6  20683870.396 6
  20683873.332 7

  26081094.202 7 137057131.33507
                  26081101.941 7 102347905.90007  26081099.628 6 111247707.77506
  26081099.358 7 105017842.93107  26081100.485 7 103682878.48807
  24158022.246 6 129092987.62906 100405627.62506
  24158042.391 6

 25  4 11  0 11 45.0000000  0 34G18R20G15E29G05G23R22R21G13G10G25R06
                                E33E03G24G26R07E13E27E26E15S33S31E07
                                S35G16E21E08R12R05E31G29E23R11
  21046357.011 8 110599662.50208  86181706.33406  21046359.095 6  21046356.770 6
  21046359.361 8  21046362.130 8  82590860.82108

  21573504.660 6 115363244.62806  89727021.80007
  21573515.917 7

  20426126.587 8 107340514.35808  83642212.11007  20426129.134 7  20426126.274 7
  20426129.523 7

  28500961.972 5 149773708.87305
                  28500990.134 6 111844190.57806  28500983.074 6 121569706.23506
  28500986.837 6 114761839.56606  28500988.707 6 113302910.14606
  23426904.006 7 123109346.93107  95929451.45905  23426907.852 5  23426903.711 5
  23426908.393 6

  20681955.239 7 108684850.30907  84689766.27206  20681957.575 6  20681955.011 6
  20681957.594 7  20681961.011 8  81161045.61308

  22466577.641 7 119928198.06907  93277558.99606
  22466584.704 6

  19841804.644 8 106177773.33108  82582876.40907
  19841811.076 7

  22431345.268 7 117877752.19407  91852921.74005  22431348.327 5  22431344.817 5


  23696702.052 7 124527252.82807  97034403.61404  23696711.680 4  23696701.722 4
  23696711.496 6  23696709.863 7  92991315.01507

  25344125.793 5 133184028.96905 103779725.55903  25344147.173 3  25344125.056 3
  25344147.004 6  25344149.410 6  99455558.92106

  19151182.697 6 102194463.87506


  28613844.335 6 150366803.67406
                  28613859.334 6 112286973.47106  28613856.024 6 122051040.66906
  28613855.569 6 115216184.91006  28613857.497 6 113751582.25906
  27834212.986 6 146269910.74106
                  27834223.125 6 109227648.42106  27834220.072 6 118725482.13206
  27834220.801 6 112077047.94206  27834221.899 6 110652351.25306
  25598438.847 5 134520719.22205 104821403.40902  25598455.865 2  25598438.624 2
  25598456.226 6  25598457.746 6 100453858.56406

  23985600.164 6 126045207.27006  98217090.46404  23985608.628 4  23985599.740 4
  23985608.969 6  23985607.805 7  94124708.32107

  20932484.073 8 112053660.82208  87153085.97507
  20932494.337 7

  24029977.724 8 126278465.27708
                  24029983.441 8  94298923.86008  24029981.088 8 102498799.01508
  24029981.424 8  96758880.24708  24029982.416 8  95528902.12708
  28412677.936 6 149309373.20706
                  28412701.107 6 111497201.76106  28412695.341 6 121192799.80606
  28412696.855 6 114405825.43706  28412698.878 6 112951516.17806
  24864068.924 7 130661876.94807
                  24864073.115 7  97572384.51807  24864073.804 7 106056870.42607
  24864071.017 7 100117722.34207  24864071.941 8  98845059.00408
  27171857.993 6 142788994.04806
                  27171869.742 7 106628142.11507  27171865.961 6 115900155.20706
  27171867.103 7 109409739.95907  27171868.377 7 108018941.10707
  37103996.622 7 194982800.46307
                  37103996.820 6 145604059.36506

  36827767.527 7 193531225.36007
                  36827777.652 7 144520121.57107

  25095268.183 7 131876964.79107
                  25095276.732 7  98479849.28207  25095273.326 7 107042753.71807
  25095274.520 7 101048850.59807  25095275.458 8  99764351.01508
  36974366.994 7 194301618.67807
                  36974375.617 6 145095402.87506

  23899520.506 6 125592868.25606  97864601.56404  23899525.123 4  23899519.661 4


  26008165.417 7 136673835.51707
                  26008174.925 7 102061672.17407  26008172.712 6 110936592.97706
  26008172.483 7 104724141.61707  26008173.706 8 103392909.96908
  24908490.458 7 130895314.01307
                  24908495.339 7  97746706.06207  24908494.318 7 106246344.49707
  24908493.324 8 100296595.43208  24908494.275 8  99021648.32008
  23644875.186 7 126306685.69707  98238573.81106
  23644886.038 6

  22409785.681 8 119793456.64108  93172868.48807
  22409795.010 7

  28756913.680 6 151118608.43706
                  28756924.960 6 112848350.56806  28756919.826 6 122661231.56806
  28756921.944 6 115792208.80606  28756923.600 7 114320286.26207
  20688993.538 8 108721510.09008  84718138.72606  20688996.035 6  20688993.194 6
  20688996.396 7

  26082138.552 7 137062619.29707
                  26082146.156 7 102352004.04007  26082143.779 7 111252162.27907
  26082143.728 7 105022047.98607  26082144.797 7 103687030.08507
  24166917.758 6 129140523.09906 100442599.41706
  24166937.940 6

 25  4 11  0 12  0.0000000  0 35G18R20G15E29G05G23R22R21G13G10G25R06
                                E33E03G24G26R07E13E27E26E15G27S33S31
                                E07S35G16E21E08R12R05E31G29E23R11
  21043643.028 8 110585401.18808  86170593.63206  21043645.276 6  21043642.783 6
  21043645.900 7  21043648.407 8  82580211.14908

  21578572.482 6 115390342.19206  89748097.62307
  21578583.841 7

  20425145.794 8 107335361.08908  83638196.60207  20425148.463 7  20425145.473 7
  20425149.137 7

  28492631.297 5 149729934.88105
                  28492659.363 5 111811503.12405  28492652.584 6 121534176.03606
  28492656.126 6 114728299.25606  28492657.944 6 113269796.26506
  23435816.990 7 123156183.74807  95965947.63005  23435820.883 5  23435816.709 5
  23435821.229 6

  20679048.793 7 108669578.12507  84677865.90306  20679051.338 6  20679048.561 6
  20679051.550 7  20679054.815 8  81149641.09808

  22458206.960 7 119883515.60507  93242806.01806
  22458214.735 6

  19839203.068 8 106163850.98008  82572047.92207
  19839209.818 7

  22435152.851 7 117897763.97207  91868515.33705  22435156.527 5  22435152.395 5


  23689480.415 6 124489305.03506  97004834.04904  23689490.368 4  23689480.085 4
  23689490.106 6  23689488.474 7  92962977.53607

  25352402.232 5 133227521.31205 103813615.35002  25352424.053 2  25352401.472 2
  25352424.241 6  25352425.911 6  99488036.55206

  19150364.594 6 102190096.22806


  28608860.618 6 150340612.61306
                  28608874.795 6 112267415.52806  28608871.323 6 122029781.89106
  28608871.515 6 115196116.74106  28608873.176 6 113731769.20606
  27840015.988 6 146300405.51106
                  27840026.236 6 109250420.45606  27840023.275 6 118750234.35606
  27840023.900 6 112100414.01306  27840024.943 6 110675420.30906
  25591576.946 5 134484661.06205 104793306.26002  25591594.075 2  25591576.736 2
  25591594.616 6  25591596.185 6 100426932.12506

  23988478.966 6 126060332.22706  98228876.12304  23988487.186 4  23988478.528 4
  23988487.135 6  23988485.931 7  94136002.90207

  20922291.331 8 111999097.03808  87110647.58407
  20922301.309 7

  24031046.108 8 126284080.59908
                  24031051.955 8  94303117.12708  24031049.589 8 102503356.91708
  24031050.004 8  96763182.90808  24031050.963 8  95533150.09008
  28420383.598 6 149349866.84006
                  28420407.060 6 111527440.21206  28420401.494 6 121225667.79206
  28420402.946 6 114436852.76906  28420404.941 6 112982149.06406
  24860664.949 7 130643988.82307
                  24860669.156 7  97559026.53007  24860669.748 7 106042350.86407
  24860666.944 7 100104015.88007  24860667.923 8  98831526.77908
  27176292.195 6 142812296.67506
                  27176304.153 7 106645543.38107  27176300.147 6 115919069.66206
  27176301.584 7 109427595.16607  27176302.737 7 108036569.34607
  25476316.804 5 133878946.37815
                  25476324.895 5  99974571.47215

  37104004.192 7 194982833.11107
                  37104003.072 6 145604083.87506

  36827769.941 7 193531233.64807
                  36827779.271 7 144520127.76307

  25088227.492 7 131839968.74007
                  25088236.539 7  98452222.44307  25088233.388 7 107012724.51207
  25088234.371 7 101020503.05007  25088235.268 8  99736363.82108
  36974378.079 7 194301672.32107
                  36974385.817 6 145095442.94106

  23897963.921 6 125584688.38606  97858227.64304  23897968.136 4  23897963.050 4


  26014854.703 7 136708988.62307
                  26014864.408 7 102087922.80407  26014862.594 6 110965126.30006
  26014862.022 7 104751077.06007  26014863.182 8 103419503.00508
  24908081.569 7 130893164.34907
                  24908086.259 7  97745100.82507  24908085.361 7 106244599.66207
  24908084.319 8 100294948.31208  24908085.184 8  99020022.14108
  23648888.181 7 126328121.78007  98255246.27606
  23648899.123 6

  22420575.498 8 119851131.22708  93217726.45007
  22420583.919 7

  28752260.454 6 151094157.08806
                  28752272.185 6 112830091.49506  28752266.790 6 122641384.70206
  28752268.995 6 115773473.38506  28752270.412 7 114301789.01607
  20694140.213 7 108748556.29007  84739213.67206  20694142.792 6  20694139.865 6
  20694142.899 7

  26083202.376 7 137068208.17507
                  26083209.913 7 102356177.56007  26083206.967 6 111256698.71406
  26083207.299 7 105026330.37207  26083208.354 7 103691258.03707
  24175814.072 6 129188056.88206 100479569.88606
  24175834.074 6

 25  4 11  0 12 15.0000000  0 35G18R20G15E29G05G23R22R21G13G10G25R06
                                E33E03G24G26R07E13E27E26E15G27S33S31
                                E07S35G16E21E08R12R05E31G29E23R11
  21040935.815 8 110571174.49108  86159507.91006  21040938.017 6  21040935.574 6
  21040938.231 7  21040941.137 8  82569587.33408

  21583655.109 6 115417516.91706  89769233.49207
  21583665.209 7

  20424195.465 8 107330365.70808  83634304.12207  20424197.809 7  20424195.144 7
  20424198.103 7

  28484294.983 5 149686129.05305
                  28484322.344 6 111778791.88606  28484315.797 6 121498619.99106
  28484319.115 6 114694734.57706  28484321.159 6 113236658.31006
  23444729.968 7 123203023.64707  96002446.20605  23444734.405 5  23444729.696 5
  23444734.570 6

  20676159.361 7 108654394.26507  84666034.35406  20676161.932 6  20676159.129 6
  20676162.030 7  20676165.337 8  81138302.54008

  22449833.970 7 119838819.75607  93208042.67106
  22449840.733 6

  19836615.244 8 106150002.86908  82561277.18207
  19836621.566 7

  22438988.495 7 117917918.58707  91884220.23805  22438991.681 5  22438988.048 5


  23682269.997 7 124451412.23407  96975307.32504  23682279.554 4  23682269.716 4
  23682279.592 6  23682277.408 7  92934681.13007

  25360667.451 6 133270953.27806 103847458.09503  25360689.172 3  25360666.705 3
  25360688.500 6  25360691.227 6  99520469.12306

  19149583.639 6 102185925.75106


  28603873.787 6 150314408.50006
                  28603888.635 6 112247847.84506  28603885.444 6 122008512.60306
  28603884.949 6 115176038.55906  28603886.512 6 113711946.27006
  27845831.742 6 146330968.54706
                  27845842.195 6 109273243.45606  27845839.057 6 118775041.97706
  27845839.979 6 112123832.41706  27845840.932 6 110698541.01006
  25584707.902 5 134448561.56305 104765176.87002  25584724.558 2  25584707.683 2
  25584725.407 6  25584726.233 6 100399974.82006

  23991374.784 6 126075553.29706  98240736.67204  23991383.809 4  23991374.333 4
  23991383.778 6  23991382.485 7  94147369.26807

  20912118.981 8 111944641.93508  87068293.72407
  20912128.663 7

  24032116.792 8 126289707.05108
                  24032122.624 8  94307318.71008  24032120.400 8 102507923.84308
  24032120.673 8  96767494.08708  24032121.631 8  95537406.47308
  28428081.148 6 149390317.78406
                  28428104.940 6 111557646.80606  28428099.068 6 121258501.13006
  28428100.764 6 114467847.37906  28428102.898 6 113012749.66906
  24857261.164 7 130626100.61307
                  24857265.119 7  97545668.48607  24857265.657 7 106027831.23007
  24857262.987 7 100090309.35807  24857263.874 8  98817994.49608
  27180728.013 6 142835606.24406
                  27180740.011 7 106662949.83607  27180735.891 6 115937989.73906
  27180737.182 7 109445455.71207  27180738.417 7 108054202.84807
  25466096.268 5 133825240.86805
                  25466104.545 5  99934466.70305

  37104010.301 7 194982863.06707
                  37104008.536 6 145604106.33906

  36827770.460 7 193531239.04007
                  36827780.214 7 144520131.67007

  25081196.789 7 131803022.21907
                  25081205.784 7  98424632.59907  25081202.445 7 106982735.51907
  25081203.555 7 100992193.46107  25081204.518 8  99708414.10408
  36974389.303 7 194301723.61207
                  36974395.466 6 145095481.40106

  23896432.322 6 125576641.13206  97851957.05803  23896436.493 3  23896431.428 3


  26021551.119 7 136744179.25507
                  26021561.092 7 102114201.45107  26021559.111 6 110993690.08206
  26021558.620 7 104778041.25107  26021559.772 7 103446124.42407
  24907692.085 7 130891118.44207
                  24907696.951 7  97743573.06807  24907696.122 7 106242939.04707
  24907694.954 8 100293380.69908  24907695.835 8  99018474.45608
  23652924.661 7 126349688.28507  98272020.18806
  23652936.401 6

  22431378.857 8 119908880.07608  93262642.16807
  22431387.046 7

  28747621.813 6 151069782.80406
                  28747633.784 6 112811889.95006  28747628.234 6 122621600.40406
  28747630.401 6 115754797.01306  28747632.190 7 114283350.05707
  20699310.315 8 108775724.04708  84760383.33606  20699312.677 6  20699309.971 6
  20699313.155 7

  26084284.294 7 137073893.59407
                  26084291.741 7 102360423.16207  26084288.923 6 111261313.49306
  26084289.244 7 105030686.73607  26084290.241 7 103695559.02107
  24184708.101 6 129235583.50506 100516534.79406
  24184727.873 6

 25  4 11  0 12 30.0000000  0 34G18R20G15E29G05G23R22R21G13G10G25R06
                                E33E03G24G26R07E13E27E26E15S33S31E07
                                S35G16E21E08R12R05E31G29E23R11
  21038235.402 8 110556982.87408  86148449.51806  21038237.426 6  21038235.166 6
  21038237.552 7  21038240.521 8  82558989.71208

  21588750.647 6 115444768.61406  89790429.24207
  21588761.783 7

  20423275.027 8 107325528.69108  83630535.04607  20423277.313 7  20423274.714 7
  20423277.651 7

  28475952.461 5 149642291.98705
                  28475979.644 6 111746057.32506  28475973.024 6 121463038.61706
  28475976.567 6 114661145.95606  28475978.385 6 113203496.71706
  23453644.078 7 123249867.50307  96038947.86605  23453648.249 5  23453643.797 5
  23453648.318 6

  20673286.759 7 108639299.05307  84654271.88706  20673289.411 6  20673286.527 6
  20673289.649 7  20673292.823 8  81127030.17808

  22441458.901 7 119794111.07407  93173269.28106
  22441465.042 6

  19834041.800 8 106136229.68808  82550564.72207
  19834047.949 7

  22442850.781 7 117938216.24607  91900036.59704  22442854.125 4  22442850.334 4


  23675069.035 7 124413574.86207  96945823.79404  23675079.263 4  23675068.745 4
  23675078.765 6  23675077.195 7  92906426.10307

  25368919.954 6 133314325.10306 103881253.97503  25368942.267 3  25368919.185 3
  25368942.296 6  25368944.715 6  99552856.75806

  19148837.746 6 102181952.83906


  28598884.680 6 150288191.62006
                  28598899.286 6 112228270.62006  28598895.329 6 121987232.88106
  28598895.736 6 115155950.59006  28598897.447 6 113692113.67906
  27851660.897 6 146361600.05706
                  27851671.226 6 109296117.63006  27851667.893 6 118799905.20806
  27851668.893 6 112147303.30706  27851669.983 6 110721713.54406
  25577830.584 5 134412421.36305 104737015.78303  25577847.494 3  25577830.352 3
  25577847.790 6  25577849.278 6 100372987.15106

  23994289.732 6 126090870.63206  98252672.23204  23994298.971 4  23994289.299 4
  23994298.163 6  23994297.274 7  94158807.49707

  20901967.163 8 111890296.15408  87026024.87807
  20901976.099 7

  24033189.718 7 126295345.08407
                  24033195.487 8  94311528.93408  24033193.177 8 102512500.17708
  24033193.519 8  96771814.14708  24033194.494 8  95541671.61408
  28435770.763 5 149430726.25705
                  28435794.746 6 111587821.62806  28435788.419 6 121291299.99006
  28435790.783 6 114498809.42906  28435792.599 6 113043318.10406
  24853857.121 7 130608212.69207
                  24853861.099 7  97532310.65907  24853861.580 7 106013311.83907
  24853858.950 7 100076603.05407  24853859.878 8  98804462.43008
  27185164.923 6 142858923.21806
                  27185176.963 7 106680361.80707  27185172.770 6 115956915.80706
  27185174.124 7 109463321.91507  27185175.514 7 108071841.93507
  37104016.771 7 194982890.12607
                  37104013.875 6 145604126.26206

  36827771.761 7 193531243.05307
                  36827780.912 7 144520134.94307

  25074175.691 7 131766125.84907
                  25074184.622 7  98397080.20607  25074181.136 7 106952787.23107
  25074182.340 7 100963922.29707  25074183.279 8  99680502.32608
  36974398.322 7 194301772.46207
                  36974404.825 6 145095517.81706

  23894926.616 6 125568726.81006  97845790.06004  23894930.164 4  23894925.713 4


  26028255.042 6 136779407.52006
                  26028264.804 7 102140508.23207  26028262.576 6 111022284.41606
  26028262.394 7 104805034.29707  26028263.543 7 103472774.33707
  24907322.825 7 130889176.69207
                  24907327.372 7  97742123.07607  24907326.455 7 106241362.97107
  24907325.301 8 100291892.88108  24907326.301 8  99017005.55208
  23656986.812 7 126371385.33807  98288895.61906
  23656998.544 6

  22442195.506 8 119966703.42508  93307615.83607
  22442204.118 7

  28742998.582 6 151045486.13106
                  28743010.222 6 112793746.37306  28743004.765 6 122601879.11406
  28743007.203 6 115736180.11806  28743008.595 7 114264969.81907
  20704503.442 8 108803013.59008  84781647.90106  20704505.738 6  20704503.112 6
  20704505.886 7

  26085384.401 7 137079675.82907
                  26085392.064 7 102364741.06407  26085389.656 6 111266006.86806
  26085389.559 7 105035117.27407  26085390.555 7 103699933.24307
  24193600.146 6 129283102.86806 100553494.00606
  24193621.702 6

 25  4 11  0 12 45.0000000  0 34G18R20G15E29G05G23R22R21G13G10G25R06
                                E33E03G24G26R07E13E27E26E15S33S31E07
                                S35G16E21E08R12R05E31G29E23R11
  21035541.751 8 110542827.97308  86137419.74206  21035543.841 6  21035541.519 6
  21035544.206 7  21035546.910 8  82548419.51508

  21593861.017 6 115472099.28506  89811686.41807
  21593872.382 7

  20422385.034 8 107320851.71108  83626890.67107  20422387.303 7  20422384.730 7
  20422387.594 7

  28467604.237 5 149598425.44705
                  28467631.449 5 111713300.67705  28467624.751 6 121427433.22306
  28467628.081 6 114627534.69206  28467630.107 6 113170312.75906
  23462559.189 7 123296716.23307  96075453.32705  23462563.126 5  23462558.912 5
  23462563.856 6

  20670431.298 7 108624293.93807  84642579.62006  20670433.989 6  20670431.070 6
  20670434.098 7  20670437.326 8  81115825.09908

  22433081.520 7 119749391.24407  93138487.23906
  22433088.074 6

  19831481.772 8 106122533.30808  82539911.99407
  19831488.615 7

  22446741.331 7 117958658.34407  91915965.50404  22446744.115 4  22446740.884 4


  23667880.348 7 124375794.51507  96916384.69704  23667889.676 4  23667880.053 4
  23667889.637 6  23667887.905 7  92878213.66407

  25377163.237 6 133357637.92906 103915003.87403  25377184.961 3  25377162.473 3
  25377185.035 5  25377187.132 6  99585200.36306

  19148130.856 6 102178178.98706


  28593893.553 6 150261963.46906
                  28593907.580 6 112208685.00006  28593904.460 6 121965944.01706
  28593903.729 5 115135853.97805  28593906.020 6 113672272.56606
  27857503.264 6 146392301.38406
                  27857513.352 6 109319043.89606  27857510.081 6 118824825.08406
  27857511.165 6 112170827.66206  27857512.332 6 110744938.85306
  25570945.515 5 134376242.37205 104708824.47502  25570962.581 2  25570945.279 2
  25570963.368 6  25570964.541 6 100345970.48806

  23997223.359 6 126106285.45806  98264683.75804  23997232.392 4  23997222.921 4
  23997231.277 6  23997230.742 7  94170318.54407

  20891834.954 8 111836062.01308  86983842.87707
  20891844.251 7

  24034265.200 8 126300996.24208
                  24034270.822 8  94315748.96808  24034268.654 8 102517087.16408
  24034268.894 8  96776144.26308  24034269.870 8  95545946.68908
  28443453.000 6 149471093.52506
                  28443476.490 6 111617965.73406  28443470.886 6 121324065.44706
  28443472.361 6 114529739.92206  28443474.346 6 113073855.40206
  24850453.232 7 130590326.58807
                  24850457.481 7  97518954.18007  24850458.087 7 105998793.91807
  24850455.276 7 100062898.14607  24850456.244 8  98790931.73708
  27189603.951 6 142882249.17106
                  27189615.893 7 106697780.49207  27189611.872 6 115975849.16506
  27189613.139 7 109481195.00707  27189614.396 7 108089487.82807
  37104020.550 7 194982917.39807
                  37104018.861 6 145604146.76506

  36827771.851 7 193531246.05407
                  36827781.587 7 144520137.25707

  25067164.750 7 131729281.39407
                  25067173.224 7  98369566.57207  25067170.047 7 106922881.06907
  25067171.050 7 100935690.90707  25067171.954 8  99652629.81408
  36974407.972 7 194301820.19107
                  36974414.050 6 145095553.25606

  23893446.273 6 125560947.16306  97839728.00404  23893449.879 4  23893445.379 4


  26034965.955 7 136814674.68907
                  26034975.928 7 102166844.05907  26034974.004 6 111050910.32806
  26034973.475 7 104832057.14607  26034974.689 7 103499453.67507
  24906973.348 7 130887340.63007
                  24906977.952 7  97740752.02607  24906976.921 7 106239872.67507
  24906975.941 8 100290486.06308  24906976.888 8  99015616.61708
  23661073.354 7 126393213.99207  98305873.38206
  23661084.652 6

  22453026.677 7 120024601.90707  93352647.94207
  22453035.382 7

  28738390.191 6 151021268.73206
                  28738401.571 6 112775661.97606  28738396.163 6 122582222.15106
  28738398.771 6 115717623.95706  28738400.110 7 114246649.54307
  20709719.820 8 108830426.31008  84803008.44606  20709722.234 6  20709719.476 6
  20709722.333 7

  26086503.245 7 137085556.32407
                  26086510.954 7 102369132.33907  26086508.435 6 111270779.98706
  26086508.660 7 105039623.10107  26086509.570 7 103704381.79407
  24202493.271 6 129330616.07606 100590448.45606
  24202512.907 6

 25  4 11  0 13  0.0000000  0 34G18R20G15E29G05G23R22R21G13G10G25R06
                                E33E03G24G26R07E13E27E26E15S33S31E07
                                S35G16E21E08R12R05E31G29E23R11
  21032855.727 8 110528713.67708  86126421.60806  21032857.970 6  21032855.495 6
  21032858.240 7  21032860.971 8  82537879.64208

  21598987.107 6 115499513.23506  89833008.35507
  21598999.035 7

  20421526.154 8 107316338.62208  83623374.00507  20421528.439 7  20421525.850 7
  20421528.468 7

  28459251.157 5 149554533.36805
                  28459278.331 5 111680524.95905  28459271.866 6 121391807.12606
  28459275.001 6 114593903.87206  28459276.973 6 113137109.48906
  23471475.616 7 123343573.34407  96111965.31805  23471479.815 5  23471475.344 5
  23471480.689 6

  20667593.619 8 108609382.67508  84630960.48406  20667596.427 6  20667593.378 6
  20667596.644 7  20667599.823 8  81104690.09908

  22424701.989 7 119704664.35307  93103699.71006
  22424709.148 6

  19828937.268 8 106108917.78608  82529322.17207
  19828943.921 7

  22450659.245 7 117979248.50707  91932009.78804  22450662.383 4  22450658.794 4


  23660702.387 7 124338075.05007  96886993.03404  23660711.667 4  23660702.083 4
  23660711.163 6  23660709.869 7  92850046.68707

  25385394.978 5 133400895.41805 103948710.65303  25385416.909 3  25385394.209 3
  25385418.198 6  25385419.231 6  99617502.57606

  19147461.866 6 102174607.87306


  28588900.355 5 150235727.81905
                  28588915.029 6 112189093.73406  28588911.206 5 121944649.05705
  28588911.363 6 115115751.61706  28588913.118 6 113652425.75106
  27863359.614 6 146423076.15706
                  27863369.592 6 109342025.02206  27863366.448 6 118849804.59406
  27863367.550 6 112194408.29306  27863368.651 6 110768219.73206
  25564055.280 5 134340028.69605 104680606.12702  25564071.565 2  25564055.030 2
  25564071.611 6  25564073.137 6 100318927.90506

  24000176.202 6 126121801.35306  98276774.04904  24000184.816 4  24000175.755 4
  24000184.770 6  24000183.307 7  94181905.07007

  20881724.921 8 111781943.48308  86941750.80307
  20881734.678 7

  24035343.635 8 126306664.39208
                  24035349.547 8  94319981.68708  24035347.310 8 102521687.94108
  24035347.501 8  96780487.40208  24035348.466 8  95550234.61808
  28451127.722 5 149511423.26805
                  28451151.242 6 111648081.77906  28451145.290 6 121356800.37806
  28451147.156 6 114560641.63406  28451149.108 6 113104364.27806
  24847050.900 7 130572446.10507
                  24847054.922 7  97505601.89807  24847055.596 7 105984280.56207
  24847052.700 7 100049197.54507  24847053.666 8  98777405.29508
  27194044.932 6 142905587.97606
                  27194057.186 7 106715208.77307  27194053.225 6 115994792.96006
  27194054.512 7 109499077.94107  27194055.709 7 108107143.43307
  37104024.382 7 194982947.54407
                  37104024.629 6 145604169.41106

  36827771.175 7 193531251.69507
                  36827782.607 7 144520141.31207

  25060163.635 7 131692492.88907
                  25060172.484 7  98342094.73007  25060169.181 7 106893020.33707
  25060170.380 7 100907502.39507  25060171.253 8  99624799.63708
  36974417.872 7 194301872.00507
                  36974423.803 6 145095592.06106

  23891992.398 6 125553305.87606  97833773.76404  23891995.850 4  23891991.509 4


  26041685.324 7 136849984.28507
                  26041695.348 7 102193211.56907  26041692.892 6 111079570.69206
  26041692.796 7 104859112.51807  26041693.946 7 103526165.11707
  24906644.695 7 130885614.13207
                  24906649.348 7  97739462.77807  24906648.442 7 106238471.31307
  24906647.392 8 100289163.17008  24906648.331 8  99014310.54608
  23665185.348 7 126415177.73007  98322956.23606
  23665196.222 6

  22463872.473 8 120082578.97608  93397741.15807
  22463880.985 7

  28733797.546 6 150997134.59006
                  28733808.969 6 112757639.75106  28733803.694 6 122562632.76106
  28733806.223 6 115699131.58106  28733807.530 7 114228392.24207
  20714960.037 8 108857965.86608  84824467.82506  20714962.806 6  20714959.675 6
  20714963.244 7

  26087641.319 7 137091538.80207
                  26087649.399 7 102373599.76707  26087646.845 6 111275635.89406
  26087646.989 7 105044207.07407  26087647.982 7 103708907.49407
  24211384.192 6 129378126.54006 100627400.75406
  24211403.992 6

 25  4 11  0 13 15.0000000  0 34G18R20G15E29G05G23R22R21G13G10G25R06
                                E33E03G24G26R07E13E27E26E15S33S31E07
                                S35G16E21E08R12R05E31G29E23R11
  21030176.572 8 110514636.45908  86115452.36106  21030179.155 6  21030176.331 6
  21030179.601 8  21030182.125 8  82527367.44708

  21604128.579 6 115527006.10906  89854391.68207
  21604140.152 7

  20420697.737 8 107311985.72908  83619982.16607  20420700.066 7  20420697.429 7
  20420700.325 7

  28450892.722 5 149510612.33505
                  28450919.973 5 111647727.60805  28450913.130 6 121356157.52906
  28450916.609 6 114560250.83506  28450918.330 6 113103884.29506
  23480393.270 7 123390434.96707  96148480.82005  23480397.343 5  23480392.989 5
  23480397.975 6

  20664773.602 7 108594561.54507  84619411.58506  20664776.032 6  20664773.366 6
  20664776.239 7  20664779.371 8  81093622.41008

  22416321.016 7 119659926.85407  93068903.93406
  22416328.603 6

  19826407.390 8 106095379.90908  82518792.72807
  19826413.446 7

  22454604.598 7 117999983.01507  91948166.55305  22454607.853 5  22454604.151 5


  23653535.091 7 124300412.92907  96857646.05704  23653544.671 4  23653534.770 4
  23653543.935 6  23653542.786 7  92821922.52207

  25393615.355 5 133444093.63105 103982371.22303  25393637.844 3  25393614.568 3
  25393638.256 6  25393639.705 6  99649760.56206

  19146830.856 6 102171235.97906


  28583905.720 6 150209480.94606
                  28583920.148 6 112169494.13406  28583916.596 5 121923345.00805
  28583916.377 6 115095640.67606  28583918.244 6 113632570.48706
  27869228.742 6 146453920.50306
                  27869239.085 6 109365058.14406  27869236.274 6 118874840.57506
  27869237.174 6 112218042.28906  27869238.134 6 110791553.29106
  25557156.163 5 134303776.91905 104652358.09803  25557172.705 3  25557155.935 3
  25557173.288 6  25557174.920 7 100291856.91907

  24003147.219 6 126137414.44006  98288940.06604  24003155.798 4  24003146.754 4
  24003155.511 6  24003154.419 7  94193564.15707

  20871635.927 8 111727937.66808  86899746.37507
  20871645.017 7

  24036424.713 8 126312345.99508
                  24036430.643 8  94324224.45008  24036428.380 8 102526299.64208
  24036428.698 8  96784840.84308  24036429.628 8  95554532.72108
  28458794.372 6 149551711.60806
                  28458818.046 6 111678166.89806  28458811.924 6 121389501.71406
  28458813.863 6 114591511.61206  28458816.022 6 113134841.82606
  24843648.693 7 130554567.61907
                  24843652.817 7  97492251.11507  24843653.260 7 105969768.82607
  24843650.553 7 100035498.48007  24843651.485 8  98763880.37108
  27198488.194 6 142928936.08106
                  27198500.157 7 106732643.99607  27198496.302 6 116013744.32706
  27198497.319 7 109516968.00007  27198498.732 7 108124806.07107
  37104029.068 7 194982977.01707
                  37104030.223 6 145604191.16506

  36827770.836 7 193531257.39407
                  36827783.608 7 144520145.82007

  25053173.207 7 131655756.97207
                  25053181.899 7  98314662.14607  25053178.479 7 106863202.27907
  25053179.586 7 100879354.17007  25053180.573 8  99597009.23308
  36974424.655 7 194301923.37007
                  36974433.520 6 145095630.60006

  23890563.870 6 125545799.30506  97827924.48904  23890567.636 4  23890562.999 4


  26048412.164 7 136885332.45807
                  26048421.901 7 102219607.87507  26048419.427 6 111108262.35506
  26048419.309 7 104886197.42607  26048420.505 7 103552905.72507
  24906336.328 7 130883993.57907
                  24906340.986 7  97738252.64007  24906340.191 7 106237155.93807
  24906338.944 8 100287921.46708  24906339.906 8  99013084.62708
  23669320.683 7 126437272.53207  98340141.01906
  23669332.973 6

  22474732.077 8 120140630.40708  93442892.22707
  22474740.995 7

  28729220.363 6 150973080.17206
                  28729231.683 6 112739677.06906  28729226.111 6 122543108.09806
  28729228.766 6 115680700.31006  28729230.185 7 114210195.26507
  20720224.452 7 108885628.60907  84846023.19306  20720226.912 6  20720224.086 6
  20720227.305 7

  26088798.552 7 137097619.54707
                  26088806.474 7 102378140.56707  26088804.094 7 111280571.56007
  26088804.202 7 105048866.33907  26088805.109 7 103713507.52707
  24220272.803 6 129425630.26606 100664347.86006
  24220293.203 6

 25  4 11  0 13 30.0000000  0 34G18R20G15E29G05G23R22R21G13G10G25R06
                                E33E03G24G26R07E13E27E26E15S33S31E07
                                S35G16E21E08R12R05E31G29E23R11
  21027505.223 8 110500596.14708  86104511.86906  21027507.387 6  21027504.987 6
  21027507.530 8  21027510.335 8  82516882.81108

  21609283.979 6 115554577.98906  89875836.44907
  21609296.690 7

  20419899.909 8 107307792.98908  83616715.12007  20419902.177 7  20419899.601 7
  20419902.576 7

  28442529.098 5 149466662.27705
                  28442555.622 6 111614908.53106  28442549.106 6 121320484.33306
  28442552.541 6 114526575.51506  28442554.201 6 113070637.09706
  23489311.164 7 123437300.79707  96184999.60205  23489316.106 5  23489310.878 5
  23489316.237 6

  20661970.277 7 108579830.20307  84607932.64706  20661972.718 6  20661970.041 6
  20661972.780 7  20661976.037 8  81082621.76708

  22407938.599 7 119615178.63107  93034099.80806
  22407945.770 6

  19823892.221 8 106081919.72308  82508323.71107
  19823898.664 7

  22458577.873 7 118020861.62207  91964435.60104  22458580.831 4  22458577.449 4


  23646379.024 6 124262807.88606  96828343.54904  23646388.277 4  23646378.711 4
  23646389.076 6  23646386.700 7  92793840.98907

  25401824.931 5 133487232.03405 104015985.18702  25401847.216 2  25401824.158 2
  25401847.383 5  25401849.062 6  99681973.86306

  19146235.473 6 102168062.67206


  28578908.527 6 150183222.51306
                  28578923.473 6 112149885.89106  28578919.712 5 121902031.56505
  28578919.042 6 115075520.86006  28578921.041 6 113612706.44706
  27875111.768 6 146484834.03406
                  27875121.894 6 109388142.88206  27875118.948 6 118899932.70406
  27875119.894 6 112241729.24606  27875120.714 6 110814939.14006
  25550250.069 5 134267487.15905 104624080.47703  25550266.856 3  25550249.833 3
  25550267.056 6  25550268.764 6 100264757.57706

  24006136.320 6 126153124.12906  98301181.36504  24006145.127 4  24006135.887 4
  24006144.525 6  24006143.925 7  94205295.39607

  20861567.854 8 111674044.41908  86857829.53407
  20861577.807 7

  24037508.420 8 126318040.78508
                  24037514.325 8  94328477.06008  24037511.958 8 102530922.03608
  24037512.334 8  96789204.39008  24037513.308 8  95558840.79908
  28466453.329 5 149591958.07005
                  28466477.205 6 111708220.75406  28466471.183 6 121422169.08706
  28466472.697 6 114622349.54406  28466475.071 6 113165287.72606
  24840246.880 7 130536690.83507
                  24840250.853 7  97478901.60007  24840251.368 7 105955258.47407
  24840248.666 7 100021800.71107  24840249.618 8  98750356.72908
  27202932.823 6 142952293.22906
                  27202945.001 7 106750085.99207  27202940.921 6 116032703.02606
  27202942.268 7 109534865.01007  27202943.480 7 108142475.57507
  37104036.352 7 194983005.47407
                  37104035.670 6 145604212.43706

  36827774.788 7 193531262.19107
                  36827784.579 7 144520149.55907

  25046192.224 7 131619073.57007
                  25046201.214 7  98287268.77907  25046197.638 7 106833426.84707
  25046198.949 7 100851246.19007  25046199.892 8  99569258.55808
  36974437.569 7 194301972.95707
                  36974443.098 6 145095667.48006

  23889160.610 6 125538427.14406  97822179.95504  23889164.920 4  23889159.747 4


  26055145.651 7 136920718.61307
                  26055155.738 7 102246032.55407  26055153.597 6 111136984.84306
  26055153.131 7 104913311.45107  26055154.343 7 103579675.07607
  24906048.108 7 130882478.68407
                  24906052.656 7  97737121.41707  24906051.757 7 106235926.33607
  24906050.668 8 100286760.72908  24906051.611 8  99011938.64508
  23673482.307 7 126459497.69007  98357427.18506
  23673492.953 6

  22485605.615 7 120198755.49607  93488100.58907
  22485615.054 7

  28724658.252 6 150949105.31606
                  28724669.333 6 112721773.80406  28724664.190 6 122523647.99406
  28724666.630 6 115662329.98406  28724667.828 7 114192058.46707
  20725512.015 8 108913414.10308  84867674.21606  20725514.306 6  20725511.662 6
  20725514.563 7

  26089974.536 7 137103798.17207
                  26089982.262 7 102382754.48207  26089979.688 7 111285586.66907
  26089979.974 7 105053600.60107  26089980.850 7 103718181.61707
  24229162.924 6 129473126.10306 100701288.74306
  24229181.876 6

 25  4 11  0 13 45.0000000  0 34G18R20G15E29G05G23R22R21G13G10G25R06
                                E33E03G24G26R07E13E27E26E15S33S31E07
                                S35G16E21E08R12R05E31G29E23R11
  21024840.606 8 110486594.44108  86093601.46406  21024842.913 6  21024840.374 6
  21024843.339 8  21024845.876 8  82506427.01108

  21614456.909 6 115582230.96906  89897344.28307
  21614468.129 7

  20419132.691 8 107303762.10208  83613574.19607  20419135.124 7  20419132.378 7
  20419135.563 7

  28434160.095 5 149422684.93005
                  28434186.424 6 111582069.09406  28434179.998 6 121284789.00706
  28434183.297 6 114492879.30606  28434184.955 6 113037369.27506
  23498230.572 7 123484172.10907  96221522.64905  23498235.625 5  23498230.282 5
  23498235.204 6

  20659184.119 7 108565190.17407  84596524.86006  20659186.812 6  20659183.878 6
  20659187.013 7  20659190.093 8  81071689.31008

  22399553.322 7 119570421.49407  92999288.76606
  22399560.751 6

  19821391.842 8 106068538.73308  82497916.28807
  19821397.721 7

  22462578.925 7 118041885.66007  91980817.97004  22462581.668 4  22462578.478 4


  23639234.480 7 124225261.60407  96799086.84604  23639243.510 4  23639234.181 4
  23639243.595 6  23639241.688 7  92765803.33907

  25410023.101 5 133530311.97305 104049553.60402  25410044.974 2  25410022.319 2
  25410046.036 5  25410047.467 6  99714143.52106

  19145679.202 6 102165089.79906


  28573909.934 6 150156954.12606
                  28573924.006 6 112130270.20206  28573921.012 6 121880710.05606
  28573920.486 6 115055393.41206  28573921.995 6 113592834.88206
  27881008.005 6 146515818.10806
                  27881017.919 6 109411280.32706  27881015.090 6 118925082.10606
  27881015.731 6 112265470.26406  27881016.768 6 110838378.37106
  25543337.511 5 134231161.34605 104595774.75803  25543354.381 3  25543337.266 3
  25543354.140 6  25543355.975 6 100237631.28506

  24009144.661 6 126168931.82106  98313499.02004  24009153.254 4  24009144.210 4
  24009153.367 6  24009152.065 7  94217099.81707

  20851522.386 8 111620266.04808  86816002.00707
  20851531.344 7

  24038595.133 7 126323750.44707
                  24038600.849 8  94332740.77108  24038598.521 8 102535556.50708
  24038598.861 8  96793579.33008  24038599.809 8  95563160.12408
  28474104.105 5 149632164.12205
                  28474128.361 6 111738244.42406  28474122.883 6 121454803.63506
  28474124.484 6 114653156.45606  28474126.335 6 113195703.01706
  24836845.705 7 130518817.38507
                  24836849.641 7  97465554.56407  24836850.191 7 105940750.81707
  24836847.425 7 100008105.48307  24836848.386 8  98736835.59908
  27207379.909 6 142975661.12606
                  27207391.914 7 106767535.99707  27207387.534 6 116051670.44906
  27207389.046 7 109552770.24407  27207390.267 7 108160153.19407
  37104040.488 7 194983035.44607
                  37104041.331 6 145604235.11306

  36827774.346 7 193531267.38507
                  36827785.634 7 144520153.14907

  25039222.051 7 131582444.53107
                  25039230.889 7  98259916.00707  25039227.673 7 106803695.54907
  25039228.496 7 100823179.85607  25039229.549 8  99541549.00608
  36974446.915 7 194302024.29007
                  36974452.703 6 145095705.88206

  23887783.251 6 125531191.04506  97816541.45104  23887788.089 4  23887782.406 4


  26061886.825 7 136956144.11907
                  26061896.956 7 102272486.61907  26061894.738 6 111165739.26806
  26061894.480 7 104940455.62207  26061895.632 7 103606474.19507
  24905780.089 7 130881071.12507
                  24905784.841 7  97736070.33707  24905783.977 7 106234783.85607
  24905782.837 8 100285682.23008  24905783.739 8  99010873.85608
  23677667.917 7 126481854.46707  98374815.73906
  23677678.824 6

  22496493.191 7 120256955.18107  93533366.96507
  22496501.604 7

  28720110.808 6 150925211.82106
                  28720122.533 6 112703931.27706  28720117.230 6 122504253.93606
  28720119.811 6 115644022.00006  28720121.087 7 114173983.21707
  20730822.541 8 108941323.67608  84889421.91907  20730825.368 7  20730822.193 7
  20730825.696 7

  26091169.053 7 137110076.17907
                  26091176.839 7 102387442.60407  26091174.710 7 111290682.46207
  26091174.772 7 105058411.03507  26091175.511 7 103722930.89407
  24238048.934 6 129520615.27306 100738224.52506
  24238069.890 6

 25  4 11  0 14  0.0000000  0 34G18R20G15E29G05G23R22R21G13G10G25R06
                                E33E03G24G26R07E13E27E26E15S33S31E07
                                S35G16E21E08R12R05E31G29E23R11
  21022182.783 8 110472628.28708  86082718.76006  21022185.249 6  21022182.551 6
  21022185.407 8  21022188.175 8  82495997.75508

  21619642.585 6 115609961.30406  89918912.27307
  21619653.403 7

  20418395.758 8 107299889.85308  83610556.88507  20418398.249 7  20418395.445 7
  20418398.534 7

  28425785.242 5 149378677.34405
                  28425811.535 6 111549207.06306  28425805.168 6 121249069.10406
  28425808.385 6 114459159.92906  28425809.950 6 113004078.57106
  23507150.729 7 123531045.82607  96258047.57905  23507155.193 5  23507150.448 5
  23507155.272 6

  20656414.956 7 108550638.24107  84585185.72206  20656417.630 6  20656414.720 6
  20656417.836 7  20656420.904 8  81060822.64108

  22391166.896 7 119525652.44007  92964468.43006
  22391173.750 6

  19818905.198 8 106055234.43308  82487568.51107
  19818911.884 7

  22466606.151 7 118063051.64807  91997310.95004  22466609.750 4  22466605.713 4


  23632100.265 7 124187771.01707  96769873.52904  23632109.242 4  23632099.966 4
  23632109.352 6  23632107.262 7  92737807.26907

  25418209.365 6 133573330.11606 104083073.84702  25418231.160 2  25418208.587 2
  25418232.008 5  25418233.807 6  99746266.98806

  19145158.524 6 102162314.02706


  28568908.412 6 150130672.53306
                  28568922.111 6 112110644.62406  28568918.720 5 121859377.79605
  28568919.071 6 115035255.86306  28568920.588 6 113572953.31606
  27886916.768 6 146546869.40506
                  27886926.842 6 109434467.94706  27886923.676 6 118950286.04806
  27886924.532 6 112289262.78106  27886925.615 6 110861868.44006
  25536417.258 5 134194796.61805 104567438.73002  25536434.111 2  25536416.995 2
  25536434.723 6  25536436.276 6 100210475.96406

  24012170.602 6 126184834.09006  98325890.37704  24012179.242 4  24012170.155 4
  24012179.065 6  24012178.375 7  94228974.85207

  20841496.467 8 111566599.62408  86774261.56307
  20841505.986 7

  24039683.720 8 126329471.84508
                  24039689.582 8  94337013.25108  24039687.395 8 102540200.50708
  24039687.599 8  96797963.26708  24039688.546 8  95567488.33208
  28481747.726 5 149672326.37605
                  28481771.347 6 111768235.38006  28481765.801 6 121487402.62306
  28481767.185 6 114683929.84106  28481769.183 6 113226085.18506
  24833444.568 7 130500944.10407
                  24833448.448 7  97452207.66707  24833448.900 7 105926243.30707
  24833446.273 7  99994410.40407  24833447.194 8  98723314.61008
  27211828.176 6 142999036.69506
                  27211839.991 7 106784991.72207  27211836.294 6 116070644.08306
  27211837.151 7 109570681.33607  27211838.534 7 108177836.60107
  37104045.984 7 194983062.76407
                  37104046.469 6 145604255.36406

  36827775.343 7 193531270.73407
                  36827786.090 7 144520155.82307

  25032261.901 7 131545866.93807
                  25032270.275 7  98232601.66207  25032266.877 7 106774006.00607
  25032267.995 7 100795152.94707  25032268.972 8  99513878.37808
  36974456.265 7 194302072.81507
                  36974461.955 6 145095742.09506

  23886432.014 6 125524087.72106  97811006.40104  23886436.058 4  23886431.183 4


  26068634.762 7 136991605.56807
                  26068645.069 7 102298967.52207  26068642.844 6 111194522.89506
  26068642.654 7 104967627.34007  26068643.749 7 103633300.50407
  24905532.100 7 130879767.74807
                  24905536.716 7  97735097.05507  24905535.884 7 106233725.92407
  24905534.714 8 100284683.54908  24905535.680 8  99009887.87408
  23681876.723 7 126504339.17407  98392303.78306
  23681887.805 6

  22507393.871 7 120315225.88907  93578688.56807
  22507402.769 7

  28715578.977 6 150901396.67106
                  28715590.540 6 112686147.25606  28715585.296 6 122484923.47306
  28715587.786 6 115625774.05106  28715589.227 7 114155967.23007
  20736156.844 8 108969354.21008  84911263.87607  20736159.442 7  20736156.491 7
  20736159.526 7

  26092382.207 7 137116450.36307
                  26092389.967 7 102392202.54407  26092387.450 7 111295856.30607
  26092387.772 7 105063295.13607  26092388.488 7 103727752.91507
  24246933.738 6 129568094.11506 100775152.25806
  24246955.022 6

 25  4 11  0 14 15.0000000  0 34G18R20G15E29G05G23R22R21G13G10G25R06
                                E33E03G24G26R07E13E27E26E15S33S31E07
                                S35G16E21E08R12R05E31G29E23R11
  21019532.728 8 110458700.63508  86071866.05506  21019534.842 6  21019532.496 6
  21019535.106 7  21019537.819 8  82485597.25208

  21624841.978 6 115637772.32506  89940543.06707
  21624854.726 7

  20417689.662 8 107296179.11108  83607665.42207  20417692.104 7  20417689.345 7
  20417692.363 7

  28417405.383 5 149334642.62705
                  28417430.968 6 111516324.71406  28417425.154 6 121213327.14506
  28417428.100 6 114425419.68706  28417429.808 6 112970767.27706
  23516071.481 7 123577924.15307  96294576.10005  23516075.776 5  23516071.204 5
  23516075.757 6

  20653663.204 8 108536177.18408  84573917.39406  20653665.749 6  20653662.959 6
  20653665.871 7  20653669.034 8  81050023.83608

  22382778.632 7 119480874.49707  92929641.20406
  22382785.594 6

  19816434.241 8 106042009.88208  82477282.75907
  19816440.345 7

  22470661.387 7 118084362.33607  92013916.67904  22470665.096 4  22470660.931 4


  23624976.942 7 124150338.99607  96740705.84104  23624985.737 4  23624976.652 4
  23624985.965 6  23624984.263 7  92709854.93307

  25426384.171 6 133616289.01706 104116547.91603  25426406.458 3  25426383.407 3
  25426407.353 5  25426409.345 6  99778346.20606

  19144675.545 6 102159738.01106


  28563905.318 6 150104380.51806
                  28563918.922 6 112091011.28806  28563915.573 6 121838037.10706
  28563915.240 6 115015110.29906  28563917.066 6 113553063.87406
  27892839.199 6 146577990.56406
                  27892849.142 6 109457707.74706  27892845.725 6 118975546.70606
  27892846.848 6 112313108.83006  27892847.908 6 110885411.36906
  25529490.381 5 134158396.11705 104539074.81502  25529506.969 2  25529490.149 2
  25529506.756 6  25529508.831 6 100183293.89606

  24015215.119 6 126200833.50406  98338357.42604  24015223.469 4  24015214.668 4
  24015223.910 6  24015222.795 7  94240922.44107

  20831492.729 8 111513048.62508  86732610.89207
  20831502.003 7

  24040775.281 7 126335207.92007
                  24040781.142 8  94341296.68908  24040778.844 8 102544856.40408
  24040779.140 8  96802358.44108  24040780.074 8  95571827.63808
  28489381.951 5 149712447.52005
                  28489406.661 6 111798195.61606  28489400.875 6 121519968.24406
  28489402.206 6 114714671.67306  28489404.183 6 113256436.22206
  24830043.722 7 130483073.83707
                  24830047.834 7  97438863.01507  24830048.280 7 105911738.24007
  24830045.596 7  99980717.62707  24830046.560 8  98709795.89508
  27216278.716 6 143022422.81506
                  27216290.315 7 106802455.34607  27216286.303 6 116089626.29606
  27216287.354 7 109588600.53407  27216288.773 7 108195528.01407
  37104051.797 7 194983090.17307
                  37104051.745 6 145604275.81106

  36827778.580 7 193531274.57507
                  36827786.761 7 144520158.71907

  25025311.455 7 131509343.87807
                  25025319.986 7  98205328.02107  25025316.889 7 106744360.71707
  25025317.822 7 100767167.81407  25025318.788 8  99486248.99208
  36974465.504 7 194302122.71307
                  36974471.359 6 145095779.38806

  23885106.144 6 125517120.03306  97805577.03204  23885110.102 4  23885105.317 4


  26075390.505 6 137027105.56106
                  26075400.543 7 102325477.20607  26075398.478 6 111223337.76506
  26075397.909 7 104994828.58907  26075399.221 7 103660155.97007
  24905304.414 7 130878571.41407
                  24905309.033 7  97734203.71707  24905308.339 7 106232754.89907
  24905307.056 8 100283766.90708  24905307.998 8  99008982.88508
  23686109.790 7 126526954.38607  98409893.35206
  23686121.984 6

  22518308.868 8 120373569.91908  93624067.21407
  22518317.310 7

  28711062.566 6 150877662.78806
                  28711074.155 6 112668423.96006  28711069.275 6 122465659.00706
  28711071.210 6 115607588.39906  28711072.777 7 114138012.75607
  20741514.690 8 108997508.54208  84933202.30507  20741517.081 7  20741514.346 7
  20741517.501 7

  26093613.975 7 137122923.44107
                  26093621.746 7 102397036.32907  26093619.358 7 111301110.42207
  26093619.395 7 105068255.02207  26093620.264 7 103732649.74907
  24255817.423 6 129615565.42306 100812074.10606
  24255838.007 6

 25  4 11  0 14 30.0000000  0 34G18R20G15E29G05G23R22R21G13G10G25R06
                                E33E03G24G26R07E13E27E26E15S33S31E07
                                S35G16E21E08R12R05E31G29E23R11
  21016890.225 8 110444813.88308  86061045.22906  21016892.256 6  21016889.997 6
  21016892.693 8  21016895.260 8  82475227.29508

  21630059.500 6 115665666.41306  89962238.44407
  21630071.074 7

  20417014.864 8 107292632.31008  83604901.70607  20417017.117 7  20417014.556 7
  20417017.447 7

  28409020.869 5 149290583.17705
                  28409046.163 6 111483423.93906  28409040.107 6 121177565.14906
  28409043.062 6 114391660.53706  28409044.907 6 112937437.31406
  23524993.451 7 123624809.19907  96331109.85405  23524997.700 5  23524993.156 5
  23524998.149 6

  20650928.842 8 108521809.21908  84562721.61006  20650931.589 6  20650928.588 6
  20650931.897 7  20650934.869 8  81039294.55308

  22374387.937 7 119436090.20507  92894809.03806
  22374396.132 6

  19813978.200 8 106028867.67408  82467061.06207
  19813984.584 7

  22474744.767 7 118105819.90507  92030636.86705  22474748.211 5  22474744.311 5


  23617865.686 7 124112967.91707  96711585.64904  23617874.140 4  23617865.382 4
  23617874.125 6  23617872.536 7  92681948.10607

  25434548.402 5 133659190.69505 104149977.39202  25434570.469 2  25434547.615 2
  25434571.506 5  25434573.101 6  99810382.68906

  19144230.792 6 102157364.18306


  28558900.344 6 150078080.37806
                  28558914.082 6 112071371.88306  28558910.479 6 121816689.79206
  28558910.827 6 114994958.52306  28558912.345 6 113533168.28006
  27898774.433 6 146609183.68506
                  27898785.122 6 109481001.27706  27898781.697 6 119000865.78306
  27898782.816 6 112337010.05506  27898783.888 6 110909008.74406
  25522557.129 5 134121962.47705 104510685.07703  25522573.579 3  25522556.884 3
  25522573.876 6  25522575.797 6 100156087.09906

  24018279.076 6 126216932.09006  98350901.75104  24018286.933 4  24018278.616 4
  24018288.042 6  24018286.286 7  94252944.08107

  20821510.779 8 111459615.32008  86691051.74707
  20821520.142 7

  24041870.082 8 126340960.99208
                  24041875.948 8  94345592.81908  24041873.570 8 102549526.11408
  24041873.848 8  96806766.64208  24041874.843 8  95576179.80408
  28497009.704 5 149752529.59405
                  28497034.278 6 111828126.71306  28497027.978 6 121552502.15506
  28497029.836 6 114745383.63106  28497031.814 6 113286757.74606
  24826644.210 7 130465208.89107
                  24826648.272 8  97425522.33508  24826648.753 7 105897237.49707
  24826645.995 7  99967028.93107  24826646.956 8  98696281.20608
  27220731.049 6 143045821.85606
                  27220743.225 7 106819928.60207  27220738.523 6 116108618.98806
  27220740.414 7 109606529.62007  27220741.570 7 108213229.18707
  37104058.344 7 194983121.12107
                  37104057.496 6 145604299.23906

  36827778.035 7 193531280.96807
                  36827787.986 7 144520163.32007

  25018372.213 7 131472877.85907
                  25018380.707 7  98178096.99207  25018377.491 7 106714761.74107
  25018378.456 7 100739226.40407  25018379.473 8  99458662.77208
  36974475.949 7 194302175.27907
                  36974481.138 6 145095818.94106

  23883806.425 6 125510290.32306  97800255.19304  23883810.433 4  23883805.594 4


  26082153.557 6 137062646.10806
                  26082163.682 7 102352017.17307  26082161.396 6 111252185.59006
  26082161.173 7 105022060.90707  26082162.407 7 103687042.11207
  24905097.651 7 130877484.43907
                  24905102.196 7  97733392.03907  24905101.191 7 106231872.63307
  24905100.224 8 100282934.05208  24905101.123 8  99008160.61808
  23690368.308 7 126549702.12207  98427585.98106
  23690379.831 6

  22529236.435 7 120431989.33007  93669504.48307
  22529245.892 7

  28706561.792 6 150854012.71106
                  28706573.750 6 112650763.20906  28706568.722 6 122446462.54506
  28706570.562 6 115589466.93606  28706572.133 7 114120121.64807
  20746895.880 8 109025788.35708  84955238.51307  20746898.571 7  20746895.518 7
  20746898.861 7

  26094864.794 7 137129497.61507
                  26094872.734 7 102401945.60507  26094870.415 7 111306446.59507
  26094870.580 7 105073292.37807  26094871.294 7 103737623.06507
  24264700.540 6 129663030.59506 100848991.19806
  24264721.455 6

 25  4 11  0 14 45.0000000  0 34G18R20G15E29G05G23R22R21G13G10G25R06
                                E33E03G24G26R07E13E27E26E15S33S31E07
                                S35G16E21E08R12R05E31G29E23R11
  21014254.486 8 110430963.91708  86050253.05706  21014256.659 6  21014254.254 6
  21014256.847 7  21014259.700 8  82464884.80008

  21635290.280 6 115693639.32406  89983995.11207
  21635302.297 7

  20416370.321 8 107289245.13908  83602262.37407  20416372.564 7  20416370.013 7
  20416373.021 7

  28400630.698 5 149246495.06505
                  28400655.707 6 111450501.68506  28400650.034 6 121141779.82406
  28400652.574 6 114357879.36106  28400654.502 6 112904085.59606
  23533915.601 7 123671696.77607  96367645.58205  23533920.318 5  23533915.302 5
  23533920.757 6

  20648211.821 7 108507530.06207  84551595.02206  20648214.336 6  20648211.571 6
  20648214.602 7  20648217.608 8  81028631.57408

  22365997.592 7 119391295.50007  92859968.74706
  22366004.208 6

  19811536.742 8 106015803.96208  82456900.40207
  19811543.174 7

  22478855.094 7 118127420.00007  92047468.10704  22478858.571 4  22478854.643 4


  23610764.342 7 124075653.62507  96682509.70104  23610773.431 4  23610764.047 4
  23610773.837 6  23610771.671 7  92654083.68707

  25442701.609 5 133702030.68005 104183358.78802  25442722.867 2  25442700.822 2
  25442723.656 6  25442726.065 6  99842373.11306

  19143823.006 6 102155188.41606


  28553893.016 6 150051767.79206
                  28553906.400 6 112051723.16006  28553903.612 6 121795332.38006
  28553903.461 6 114974797.20106  28553904.736 6 113513263.25506
  27904723.266 6 146640444.37206
                  27904733.709 6 109504345.27606  27904729.976 6 119026239.71406
  27904731.455 6 112360963.01006  27904732.698 6 110932657.22106
  25515617.355 5 134085491.80105 104482266.48003  25515633.572 3  25515617.119 3
  25515634.200 6  25515635.388 6 100128852.63506

  24021360.916 6 126233125.40906  98363519.89904  24021368.717 4  24021360.465 4
  24021369.215 6  24021367.686 7  94265036.46207

  20811549.825 8 111406296.54408  86649581.68907
  20811559.731 7

  24042967.357 8 126346726.91908
                  24042973.045 8  94349898.54608  24042970.763 8 102554206.25208
  24042971.056 8  96811184.69508  24042972.054 8  95580541.69408
  28504629.231 5 149792568.27205
                  28504653.739 6 111858025.35406  28504647.212 6 121585000.81806
  28504649.135 6 114776062.26406  28504651.397 6 113317046.38406
  24823244.832 7 130447345.03707
                  24823248.812 7  97412182.47207  24823249.501 7 105882737.63007
  24823246.558 7  99953341.06207  24823247.557 8  98682767.34008
  27225185.636 6 143069229.68806
                  27225197.456 7 106837408.41307  27225193.396 6 116127618.80606
  27225194.664 7 109624465.43907  27225195.982 7 108230937.00007
  37104063.933 7 194983149.75007
                  37104063.072 6 145604320.42906

  36827777.762 7 193531286.24507
                  36827788.965 7 144520167.43207

  25011443.326 7 131436464.91707
                  25011451.470 7  98150905.60107  25011448.340 7 106685205.84607
  25011449.321 7 100711325.65107  25011450.256 8  99431116.70008
  36974482.697 7 194302225.32007
                  36974490.810 6 145095856.09506

  23882531.953 6 125503594.37706  97795037.56604  23882536.012 4  23882531.131 4


  26088924.010 7 137098222.71607
                  26088933.745 7 102378584.08507  26088931.607 6 111281062.68206
  26088931.262 7 105049320.87107  26088932.457 7 103713955.55207
  24904910.697 7 130876502.64407
                  24904915.370 7  97732658.89707  24904914.565 7 106231075.73707
  24904913.410 8 100282181.78408  24904914.272 8  99007417.91308
  23694651.168 7 126572577.51707  98445377.87406
  23694662.087 6

  22540178.600 7 120490479.04107  93714996.43407
  22540187.569 7

  28702076.661 6 150830442.32506
                  28702088.419 6 112633161.98906  28702083.504 6 122427330.74806
  28702085.190 6 115571406.52806  28702086.823 7 114102290.83307
  20752300.468 8 109054189.54308  84977369.29107  20752303.122 7  20752300.111 7
  20752303.368 7

  26096134.472 7 137136168.59007
                  26096142.089 7 102406927.18707  26096139.829 7 111311861.35707
  26096140.058 7 105078403.90207  26096140.730 7 103742669.61907
  24273581.904 6 129710484.67306 100885899.64806
  24273602.147 6

 25  4 11  0 15  0.0000000  0 34G18R20G15E29G05G23R22R21G13G10G25R06
                                E33E03G24G26R07E13E27E26E15S33S31E07
                                S35G16E21E08R12R05E31G29E23R11
  21011626.205 8 110417152.84608  86039491.19606  21011628.521 6  21011625.969 6
  21011628.672 7  21011631.524 8  82454571.35508

  21640536.058 6 115721693.19306  90005814.76407
  21640548.247 7

  20415756.216 8 107286019.66908  83599749.04407  20415758.776 7  20415755.908 7
  20415759.145 7

  28392234.767 5 149202380.39705
                  28392260.418 6 111417559.63206  28392254.395 6 121105972.96506
  28392257.154 6 114324077.84706  28392259.085 6 112870713.81006
  23542839.135 7 123718588.85207  96404184.80805  23542843.691 5  23542838.840 5
  23542843.419 6

  20645512.127 8 108493341.64908  84540539.14806  20645514.357 6  20645511.877 6
  20645514.351 7  20645517.658 8  81018036.36708

  22357604.092 7 119346492.51307  92825122.02806
  22357611.343 6

  19809110.417 8 106002820.85908  82446802.44907
  19809117.179 7

  22482993.116 7 118149164.37307  92064411.77304  22482996.552 4  22482992.660 4


  23603675.050 7 124038398.21107  96653479.63604  23603683.888 4  23603674.755 4
  23603683.759 6  23603682.082 7  92626263.23007

  25450842.430 6 133744810.78906 104216693.49702  25450864.185 2  25450841.630 2
  25450865.081 5  25450867.396 6  99874318.78606

  19143452.857 6 102153212.14406


  28548884.191 6 150025444.74106
                  28548897.193 6 112032066.62206  28548894.066 5 121773966.47405
  28548893.395 6 114954627.85006  28548895.379 6 113493350.31606
  27910685.151 6 146671774.43606
                  27910695.430 6 109527741.09906  27910692.130 6 119051669.94806
  27910693.639 6 112384969.17006  27910694.578 7 110956358.21207
  25508670.323 6 134048986.39306 104453820.85103  25508687.112 3  25508670.104 3
  25508686.813 6  25508688.750 6 100101592.26506

  24024459.902 6 126249415.16306  98376213.19004  24024468.830 4  24024459.446 4
  24024468.628 6  24024467.695 7  94277200.87207

  20801611.497 8 111353094.41808  86608202.36207
  20801620.726 7

  24044067.254 8 126352507.74908
                  24044073.167 8  94354215.39808  24044070.962 8 102558898.48108
  24044071.103 8  96815614.16508  24044072.100 8  95584914.85508
  28512240.602 5 149832565.32005
                  28512265.078 6 111887892.91906  28512258.912 6 121617465.69706
  28512260.723 6 114806709.04506  28512262.966 6 113347303.55606
  24819845.975 7 130429484.29407
                  24819850.041 8  97398844.93108  24819850.735 7 105868240.29107
  24819847.775 7  99939655.58107  24819848.739 8  98669255.83008
  27229641.791 6 143092648.33806
                  27229653.928 7 106854896.32407  27229650.102 6 116146627.41906
  27229651.231 7 109642409.56107  27229652.499 7 108248653.01907
  37104070.663 7 194983179.47207
                  37104068.568 6 145604342.63906

  36827778.822 7 193531291.75907
                  36827789.980 7 144520171.54207

  25004524.486 7 131400107.31407
                  25004532.805 7  98123755.51407  25004529.483 7 106655694.85607
  25004530.508 7 100683467.30107  25004531.556 8  99403612.48108
  36974493.608 7 194302276.98407
                  36974500.558 6 145095894.78706

  23881283.580 6 125497034.14306  97789925.70004  23881287.902 4  23881282.731 4


  26095701.156 7 137133837.18107
                  26095710.953 7 102405179.24807  26095709.062 7 111309970.48407
  26095708.570 7 105076609.82707  26095709.697 7 103740897.61007
  24904744.309 7 130875628.03707
                  24904748.932 7  97732005.81207  24904748.205 7 106230365.84307
  24904746.963 8 100281511.65508  24904747.811 8  99006756.30608
  23698958.376 7 126595582.37707  98463270.49006
  23698968.191 6

  22551134.292 8 120549040.77708  93760544.41107
  22551142.999 7

  28697607.323 6 150806953.75806
                  28697618.614 6 112615621.85006  28697613.700 6 122408265.37606
  28697615.536 6 115553408.81606  28697617.007 7 114084521.91007
  20757728.449 8 109082714.03508  84999596.15407  20757731.175 7  20757728.083 7
  20757731.386 7

  26097422.619 7 137142938.29107
                  26097430.367 7 102411982.46507  26097428.131 7 111317356.22807
  26097428.284 7 105083591.06507  26097428.982 7 103747790.83907
  24282459.563 6 129757929.56406 100922800.98806
  24282480.637 6

 25  4 11  0 15 15.0000000  0 34G18R20G15E29G05G23R22R21G13G10G25R06
                                E33E03G24G26R07E13E27E26E15S33S31E07
                                S35G16E21E08R12R05E31G29E23R11
  21009005.064 8 110403378.61208  86028758.04306  21009007.381 6  21009004.828 6
  21009007.716 8  21009010.354 8  82444285.42008

  21645797.545 6 115749825.84306  90027695.68107
  21645809.302 7

  20415172.960 8 107282953.86508  83597360.12707  20415175.350 7  20415172.656 7
  20415175.617 7

  28383834.361 5 149158237.27305
                  28383859.613 6 111384596.28606  28383853.483 6 121070143.01306
  28383856.662 6 114290254.52306  28383858.332 6 112837320.47906
  23551763.023 7 123765482.59507  96440725.33905  23551766.961 5  23551762.737 5
  23551767.887 6

  20642828.905 7 108479241.74107  84529552.23506  20642831.173 6  20642828.669 6
  20642831.186 7  20642834.455 8  81007507.25108

  22349208.826 7 119301679.27907  92790267.34706
  22349215.606 6

  19806698.668 8 105989916.51008  82436765.74607
  19806705.219 7

  22487157.738 7 118171050.85107  92081466.17404  22487161.431 4  22487157.287 4


  23596596.619 7 124001199.53507  96624493.78304  23596605.010 4  23596596.333 4
  23596605.157 6  23596603.276 7  92598485.14707

  25458971.930 5 133787528.56205 104249979.67402  25458993.662 2  25458971.094 2
  25458995.194 5  25458996.989 6  99906217.91906

  19143119.603 6 102151433.42506


  28543871.957 6 149999108.99706
                  28543885.403 6 112012400.62106  28543881.836 5 121752590.27405
  28543882.098 6 114934448.77606  28543883.521 6 113473427.77806
  27916660.301 6 146703171.53506
                  27916670.360 6 109551186.95206  27916667.334 6 119077154.59506
  27916668.375 6 112409026.65106  27916669.140 6 110980109.87906
  25501716.540 5 134012444.46605 104425346.73103  25501732.670 3  25501716.335 3
  25501733.539 6  25501735.039 7 100074304.58707

  24027578.154 6 126265798.94206  98388979.75504  24027586.593 4  24027577.716 4
  24027586.139 6  24027585.418 7  94289435.48707

  20791694.768 8 111300007.43108  86566912.57007
  20791703.802 7

  24045169.970 8 126358301.38708
                  24045175.649 8  94358541.83208  24045173.410 8 102563601.12608
  24045173.610 8  96820053.45608  24045174.597 8  95589297.71808
  28519843.833 5 149872518.37705
                  28519868.089 6 111917727.62806  28519861.885 6 121649894.85706
  28519864.165 6 114837322.11006  28519866.021 6 113377527.44106
  24816447.247 7 130411624.50807
                  24816451.315 8  97385508.09508  24816452.147 7 105853743.73007
  24816449.242 7  99925970.83407  24816450.109 8  98655745.03908
  27234100.086 6 143116075.73906
                  27234112.061 7 106872390.77007  27234107.736 6 116165643.13706
  27234109.317 7 109660360.38207  27234110.604 7 108266375.65107
  37104074.665 7 194983207.74007
                  37104073.947 6 145604363.98106

  36827779.832 7 193531295.81907
                  36827790.901 7 144520174.52707

  24997616.261 7 131363803.08307
                  24997624.277 7  98096645.30407  24997620.935 7 106626227.20307
  24997621.921 7 100655649.85207  24997623.029 8  99376148.65208
  36974505.046 7 194302326.68707
                  36974510.052 6 145095931.80706

  23880060.986 6 125490607.38606  97784917.84504  23880064.833 4  23880060.146 4


  26102485.106 6 137169487.05706
                  26102494.991 7 102431800.84907  26102492.877 6 111338907.03606
  26102492.482 7 105103925.91907  26102493.685 7 103767866.45607
  24904597.728 7 130874858.50107
                  24904602.479 7  97731431.18307  24904601.664 7 106229741.24407
  24904600.388 8 100280922.03008  24904601.348 8  99006174.18008
  23703288.296 7 126618714.09907  98481261.78006
  23703298.858 6

  22562102.520 8 120607671.57908  93806146.08807
  22562111.083 7

  28693152.520 6 150783544.99706
                  28693164.035 6 112598141.30806  28693158.901 6 122389264.76306
  28693160.955 6 115535472.25806  28693162.386 7 114066813.35807
  20763179.589 8 109111359.45008  85021917.24206  20763182.280 6  20763179.227 6
  20763182.557 7

  26098729.277 7 137149804.44907
                  26098736.887 7 102417109.78707  26098734.844 7 111322929.40407
  26098734.881 7 105088852.13907  26098735.577 7 103752985.03707
  24291336.049 6 129805362.42306 100959692.93106
  24291357.560 6

 25  4 11  0 15 30.0000000  0 34G18R20G15E29G05G23R22R21G13G10G25R06
                                E33E03G24G26R07E13E27E26E15S33S31E07
                                S35G16E21E08R12R05E31G29E23R11
  21006391.182 8 110389642.73208  86018054.77606  21006393.508 6  21006390.946 6
  21006393.913 8  21006396.415 8  82434028.12708

  21651073.576 6 115778038.56006  90049638.86207
  21651085.270 7

  20414619.995 8 107280049.25708  83595096.81707  20414622.608 7  20414619.687 7
  20414623.210 7

  28375428.883 5 149114067.31405
                  28375453.729 6 111351612.88606  28375447.652 6 121034291.23706
  28375450.767 6 114256410.60906  28375452.496 6 112803906.82306
  23560686.749 7 123812379.99507  96477268.72105  23560691.296 5  23560686.463 5
  23560691.866 6

  20640162.974 8 108465231.68508  84518635.34006  20640165.116 6  20640162.751 6
  20640165.282 7  20640168.421 8  80997045.23108

  22340812.792 7 119256857.47007  92755405.98106
  22340819.393 6

  19804302.784 8 105977092.73508  82426791.70007
  19804308.871 7

  22491350.034 7 118193080.66707  92098632.25904  22491353.532 4  22491349.592 4


  23589529.067 7 123964059.09707  96595553.30304  23589537.405 4  23589528.777 4
  23589538.090 6  23589535.690 7  92570750.53307

  25467089.509 5 133830185.23505 104283218.19602  25467111.678 2  25467088.673 2
  25467112.663 5  25467114.821 6  99938071.43906

  19142824.109 6 102149853.59406


  28538858.579 6 149972761.92506
                  28538871.391 6 111992726.15806  28538868.502 6 121731204.88506
  28538867.827 6 114914261.04006  28538869.701 6 113453496.67306
  27922648.304 6 146734636.91106
                  27922658.237 6 109574683.79106  27922654.958 6 119102694.63406
  27922655.742 6 112433136.45406  27922656.799 6 111003913.20006
  25494756.395 5 133975867.68205 104396845.48003  25494771.977 3  25494756.185 3
  25494772.467 6  25494774.398 7 100046990.92707

  24030713.434 6 126282277.92206  98401820.49204  24030722.336 4  24030713.001 4
  24030722.293 6  24030721.298 7  94301741.19107

  20781798.806 8 111247037.06108  86525713.49007
  20781808.436 7

  24046275.098 8 126364109.32208
                  24046280.859 8  94362878.92408  24046278.572 8 102568315.35508
  24046278.822 8  96824503.68908  24046279.799 8  95593691.37908
  28527438.467 5 149912428.71105
                  28527462.790 6 111947530.41006  28527456.644 6 121682289.33806
  28527459.026 6 114867902.37906  28527460.982 6 113407718.97306
  24813049.080 7 130393767.11307
                  24813053.209 8  97372173.05608  24813054.057 7 105839249.11007
  24813051.023 7  99912287.92407  24813051.940 8  98642236.06408
  27238560.168 6 143139513.40906
                  27238572.191 7 106889892.86907  27238567.872 6 116184667.17106
  27238569.211 6 109678319.05606  27238570.658 7 108284106.04207
  37104080.103 7 194983235.60607
                  37104079.210 6 145604384.65506

  36827782.149 7 193531299.85107
                  36827791.514 7 144520177.64807

  24990717.931 7 131327553.93807
                  24990726.217 7  98069576.20907  24990722.910 7 106596804.24807
  24990723.969 7 100627874.60407  24990724.974 8  99348726.48108
  36974513.909 7 194302376.47107
                  36974519.603 6 145095968.88606

  23878863.831 6 125484315.52506  97780015.10404  23878867.489 4  23878863.004 4


  26109275.982 7 137205173.50107
                  26109285.965 7 102458449.77307  26109283.619 6 111367873.28306
  26109283.455 7 105131270.04207  26109284.640 7 103794862.98107
  24904471.554 7 130874195.47507
                  24904476.233 7  97730936.08307  24904475.355 7 106229203.08107
  24904474.277 8 100280414.01608  24904475.141 8  99005672.62308
  23707641.447 6 126641973.57406  98499352.42106
  23707653.340 6

  22573083.034 7 120666372.42607  93851802.26207
  22573091.491 7

  28688713.213 6 150760217.58306
                  28688724.473 6 112580721.50906  28688719.933 6 122370330.21606
  28688722.155 6 115517598.03706  28688723.321 7 114049166.34907
  20768654.161 8 109140127.10308  85044333.57906  20768656.588 6  20768653.804 6
  20768656.912 7

  26100054.474 7 137156768.37907
                  26100062.226 7 102422310.11007  26100060.136 7 111328581.93607
  26100060.084 7 105094188.12607  26100060.800 7 103758253.19307
  24300210.299 6 129852784.19806 100996576.29306
  24300232.317 6

 25  4 11  0 15 45.0000000  0 34G18R20G15E29G05G23R22R21G13G10G25R06
                                E33E03G24G26R07E13E27E26E15S33S31E07
                                S35G16E21E08R12R05E31G29E23R11
  21003785.412 8 110375948.26308  86007383.77706  21003787.513 6  21003785.176 6
  21003787.693 8  21003790.466 8  82423801.75308

  21656365.970 6 115806334.71506  90071646.96007
  21656376.505 7

  20414098.631 8 107277308.76508  83592961.39007  20414101.088 7  20414098.323 7
  20414101.403 7

  28367018.742 5 149069873.62005
                  28367043.533 6 111318611.76006  28367037.597 6 120998420.19306
  28367040.557 6 114222548.51806  28367042.210 6 112770475.21506
  23569612.638 7 123859283.38607  96513816.76905  23569616.758 5  23569612.352 5
  23569617.076 6

  20637514.201 8 108451314.35708  84507790.69306  20637516.713 6  20637513.969 6
  20637516.905 7  20637520.010 8  80986652.45108

  22332414.304 7 119212030.18907  92720540.36306
  22332421.400 6

  19801921.718 8 105964352.73208  82416882.82707
  19801928.435 7

  22495570.315 7 118215256.56707  92115912.18204  22495573.545 4  22495569.864 4


  23582472.630 7 123926979.85907  96566660.51004  23582481.225 4  23582472.331 4
  23582481.468 6  23582479.594 7  92543061.64907

  25475196.183 6 133872783.45906 104316411.18902  25475218.703 2  25475195.401 2
  25475219.510 5  25475221.555 6  99969881.27006

  19142564.643 6 102148475.46406


  28533842.389 6 149946406.42606
                  28533855.929 6 111973045.39706  28533852.691 6 121709812.63206
  28533852.368 6 114894066.84306  28533854.289 6 113433559.19306
  27928649.024 6 146766173.25706
                  27928659.204 6 109598233.64706  27928656.188 6 119128292.32706
  27928656.849 6 112457300.66906  27928658.061 6 111027770.23506
  25487790.617 6 133939259.37406 104368319.64803  25487805.779 3  25487790.439 3
  25487806.094 6  25487807.957 7 100019653.70307

  24033868.629 6 126298854.76806  98414737.48004  24033876.878 4  24033868.196 4
  24033876.655 6  24033875.814 7  94314119.97507

  20771926.124 8 111194186.96908  86484607.96207
  20771935.488 7

  24047383.440 8 126369934.54608
                  24047389.381 8  94367228.93208  24047387.115 8 102573043.62108
  24047387.346 8  96828967.17208  24047388.305 8  95598098.12508
  28535025.804 5 149952299.03405
                  28535050.561 6 111977303.32606  28535043.980 6 121714651.34306
  28535046.499 6 114898452.00306  28535048.373 6 113437880.24706
  24809652.122 7 130375915.04007
                  24809656.087 8  97358841.98308  24809656.742 7 105824758.80107
  24809653.812 7  99898609.07807  24809654.786 8  98628731.10508
  27243022.610 6 143162964.28606
                  27243034.691 7 106907404.83607  27243030.675 6 116203701.95106
  27243032.043 6 109696287.86906  27243033.271 7 108301846.43207
  37104083.693 7 194983266.14807
                  37104085.126 6 145604407.40306

  36827784.733 7 193531306.64407
                  36827792.717 7 144520182.72707

  24983830.724 7 131291363.01107
                  24983839.301 7  98042550.60107  24983836.084 7 106567428.55907
  24983836.941 7 100600143.96607  24983838.000 8  99321348.35808
  36974524.202 7 194302429.37007
                  36974529.610 6 145096008.64706

  23877692.443 6 125478161.61206  97775219.85704  23877696.465 4  23877691.598 4


  26116074.091 7 137240899.20407
                  26116084.327 7 102485128.00707  26116082.701 7 111396871.37007
  26116081.870 7 105158644.22707  26116083.081 7 103821889.19207
  24904366.386 7 130873641.87007
                  24904370.905 7  97730522.70207  24904370.164 7 106228753.74907
  24904368.892 8 100279989.84308  24904369.772 8  99005253.84508
  23712021.364 7 126665363.51007  98517544.53006
  23712033.025 6

  22584077.773 7 120725146.07707  93897515.06507
  22584087.275 7

  28684290.206 6 150736974.65106
                  28684301.647 6 112563364.80506  28684296.918 6 122351464.20106
  28684299.237 6 115499788.53506  28684300.359 7 114031583.24407
  20774152.028 8 109169019.82008  85066847.36906  20774154.689 6  20774151.671 6
  20774154.851 7

  26101398.841 7 137163832.93307
                  26101406.462 7 102427585.58707  26101404.618 7 111334316.15207
  26101404.501 7 105099601.21507  26101405.140 7 103763597.47607
  24309083.702 6 129900197.38306 101033452.91406
  24309104.886 6

 25  4 11  0 16  0.0000000  0 35G18R20G15E29G05G23R22R21G13G10G25R06
                                E33E03G24G26R07E13E27E26E15S33S31E07
                                S35G16E21E08R12R05E31G27G29E23R11
  21001186.469 8 110362290.81708  85996741.62706  21001188.615 6  21001186.237 6
  21001188.577 8  21001191.539 8  82413603.03108

  21661670.988 6 115834709.99006  90093716.59607
  21661683.020 7

  20413607.493 8 107274727.96708  83590950.40307  20413609.978 7  20413607.194 7
  20413610.337 7

  28358602.976 5 149025651.89405
                  28358627.733 6 111285589.66106  28358622.234 6 120962526.36606
  28358625.112 6 114188664.90006  28358626.518 6 112737022.35806
  23578538.061 7 123906187.74407  96550365.56805  23578542.438 5  23578537.744 5
  23578543.206 6

  20634882.783 7 108437485.17707  84497014.73606  20634885.073 6  20634882.555 6
  20634884.894 7  20634888.353 8  80976325.49508

  22324015.464 7 119167193.07607  92685667.10106
  22324021.959 6

  19799555.668 8 105951692.31708  82407035.84107
  19799562.387 7

  22499817.164 7 118237573.90607  92133302.30904  22499820.241 4  22499816.713 4


  23575427.861 7 123889957.39907  96537811.96904  23575436.063 4  23575427.566 4
  23575435.784 6  23575434.212 7  92515415.15707

  25483289.994 6 133915318.48106 104349554.89502  25483313.381 2  25483289.199 2
  25483313.902 5  25483315.778 6 100001643.91506

  19142343.485 6 102147294.60006


  28528824.854 6 149920038.00506
                  28528838.151 6 111953354.96206  28528834.793 5 121688409.86305
  28528834.282 6 114873862.68906  28528836.064 6 113413611.89606
  27934662.868 6 146797775.93606
                  27934672.912 6 109621833.03906  27934669.861 6 119153943.84606
  27934670.895 6 112481515.69906  27934671.892 6 111051677.44806
  25480816.111 5 133902615.30605 104339765.95303  25480832.293 3  25480815.919 3
  25480832.899 6  25480834.390 6  99992289.76706

  24037040.083 6 126315524.70906  98427727.02104  24037048.761 4  24037039.632 4
  24037048.484 6  24037048.025 7  94326568.26707

  20762075.068 8 111141452.80308  86443592.59907
  20762084.215 7

  24048494.518 8 126375772.61708
                  24048500.253 8  94371588.52408  24048498.019 8 102577782.31308
  24048498.268 8  96833440.49808  24048499.244 8  95602514.58408
  28542604.243 5 149992124.70605
                  28542629.607 6 112007042.89306  28542623.345 6 121746977.10406
  28542625.187 6 114928967.43206  28542627.282 6 113468007.74306
  24806254.833 7 130358063.79107
                  24806259.118 8  97345511.53308  24806259.712 7 105810269.17207
  24806256.750 7  99884930.87007  24806257.779 8  98615226.77508
  27247487.009 6 143186423.98206
                  27247499.214 7 106924923.39107  27247494.955 6 116222743.86706
  27247496.088 6 109714263.44606  27247497.484 7 108319593.49307
  37104089.685 7 194983295.38607
                  37104090.550 6 145604429.48206

  36827783.615 7 193531311.63007
                  36827793.701 7 144520186.43707

  24976954.015 7 131255226.05107
                  24976962.640 7  98015565.29107  24976959.346 7 106538096.66107
  24976960.293 7 100572454.68007  24976961.289 8  99294011.05708
  36974533.468 7 194302480.26107
                  36974539.131 6 145096046.62806

  23876547.151 6 125472140.98306  97770528.46303  23876550.567 3  23876546.271 3


  26122879.345 7 137276659.41107
                  26122889.316 7 102511832.00307  26122887.577 6 111425897.48006
  26122886.910 7 105186044.86307  26122888.067 7 103848941.50807
  24904280.926 7 130873193.26207
                  24904285.437 7  97730187.72307  24904284.555 7 106228389.62807
  24904283.447 8 100279646.12308  24904284.386 8  99004914.49608
  23716422.547 7 126688878.97207  98535834.27906
  23716435.123 6

  22595086.431 8 120783987.07808  93943280.22907
  22595094.092 7

  28679882.646 6 150713811.78906
                  28679893.973 6 112546067.89806  28679888.797 6 122332663.19606
  28679891.398 6 115482040.40806  28679892.676 7 114014060.72307
  25313149.709 6 133021500.38616 103653152.59014  25313158.483 4  25313149.789 4
  25313158.929 5  25313159.085 6  99334272.28216

  20779672.984 8 109198032.93208  85089454.97406  20779675.685 6  20779672.622 6
  20779676.078 7

  26102761.063 7 137170993.51707
                  26102768.984 7 102432932.76307  26102767.050 7 111340128.30307
  26102767.125 7 105105087.89207  26102767.768 7 103769014.40207
  24317953.767 6 129947596.92306 101070318.96106
  24317975.375 6

 25  4 11  0 16 15.0000000  0 35G18R20G15E29G05G23R22R21G13G10G25R06
                                E33E03G24G26R07E13E27E26E15S33S31E07
                                S35G16E21E08R12R05E31G27G29E23R11
  20998594.980 8 110348672.66208  85986130.09506  20998597.154 6  20998594.752 6
  20998597.437 8  20998600.128 8  82403433.65008

  21666993.717 6 115863166.41406  90115849.35007
  21667004.335 7

  20413147.260 8 107272308.94008  83589065.46307  20413149.594 7  20413146.979 7
  20413149.743 7

  28350182.572 5 148981404.46005
                  28350207.272 6 111252548.37406  28350201.688 6 120926611.66706
  28350204.486 6 114154761.60106  28350205.952 6 112703550.06706
  23587464.162 7 123953095.34407  96586916.89705  23587468.950 5  23587463.827 5
  23587469.202 6

  20632268.398 7 108423746.22307  84486309.08806  20632270.668 6  20632268.175 6
  20632270.886 7  20632273.893 8  80966065.92508

  22315614.019 7 119122348.51207  92650788.05706
  22315620.423 6

  19797205.284 8 105939113.95708  82397252.68407
  19797211.598 7

  22504090.845 7 118260034.55707  92150804.12205  22504094.374 5  22504090.407 5


  23568393.334 7 123852993.98007  96509009.41904  23568402.169 4  23568393.021 4
  23568402.142 6  23568400.278 7  92487812.73407

  25491372.772 5 133957792.26205 104382650.88003  25491396.452 3  25491371.954 3
  25491396.949 5  25491399.066 6 100033360.78306

  19142160.131 6 102146312.90306


  28523804.668 6 149893658.69906
                  28523817.727 6 111933656.43406  28523815.007 6 121666998.31406
  28523813.910 6 114853650.26906  28523816.105 6 113393656.42506
  27940689.860 5 146829446.93705
                  27940700.062 6 109645483.42906  27940696.846 6 119179650.76906
  27940697.882 6 112505783.04906  27940698.656 6 111075636.31706
  25473837.440 5 133865937.94505 104311186.30203  25473852.720 3  25473837.271 3
  25473853.558 6  25473855.161 6  99964900.96706

  24040231.057 6 126332289.62706  98440790.57504  24040238.879 4  24040230.619 4
  24040239.783 6  24040238.420 7  94339087.50407

  20752245.915 8 111088837.69508  86402669.82307
  20752254.599 7

  24049608.477 8 126381625.75408
                  24049614.097 8  94375959.38008  24049611.785 8 102582533.24108
  24049612.066 8  96837925.37508  24049613.062 8  95606942.45108
  28550175.360 5 150031907.70505
                  28550200.436 6 112036750.56906  28550194.015 6 121779268.18206
  28550196.152 6 114959450.14106  28550198.043 6 113498102.92806
  24802858.796 7 130340215.56707
                  24802862.620 8  97332183.34108  24802863.260 7 105795782.00007
  24802860.449 7  99871254.98307  24802861.345 8  98601724.73608
  27251953.262 6 143209894.74706
                  27251965.261 7 106942450.19107  27251961.485 6 116241794.76506
  27251962.630 6 109732247.46306  27251963.919 7 108337348.90207
  37104097.171 7 194983324.59407
                  37104096.229 6 145604451.23806

  36827783.781 7 193531317.15307
                  36827794.658 7 144520190.65507

  24970087.992 7 131219145.46007
                  24970096.577 7  97988622.06907  24970093.378 7 106508810.52307
  24970094.310 7 100544808.58107  24970095.305 8  99266716.39808
  36974542.903 7 194302531.48007
                  36974548.937 6 145096084.83406

  23875427.305 6 125466255.71506  97765942.53604  23875430.161 4  23875426.402 4


  26129690.956 6 137312456.02606
                  26129701.205 7 102538563.19707  26129699.570 7 111454953.13507
  26129698.732 7 105213473.38707  26129699.990 7 103876021.36407
  24904215.735 7 130872851.80307
                  24904220.369 7  97729932.76207  24904219.513 7 106228112.48707
  24904218.512 8 100279384.50608  24904219.387 8  99004656.20708
  23720849.337 7 126712521.65807  98554222.96506
  23720860.373 6

  22606106.143 8 120842897.56908  93989099.45407
  22606114.970 7

  28675490.663 5 150690731.34305
                  28675501.822 6 112528832.53806  28675497.149 6 122313929.09006
  28675499.394 6 115464355.42206  28675500.532 7 113996600.55707
  25302979.789 6 132968052.65906 103611505.08404  25302987.952 4  25302979.423 4
  25302987.745 5  25302988.073 6  99294360.08306

  20785217.182 8 109227168.47308  85112157.97406  20785219.974 6  20785216.802 6
  20785220.159 7

  26104142.713 7 137178252.18407
                  26104150.275 7 102438353.19307  26104148.482 7 111346020.08807
  26104148.265 7 105110649.72807  26104149.062 7 103774505.53507
  24326821.462 6 129994984.31206 101107175.54406
  24326843.830 6

 25  4 11  0 16 30.0000000  0 35G18R20G15E29G05G23R22R21G13G10G25R06
                                E33E03G24G26R07E13E27E26E15S33S31E07
                                S35G16E21E08R12R05E31G27G29E23R11
  20996010.900 8 110335093.42508  85975548.88406  20996013.061 6  20996010.668 6
  20996013.381 8  20996016.096 8  82393293.32108

  21672329.432 6 115891703.66206  90138044.96207
  21672341.119 7

  20412717.618 8 107270051.31008  83587306.29307  20412719.951 7  20412717.337 7
  20412720.563 7

  28341757.486 5 148937131.05605
                  28341781.797 5 111219487.66305  28341775.958 6 120890675.90706
  28341778.970 6 114120838.35806  28341780.404 6 112670058.08906
  23596391.103 7 124000005.63507  96623470.31405  23596395.718 5  23596390.782 5
  23596396.674 6

  20629670.891 7 108410096.95607  84475673.32006  20629673.223 6  20629670.672 6
  20629673.537 7  20629676.557 8  80955873.32208

  22307211.319 7 119077496.25607  92615903.00006
  22307218.363 6

  19794869.959 8 105926617.53408  82387533.25107
  19794876.578 7

  22508391.960 7 118282637.98107  92168417.17105  22508395.803 5  22508391.513 5


  23561370.755 7 123816089.12707  96480252.51404  23561379.272 4  23561370.438 4
  23561379.157 6  23561377.529 7  92460254.06707

  25499444.097 6 134000204.04006 104415698.55603  25499467.570 3  25499443.319 3
  25499468.030 5  25499469.738 6 100065031.36306

  19142012.801 6 102145530.15406


  28518782.821 6 149867268.03506
                  28518796.042 6 111913949.40406  28518792.718 6 121645577.52606
  28518792.023 6 114833429.10506  28518794.030 6 113373692.32606
  27946729.131 5 146861185.55905
                  27946739.601 6 109669184.30906  27946736.500 6 119205412.61806
  27946737.448 6 112530102.21906  27946738.329 7 111099646.34407
  25466851.789 5 133829227.21905 104282580.66303  25466866.856 3  25466851.615 3
  25466867.444 6  25466868.677 6  99937487.25406

  24043438.866 6 126349148.82206  98453927.57804  24043447.085 4  24043438.415 4
  24043447.773 6  24043446.754 7  94351677.12907

  20742438.687 8 111036340.95608  86361839.12907
  20742447.855 7

  24050724.862 8 126387493.55008
                  24050730.664 8  94380341.18108  24050728.303 8 102587296.06308
  24050728.737 8  96842421.47508  24050729.667 8  95611381.40108
  28557737.828 5 150071647.34505
                  28557763.142 6 112066425.86206  28557756.732 6 121811524.12706
  28557758.272 6 114989899.63706  28557760.665 6 113528165.32806
  24799462.641 7 130322369.89407
                  24799466.734 8  97318857.04408  24799467.239 7 105781296.88407
  24799464.527 7  99857581.04507  24799465.420 8  98588224.61808
  27256421.690 6 143233376.12506
                  27256433.862 7 106959984.94307  27256429.743 6 116260854.28006
  27256431.125 6 109750239.66006  27256432.313 7 108355112.37707
  37104102.908 7 194983353.87907
                  37104101.738 6 145604472.88006

  36827786.611 7 193531322.64607
                  36827795.762 7 144520194.70207

  24963232.796 7 131183121.00407
                  24963241.236 7  97961720.76907  24963238.085 7 106479569.95007
  24963238.894 7 100517205.50107  24963240.016 8  99239464.20808
  36974552.512 7 194302582.51907
                  36974558.712 6 145096122.93306

  23874332.773 6 125460505.41506  97761461.78804  23874336.148 4  23874331.870 4


  26136510.054 6 137348288.30906
                  26136519.993 7 102565321.01407  26136518.119 7 111484037.74807
  26136517.488 7 105240929.24807  26136518.691 7 103903128.20507
  24904171.101 7 130872617.04407
                  24904175.704 7  97729757.47407  24904175.056 7 106227921.95607
  24904173.904 8 100279204.64808  24904174.693 8  99004478.63408
  23725299.761 7 126736290.84207  98572710.04406
  23725311.053 6

  22617139.119 8 120901876.03908  94034971.54507
  22617148.050 7

  28671114.100 5 150667732.90205
                  28671125.495 6 112511658.41806  28671120.488 6 122295261.56506
  28671122.658 6 115446733.28706  28671124.057 7 113979202.42907
  25292812.523 6 132914623.06306 103569871.70204  25292820.672 4  25292811.889 4
  25292820.921 5  25292820.565 6  99254461.43506

  20790784.924 8 109256425.84808  85134955.90906  20790787.502 6  20790784.553 6
  20790787.627 7

  26105542.632 7 137185608.38107
                  26105550.163 7 102443846.44707  26105548.391 7 111351991.02907
  26105548.264 7 105116286.28507  26105548.916 7 103780070.44107
  24335687.290 6 130042358.64606 101144021.93206
  24335709.545 6

 25  4 11  0 16 45.0000000  0 35G18R20G15E29G05G23R22R21G13G10G25R06
                                E33E03G24G26R07E13E27E26E15S33S31E07
                                S35G16E21E08R12R05E31G27G29E23R11
  20993433.950 8 110321551.28608  85964996.58406  20993436.069 6  20993433.722 6
  20993436.163 7  20993439.114 8  82383180.70808

  21677680.779 6 115920319.66806  90160301.81107
  21677692.102 7

  20412318.178 8 107267953.21108  83585671.42707  20412320.680 7  20412317.892 7
  20412321.074 7

  28333327.110 5 148892829.95105
                  28333351.221 5 111186406.27405  28333345.777 6 120854717.67806
  28333348.126 6 114086893.90406  28333349.723 6 112636545.15706
  23605317.983 7 124046916.42307  96660024.11405  23605322.646 5  23605317.670 5
  23605323.000 6

  20627090.403 7 108396535.38607  84465105.88806  20627092.480 6  20627090.184 6
  20627092.753 7  20627095.843 8  80945746.20308

  22298806.933 7 119032634.49307  92581010.54806
  22298814.408 6

  19792549.427 8 105914201.16708  82377876.09107
  19792556.286 7

  22512719.971 7 118305381.97607  92186139.75605  22512723.891 5  22512719.520 5


  23554358.472 7 123779241.02407  96451539.82804  23554367.110 4  23554358.151 4
  23554366.934 6  23554365.434 7  92432737.76707

  25507502.598 6 134042551.66106 104448696.23003  25507526.569 3  25507501.811 3
  25507527.129 5  25507528.812 6 100096654.04406

  19141902.731 6 102144943.84706


  28513757.956 6 149840864.01406
                  28513771.046 6 111894232.41406  28513768.257 6 121624145.90706
  28513767.405 6 114813197.73106  28513769.013 6 113353718.14306
  27952781.052 6 146892989.63906
                  27952791.698 6 109692934.08606  27952788.507 6 119231227.61706
  27952789.367 6 112554471.57606  27952790.478 7 111123705.90707
  25459858.371 6 133792481.48006 104253947.74903  25459873.802 3  25459858.184 3
  25459874.290 6  25459876.291 6  99910047.39706

  24046664.694 6 126366100.06406  98467136.30804  24046672.784 4  24046664.288 4
  24046673.342 6  24046672.430 7  94364335.50207

  20732653.958 8 110983961.47108  86321099.62707
  20732662.744 7

  24051844.049 8 126393374.13508
                  24051849.665 8  94384732.52908  24051847.352 8 102592069.26608
  24051847.670 8  96846927.38108  24051848.690 8  95615830.02808
  28565291.759 5 150111341.50405
                  28565316.671 6 112096067.21306  28565310.597 6 121843743.11206
  28565312.936 6 115020314.29006  28565314.694 6 113558193.33006
  24796066.905 7 130304524.81807
                  24796070.889 7  97305531.19807  24796071.489 7 105766812.26507
  24796068.665 7  99843907.56707  24796069.607 8  98574724.95708
  27260891.230 6 143256866.28406
                  27260903.893 7 106977526.25807  27260900.135 6 116279920.95806
  27260901.341 7 109768238.55707  27260902.402 7 108372882.48307
  37104108.082 7 194983381.84407
                  37104106.809 6 145604494.10206

  36827787.242 7 193531326.10107
                  36827796.437 7 144520197.29807

  24956388.162 7 131147150.97607
                  24956396.379 7  97934860.11007  24956393.139 7 106450373.56007
  24956393.969 7 100489644.11807  24956395.062 8  99212253.18708
  36974562.940 7 194302632.84307
                  36974568.008 6 145096160.67406

  23873263.279 6 125454887.98106  97757084.58104  23873267.372 4  23873262.349 4


  26143334.833 6 137384154.08006
                  26143344.968 7 102592103.84507  26143343.272 6 111513149.54306
  26143342.492 7 105268410.76707  26143343.773 7 103930260.38007
  24904146.433 7 130872487.05907
                  24904150.941 7  97729660.43607  24904150.471 7 106227816.46507
  24904149.123 8 100279105.07308  24904149.929 8  99004380.32808
  23729772.707 7 126760183.98207  98591293.53006
  23729783.410 6

  22628185.243 8 120960920.37008  94080894.85907
  22628193.868 7

  28666752.761 6 150644814.76906
                  28666764.408 6 112494544.24906  28666759.602 6 122276659.20906
  28666761.533 6 115429172.65706  28666762.847 7 113961865.03007
  25282647.978 6 132861209.92006 103528251.13904  25282656.142 4  25282647.352 4
  25282656.477 5  25282656.691 6  99214575.09806

  20796375.218 8 109285802.93208  85157847.12306  20796377.773 6  20796374.852 6
  20796378.344 7

  26106960.321 7 137193060.08607
                  26106968.120 7 102449411.02407  26106966.208 7 111358039.46607
  26106966.268 7 105121996.02707  26106966.922 7 103785707.59807
  24344550.326 6 130089717.69606 101180856.44906
  24344571.669 6

 25  4 11  0 17  0.0000000  0 35G18R20G15E29G05G23R22R21G13G10G25R06
                                E33E03G24G26R07E13E27E26E15S33S31E07
                                S35G16E21E08R12R05E31G27G29E23R11
  20990864.212 8 110308048.33808  85954474.81906  20990866.536 6  20990863.984 6
  20990866.743 8  20990869.516 8  82373097.35208

  21683046.987 6 115949016.51306  90182621.56507
  21683059.145 7

  20411949.827 8 107266016.60608  83584162.40307  20411952.124 7  20411949.546 7
  20411952.489 7

  28324891.308 5 148848503.41005
                  28324915.623 6 111153305.84406  28324910.135 6 120818738.73006
  28324912.400 6 114052929.93106  28324914.231 6 112603012.95306
  23614245.300 7 124093829.24907  96696579.51805  23614249.757 5  23614244.996 5
  23614250.180 6

  20624526.764 7 108383063.39307  84454608.26006  20624528.863 6  20624526.550 6
  20624528.934 7  20624532.153 8  80935685.98308

  22290402.014 7 118987765.42307  92546112.44206
  22290408.364 6

  19790244.651 8 105901867.27808  82368283.06907
  19790251.229 7

  22517075.615 7 118328268.24807  92203973.21604  22517078.866 4  22517075.173 4


  23547357.552 7 123742451.64307  96422872.89804  23547366.248 4  23547357.235 4
  23547366.164 6  23547364.466 7  92405265.31407

  25515550.246 6 134084836.87306 104481645.24802  25515573.567 2  25515549.468 2
  25515573.868 5  25515575.984 6 100128230.09306

  19141830.526 6 102144556.20906


  28508730.955 6 149814448.53806
                  28508744.212 6 111874506.85606  28508740.631 5 121602704.96405
  28508739.609 5 114792957.54905  28508742.135 6 113333735.28306
  27958846.553 6 146924861.00006
                  27958856.730 6 109716734.10706  27958853.510 6 119257097.20906
  27958854.601 6 112578892.45206  27958855.474 6 111147816.35506
  25452860.275 6 133755703.02206 104225289.31603  25452875.225 3  25452860.110 3
  25452876.058 6  25452877.347 6  99882583.09606

  24049907.839 6 126383145.07606  98480418.11603  24049916.356 3  24049907.419 3
  24049917.092 6  24049915.982 7  94377063.89407

  20722891.265 8 110931701.59808  86280453.14407
  20722900.306 7

  24052965.861 8 126399269.53308
                  24052971.565 8  94389134.93608  24052969.236 8 102596854.49508
  24052969.560 8  96851444.64108  24052970.544 8  95620289.86208
  28572837.135 5 150150992.02205
                  28572862.674 6 112125675.93506  28572856.125 6 121875926.69106
  28572858.674 6 115050695.46506  28572860.217 6 113588188.27606
  24792671.404 7 130286682.34107
                  24792675.516 7  97292207.30307  24792676.270 7 105752329.75107
  24792673.325 7  99830236.08007  24792674.273 8  98561227.26608
  27265363.562 6 143280367.25006
                  27265376.010 7 106995075.62607  27265372.030 6 116298996.37306
  27265373.114 6 109786245.75606  27265374.490 7 108390660.76307
  37104111.797 7 194983409.18207
                  37104112.188 6 145604514.44006

  36827786.066 7 193531329.60807
                  36827797.126 7 144520200.03507

  24949553.999 7 131111237.59107
                  24949562.129 7  97908041.74807  24949558.908 7 106421223.13407
  24949559.925 7 100462126.14307  24949560.898 8  99185085.01808
  36974571.485 7 194302682.55807
                  36974577.622 6 145096197.80406

  23872220.811 6 125449405.52206  97752812.53604  23872224.254 4  23872219.890 4


  26150166.987 7 137420055.03307
                  26150176.741 7 102618912.95707  26150174.721 6 111542289.89406
  26150174.335 7 105295919.25107  26150175.549 7 103957419.17807
  24904141.997 7 130872463.85807
                  24904146.509 7  97729643.13007  24904146.045 7 106227797.64507
  24904144.660 8 100279087.31308  24904145.480 8  99004362.79508
  23734267.473 6 126784202.80506  98609974.78506
  23734279.479 6

  22639243.373 8 121020032.04108  94126870.55607
  22639252.082 7

  28662407.411 5 150621979.01805
                  28662418.451 6 112477491.60906  28662413.754 6 122258123.73006
  28662415.897 6 115411675.16206  28662417.191 7 113944589.96007
  25272487.540 6 132807815.59406 103486645.23404  25272495.528 4  25272486.973 4
  25272496.085 5  25272496.222 6  99174702.78606

  20801988.683 8 109315301.63308  85180833.10406  20801991.193 6  20801988.317 6
  20801991.357 7

  26108397.064 7 137200609.12107
                  26108404.570 7 102455048.28507  26108402.760 7 111364166.93507
  26108402.901 7 105127780.35007  26108403.493 7 103791418.39207
  24353410.120 6 130137062.88406 101217680.21306
  24353432.275 6

 25  4 11  0 17 15.0000000  0 35G18R20G15E29G05G23R22R21G13G10G25R06
                                E33E03G24G26R07E13E27E26E15S33S31E07
                                S35G16E21E08R12R05E31G27G29E23R11
  20988302.746 8 110294587.47708  85943985.84706  20988305.008 6  20988302.518 6
  20988305.125 8  20988308.019 8  82363045.42808

  21688429.093 6 115977797.23806  90205006.51807
  21688441.150 7

  20411612.495 8 107264244.33908  83582781.43307  20411614.857 7  20411612.205 7
  20411615.374 7

  28316451.457 5 148804154.33905
                  28316475.711 6 111120188.60206  28316470.020 6 120782741.50306
  28316472.681 6 114018948.68806  28316474.361 6 112569463.71506
  23623173.292 7 124140746.95007  96733138.71405  23623177.763 5  23623172.988 5
  23623178.466 6

  20621980.493 8 108369683.69808  84444182.55106  20621982.770 6  20621980.283 6
  20621983.094 7  20621986.055 8  80925694.68508

  22281996.795 7 118942892.03207  92511210.95606
  22282002.168 6

  19787955.601 8 105889618.97608  82358756.63207
  19787962.186 7

  22521458.238 7 118351299.31307  92221919.49604  22521461.575 4  22521457.796 4


  23540368.320 7 123705723.86307  96394253.96804  23540376.847 4  23540367.985 4
  23540376.370 6  23540375.310 7  92377838.87107

  25523586.007 5 134127062.24405 104514547.67402  25523609.185 2  25523585.216 2
  25523609.430 5  25523611.821 6 100159761.46006

  19141795.183 6 102144369.65906


  28503701.898 6 149788024.37206
                  28503715.741 6 111854774.79706  28503712.486 6 121581256.98306
  28503711.838 6 114772710.73406  28503713.563 6 113313745.84106
  27964924.474 6 146956802.26906
                  27964935.151 6 109740586.32206  27964931.665 6 119283023.52406
  27964932.879 6 112603366.90406  27964933.723 6 111171979.69106
  25445855.077 6 133718894.99806 104196607.83503  25445870.702 3  25445854.890 3
  25445871.545 6  25445872.986 6  99855096.70906

  24053169.296 6 126400286.39406  98493774.95503  24053178.208 3  24053168.885 3
  24053178.885 6  24053177.766 7  94389864.18807

  20713151.407 8 110879564.52408  86239902.16807
  20713160.862 7

  24054091.122 8 126405182.59208
                  24054096.777 8  94393550.53608  24054094.531 8 102601654.06108
  24054094.756 8  96855975.42708  24054095.757 8  95624763.05508
  28580374.751 5 150190601.45605
                  28580400.459 6 112155253.96806  28580393.513 6 121908076.89206
  28580396.256 6 115081045.15306  28580397.995 6 113618152.13206
  24789277.272 7 130268845.27307
                  24789281.208 8  97278887.42608  24789281.901 7 105737851.62607
  24789278.955 7  99816568.73407  24789279.971 8  98547733.65408
  27269838.260 6 143303881.91206
                  27269850.784 7 107012635.21807  27269846.781 6 116318082.92106
  27269847.855 6 109804263.42106  27269849.180 7 108408449.39407
  37104117.754 7 194983438.81007
                  37104117.881 6 145604536.29306

  36827787.595 7 193531336.32207
                  36827798.306 7 144520205.15207

  24942731.208 7 131075383.89207
                  24942739.396 7  97881267.95507  24942736.173 7 106392121.16207
  24942737.063 7 100434653.89407  24942738.106 8  99157961.99708
  36974581.471 7 194302734.62307
                  36974587.531 6 145096236.66106

  23871202.957 6 125444060.63506  97748647.68604  23871206.991 4  23871202.018 4


  26157005.642 7 137455993.72607
                  26157015.813 7 102645750.24307  26157014.052 6 111571460.87206
  26157013.324 7 105323456.64707  26157014.525 7 103984606.51807
  24904158.296 7 130872550.23007
                  24904162.929 7  97729707.65107  24904162.518 7 106227867.77207
  24904161.026 7 100279153.51407  24904161.891 8  99004428.15708
  23738788.135 7 126808349.63207  98628755.58106
  23738800.675 6

  22650313.675 8 121079213.43708  94172900.47307
  22650322.719 7

  28658077.708 5 150599228.52305
                  28658089.231 6 112460502.65306  28658084.797 6 122239657.44706
  28658086.618 6 115394243.00806  28658087.886 7 113927379.40307
  25262331.143 6 132754443.10706 103445056.36105  25262339.320 5  25262330.576 5
  25262339.354 5  25262339.498 6  99134846.80806

  20807625.840 8 109344924.47608  85203915.82206  20807628.245 6  20807625.474 6
  20807628.457 7

  26109852.486 7 137208258.23707
                  26109860.271 7 102460760.26807  26109858.427 7 111370375.61907
  26109858.471 7 105133641.34907  26109859.078 7 103797204.88207
  24362268.267 6 130184396.56006 101254495.02606
  24362290.541 6

 25  4 11  0 17 30.0000000  0 35G18R20G15E29G05G23R22R21G13G10G25R06
                                E33E03G24G26R07E13E27E26E15S33S31E07
                                S35G16E21E08R12R05E31G27G29E23R11
  20985748.305 8 110281164.00508  85933526.01606  20985750.567 6  20985748.077 6
  20985750.774 8  20985753.590 8  82353021.42408

  21693826.082 6 116006657.10706  90227453.05307
  21693837.678 7

  20411305.565 8 107262631.79308  83581524.92407  20411308.014 7  20411305.279 7
  20411308.355 7

  28308006.737 5 148759778.10605
                  28308030.602 6 111087051.08406  28308024.826 5 120746722.23605
  28308027.859 6 113984946.63506  28308029.330 6 112535893.93206
  23632101.447 7 124187664.54807  96769697.82805  23632105.930 5  23632101.139 5
  23632106.536 6

  20619450.827 8 108356391.41708  84433824.95606  20619453.356 6  20619450.617 6
  20619453.462 7  20619456.578 8  80915768.66108

  22273587.387 7 118898009.67007  92476302.50706
  22273594.130 6

  19785681.971 8 105877451.76508  82349293.25007
  19785688.587 7

  22525867.483 7 118374470.63807  92239975.06605  22525871.011 5  22525867.041 5


  23533390.216 7 123669052.94107  96365679.33904  23533398.576 4  23533389.886 4
  23533398.537 6  23533396.909 7  92350454.86507

  25531609.780 5 134169222.72105 104547399.47802  25531632.393 2  25531609.002 2
  25531632.936 5  25531635.284 6 100191244.31706

  19141797.317 6 102144379.59106


  28498671.073 6 149761586.66706
                  28498684.009 6 111835032.64306  28498680.599 5 121559798.01405
  28498680.331 5 114752453.50905  28498682.473 6 113293746.15606
  27971014.987 6 146988808.37706
                  27971025.675 6 109764486.97706  27971021.704 5 119309002.52405
  27971023.437 6 112627891.06206  27971024.355 6 111196192.09506
  25438844.247 6 133682052.94206 104167899.83703  25438859.712 3  25438844.082 3
  25438860.005 6  25438862.248 7  99827584.89307

  24056448.881 6 126417518.89706  98507202.86003  24056457.611 3  24056448.439 3
  24056457.099 6  24056457.006 7  94402732.60307

  20703434.167 8 110827545.88408  86199443.30907
  20703442.997 7

  24055218.688 8 126411108.59008
                  24055224.473 8  94397975.78708  24055222.217 7 102606464.12007
  24055222.457 8  96860516.12208  24055223.437 8  95629246.02808
  28587903.785 5 150230164.80105
                  28587929.223 6 112184797.60906  28587922.603 6 121940189.68706
  28587925.081 6 115111359.51806  28587926.956 6 113648081.13806
  24785882.877 7 130251008.82507
                  24785887.022 7  97265568.02407  24785887.674 7 105723374.00507
  24785884.860 7  99802901.86607  24785885.786 8  98534240.51908
  27274314.740 6 143327405.49806
                  27274327.207 7 107030201.47407  27274323.504 6 116337176.69306
  27274324.219 6 109822287.94906  27274325.618 7 108426244.78607
  37104122.409 7 194983467.54407
                  37104123.180 6 145604558.15106

  36827790.023 7 193531340.28407
                  36827799.143 7 144520207.87207

  24935918.822 7 131039585.27907
                  24935927.077 7  97854535.30607  24935923.838 7 106363063.89507
  24935924.827 7 100407223.85707  24935925.790 8  99130880.65408
  36974592.211 7 194302785.66607
                  36974597.101 6 145096274.88606

  23870211.617 6 125438848.49906  97744586.29204  23870215.199 4  23870210.687 4


  26163850.836 6 137491965.08906
                  26163860.866 7 102672611.92507  26163859.048 6 111600658.38306
  26163858.419 7 105351019.06907  26163859.689 7 104011818.57007
  24904194.502 7 130872741.38307
                  24904199.295 7  97729850.41407  24904198.790 7 106228022.93607
  24904197.328 7 100279299.99607  24904198.249 8  99004572.77908
  23743331.357 6 126832619.18406  98647631.84106
  23743343.664 6

  22661397.643 8 121138458.84608  94218980.19907
  22661406.180 7

  28653764.547 5 150576558.70305
                  28653775.468 6 112443573.93006  28653770.626 6 122221256.64206
  28653772.777 6 115376872.65006  28653773.991 7 113910229.86307
  25252177.066 6 132701087.93706 103403480.99604  25252186.635 4  25252176.503 4
  25252186.032 5  25252186.313 6  99095003.75006

  20813285.534 8 109374666.64008  85227091.51406  20813287.956 6  20813285.177 6
  20813288.176 7

  26111326.462 7 137216002.49107
                  26111334.007 7 102466543.31207  26111332.131 6 111376661.53606
  26111332.067 7 105139575.24907  26111332.790 7 103803063.35507
  24371123.429 6 130231713.36406 101291296.69206
  24371145.358 6

